,개방서비스명,영업상태명,소재지전체주소,좌표정보(x),좌표정보(y),경도,위도,LINK
0,관광숙박업,휴업,서울특별시 강남구 논현동 205-8,202596.666692428,444917.728061158,127.02726635921572,37.50647353940101,1220072300.0
1,관광숙박업,휴업,서울특별시 강북구 미아동 42-8,202651.538047427,456473.886142136,127.02792768444492,37.610593175526,1070070600.0
3,관광숙박업,휴업,서울특별시 강북구 번동 443-6,202232.199646001,459201.468505083,127.02318651026673,37.63516922464604,1080005104.0
4,관광숙박업,휴업,서울특별시 강남구 논현동 151-27,202673.67026853,445483.986504694,127.02813926624384,37.51157529811814,1220078900.0
5,관광숙박업,휴업,서울특별시 강남구 논현동 248-7,203102.074986325,445751.652027981,127.0329858924233,37.51398564552568,1220080500.0
6,관광숙박업,휴업,서울특별시 종로구 종로2가 9 (8층),198630.79627088,452035.412646906,126.9823990809181,37.57060572375323,1000023600.0
7,관광숙박업,휴업,서울특별시 영등포구 영등포동2가 94-154번지,192165.93453037,446508.000792709,126.90927934550382,37.52077152299259,1180073100.0
8,관광숙박업,휴업,서울특별시 중구 장충동2가 186-54,200141.998469463,450878.102981055,126.99950506721908,37.56017960658875,1010031400.0
9,관광숙박업,영업/정상,서울특별시 종로구 관훈동 198-11 호텔 썬비,198586.86523867,452307.07147577,126.98190125464724,37.57305326690932,1000009201.0
10,관광숙박업,영업/정상,서울특별시 중구 회현동1가 99-18번지,198142.881185174,450638.810478052,126.97687976673478,37.558021606230405,1010002607.0
11,관광숙박업,영업/정상,서울특별시 중구 광희동2가 17,200614.724711748,451381.249500534,127.00485574084672,37.56471274121103,1010010501.0
12,관광숙박업,영업/정상,서울특별시 중구 충무로2가 12-7,198877.823601669,451079.561839622,126.98519686201249,37.5619939688047,1010024500.0
13,관광숙박업,영업/정상,서울특별시 중구 남창동 9-15 10층,198065.845616529,450787.39677054,126.97600750184785,37.55936018955863,1010002401.0
14,관광숙박업,영업/정상,서울특별시 중구 쌍림동 270-2,200429.929353714,451264.595792065,127.0027640497044,37.563661796051214,1010035400.0
15,관광숙박업,영업/정상,서울특별시 중구 명동2가 31-1,198619.38819773,451135.740279961,126.9822717191972,37.56249976149007,1010005202.0
16,관광숙박업,영업/정상,서울특별시 중구 태평로2가 366-1 3층,197838.506308443,451380.770303032,126.9734327130634,37.564705899621245,1010017701.0
17,관광숙박업,영업/정상,서울특별시 중구 명동1가 10-1,198625.254251263,451373.686002948,126.98233764622348,37.56464363532855,1010011301.0
18,관광숙박업,영업/정상,서울특별시 중구 을지로5가 274-1,200110.335302043,451549.054429182,126.9991467466848,37.56622480773655,1010045100.0
19,관광숙박업,영업/정상,서울특별시 중구 소공동 70,198232.003862907,451276.307297241,126.97788683232702,37.56376556604417,1010008402.0
20,관광숙박업,영업/정상,서울특별시 중구 북창동 93-99,198053.638327649,451086.299785656,126.9758685226485,37.56205324734081,1010033600.0
21,관광숙박업,영업/정상,서울특별시 중구 주교동 125-2,199770.377675687,451814.600448477,126.99529870276554,37.56861730073583,1000003102.0
22,관광숙박업,영업/정상,서울특별시 중구 장교동 74,198876.925292257,451628.15318809,126.98518580669366,37.566936714365625,1010044600.0
23,관광숙박업,영업/정상,서울특별시 중구 충무로2가 62-9,198814.884440598,451003.686958642,126.98448463112707,37.5613102611007,1010024400.0
24,관광숙박업,영업/정상,서울특별시 서대문구 창천동 18-81,194391.16958802,450428.281096865,126.9344209170079,37.55610930380945,1130003003.0
25,관광숙박업,영업/정상,"서울특별시 서대문구 창천동 31-92 8,9,10층",194425.547743193,450629.487978481,126.93480844019204,37.55792236743941,1120014900.0
26,관광숙박업,영업/정상,서울특별시 서초구 양재동 202,202833.261653939,440511.561175378,127.0299256452719,37.46677326634921,1210007504.0
27,관광숙박업,영업/정상,서울특별시 서초구 잠원동 6-1번지,201530.475526772,446268.294338007,127.01521059324944,37.51864440627309,1210064600.0
28,관광숙박업,영업/정상,서울특별시 서초구 잠원동 18-5번지 호텔티롤,201428.517596116,445869.951055925,127.01405653851867,37.51505550496493,1210029501.0
29,관광숙박업,영업/정상,서울특별시 서초구 서초동 1589-4,201066.818606401,442553.417053589,127.00996079255616,37.48517403936006,1210048200.0
30,관광숙박업,영업/정상,서울특별시 서초구 서초동 1594-4,201151.028822729,442683.649804365,127.01091311891877,37.48634734247996,1210048300.0
31,관광숙박업,영업/정상,서울특별시 서초구 서초동 1361-9,202811.357664681,442727.748435057,127.0296863081819,37.48674122780942,1210016503.0
32,관광숙박업,영업/정상,서울특별시 서초구 서초동 1339-1번지,202594.604971816,443029.088344854,127.02723654902252,37.48945692070307,1210016402.0
33,관광숙박업,영업/정상,서울특별시 서초구 서초동 1670-15,201434.03210615,443506.579876212,127.01411451462089,37.49376156847183,1210021102.0
34,관광숙박업,영업/정상,서울특별시 서초구 서초동 1677-8번지,201577.653343873,443623.599964173,127.01573881398136,37.49481569493015,1210053200.0
35,관광숙박업,영업/정상,서울특별시 송파구 잠실동 40-1,208589.363343145,445455.90405262,127.0950490201458,37.51128661020394,1230077700.0
36,관광숙박업,영업/정상,서울특별시 서초구 반포동 19-3,200250.447804795,444683.220506107,127.00073092406278,37.5043640841491,1210026602.0
37,관광숙박업,영업/정상,서울특별시 중구 남산동2가 18-6번지,198730.397072346,450725.563076072,126.98352889777892,37.55880427573067,1010002801.0
38,관광숙박업,영업/정상,서울특별시 송파구 문정동 61-15 메리제인호텔,210857.025715606,442611.394350958,127.12065582092367,37.48563394356288,1230425504.0
39,관광숙박업,영업/정상,서울특별시 마포구 서교동 460-25,192579.727675563,450446.890829184,126.91392003623336,37.55626404835542,1130052500.0
40,관광숙박업,영업/정상,서울특별시 영등포구 여의도동 13-18 컴포트 인 여의도,192899.064795934,447567.13830193,126.91756218468969,37.53032026945423,1180036401.0
41,관광숙박업,영업/정상,서울특별시 중랑구 상봉동 89-3,207875.674530468,454873.610188721,127.0870770195958,37.59614546190614,1060030400.0
42,관광숙박업,영업/정상,서울특별시 중랑구 묵동 181-64,206879.187709228,456164.316640469,127.07580541890418,37.60778241409521,1060041700.0
43,관광숙박업,영업/정상,서울특별시 관악구 신림동 1432-21,193553.030136586,442745.098221121,126.9250034591278,37.48687869517109,1200041500.0
44,관광숙박업,영업/정상,서울특별시 은평구 갈현동 393-9번지,192817.322848018,457796.737235427,126.91653629002312,37.62248689195248,1110037900.0
46,관광숙박업,영업/정상,서울특별시 영등포구 신길동 261-21,191851.193004066,444816.908814418,126.9057378766466,37.50553211310088,1180011804.0
47,관광숙박업,영업/정상,서울특별시 금천구 독산동 1156 금천롯데캐슬골드파크4차,190799.832998673,439885.941303087,126.893909343557,37.46109415835402,1170036800.0
48,관광숙박업,영업/정상,서울특별시 서대문구 대현동 90-106 2~8층,195013.650484425,450588.358613375,126.9414646416371,37.55755520606615,1120004001.0
49,관광숙박업,영업/정상,서울특별시 강남구 청담동 91-2 4층,203610.123149101,446848.654294053,127.03873770389444,37.52386777683745,1220033403.0
50,관광숙박업,영업/정상,서울특별시 강남구 신사동 603,202482.216634599,447020.420866992,127.02597885995468,37.52541902867712,1220035104.0
51,관광숙박업,영업/정상,서울특별시 구로구 가리봉동 131-53,190265.51915022,442043.305262935,126.8878413190994,37.48052653520907,1160006501.0
52,관광숙박업,영업/정상,서울특별시 영등포구 당산동3가 136번지 외 1필지,190915.92259099,447210.304167445,126.89513048630322,37.52708768900413,1140282001.0
53,관광숙박업,영업/정상,서울특별시 송파구 잠실동 180-10번지,207163.343016332,445433.784924234,127.07891971732056,37.51109938199046,1230022605.0
54,관광숙박업,영업/정상,서울특별시 중구 명동1가 7-1,198636.142124311,451325.229841133,126.98246097641606,37.564207067669706,1010011402.0
55,관광숙박업,영업/정상,서울특별시 중구 남산동2가 35-2,198591.133748202,450740.353160129,126.98195272050118,37.55893732078834,1010027700.0
56,관광숙박업,영업/정상,서울특별시 도봉구 쌍문동 88-67,202993.699335477,460811.193026879,127.03182023631308,37.64967035689714,1090005200.0
57,관광숙박업,영업/정상,서울특별시 구로구 가리봉동 135-66,190337.689631891,441911.257105979,126.88865901573864,37.47933754330375,1160004601.0
58,관광숙박업,영업/정상,서울특별시 종로구 관훈동 155-2,198498.918632911,452473.403750001,126.9809053521718,37.57455175443343,1000035300.0
59,관광숙박업,영업/정상,서울특별시 중랑구 상봉동 128-40,206859.514743746,454661.814438348,127.07556867828336,37.59424527870146,1060012300.0
60,관광숙박업,영업/정상,서울특별시 강남구 논현동 6 보코서울강남(가족호텔),202108.433846703,446160.618240423,127.02174797501452,37.51767315024857,1220086200.0
61,관광숙박업,영업/정상,서울특별시 중구 을지로6가 18-130번지,200513.524528228,451579.099838143,127.00371041300043,37.56649540519721,1010014903.0
62,관광숙박업,영업/정상,서울특별시 구로구 가리봉동 127-7 가리봉 호스텔,190189.036566337,442005.296573287,126.88697712312836,37.48018326302218,1160003501.0
63,관광숙박업,영업/정상,서울특별시 종로구 낙원동 134-2,198988.983646221,452223.097221066,126.98645332064626,37.57229722650175,1000026900.0
64,관광숙박업,영업/정상,서울특별시 송파구 가락동 73-1번지 관광호텔,210664.369854452,443861.184407649,127.11849551526232,37.496896758572966,1230058000.0
65,관광숙박업,영업/정상,서울특별시 서대문구 대현동 90-37,195004.191373545,450587.21669084,126.94135759548962,37.557544865589584,1120004001.0
66,관광숙박업,영업/정상,서울특별시 구로구 가리봉동 135-18 STUDIO 135,190288.461900752,441957.227369102,126.888101850081,37.47975121620497,1160003401.0
67,관광숙박업,영업/정상,서울특별시 관악구 신림동 1432-62,193621.587472621,442638.239212304,126.92577956369914,37.48591637585708,1200041700.0
68,관광숙박업,영업/정상,서울특별시 은평구 대조동 15-132,193699.928737406,456254.05836331,126.92654732680826,37.60859419136535,1110011400.0
69,관광숙박업,영업/정상,서울특별시 종로구 이화동 105-2 glue hotel,200280.218939597,452611.575936538,127.0010699505932,37.57579797322951,1000012400.0
70,관광숙박업,영업/정상,서울특별시 영등포구 영등포동1가 106,192147.071374183,446166.198579975,126.9090696460988,37.517691741650125,1180073100.0
71,관광숙박업,영업/정상,서울특별시 영등포구 양평동1가 164-7번지,190182.956236984,446740.003448997,126.88684480619916,37.522842754569055,1180026901.0
72,관광숙박업,영업/정상,서울특별시 금천구 시흥동 888-11,191301.371054373,438953.867911208,126.89958929767688,37.45270102664504,1170012700.0
73,관광숙박업,영업/정상,서울특별시 금천구 독산동 1006-112,190517.410148318,440300.104174246,126.89071175871668,37.46482290595496,1170021400.0
74,관광숙박업,영업/정상,서울특별시 중구 회현동2가 42-10,198483.811641009,450642.314853297,126.98073828466732,37.55805382793791,1010029201.0
75,관광숙박업,영업/정상,서울특별시 송파구 방이동 36-16번지 호텔 더 캐슬,209573.702036723,445919.513434498,127.10618843072328,37.515454095875455,1230029800.0
76,관광숙박업,영업/정상,서울특별시 서대문구 대현동 104-48 위고인 호스텔 6~8층,194770.272306267,450529.307302535,126.93871062144515,37.55702179439267,1120061900.0
77,관광숙박업,영업/정상,서울특별시 중구 을지로5가 92-2,200187.271400312,451592.158106036,127.00001758387718,37.56661315989388,1010045000.0
78,관광숙박업,영업/정상,서울특별시 강남구 삼성동 168-3 유니온타워,205513.023202982,445316.784823869,127.06025284731253,37.510056427765626,1220077600.0
79,관광숙박업,영업/정상,서울특별시 중구 남대문로2가 9-1,198401.701305913,451374.312212737,126.97980733086554,37.56464890117783,1010044200.0
80,관광숙박업,영업/정상,서울특별시 영등포구 양평동1가 136,190171.844795511,446760.131273728,126.88671883944268,37.52302398593539,1180026901.0
81,관광숙박업,영업/정상,서울특별시 마포구 도화동 573,195359.808050656,448841.031803244,126.94539349665808,37.54181378530557,1130037700.0
82,관광숙박업,영업/정상,서울특별시 마포구 동교동 162-5 MERCURE 앰배서더 HOTEL 홍대,193073.64466155,450341.82321403,126.91951087109102,37.55532127811719,1130053000.0
83,관광숙박업,영업/정상,서울특별시 중구 태평로1가 61-1,197867.156641113,451779.880897566,126.97375580042208,37.56830190870935,1000046700.0
84,관광숙박업,영업/정상,서울특별시 마포구 서교동 373-9,192647.075671686,449962.851191072,126.9146871287215,37.55190344659221,1130051900.0
85,관광숙박업,영업/정상,서울특별시 마포구 동교동 198-30 홍대LJ빌딩,193173.291498782,450805.577656258,126.92063424102156,37.55950040520375,1130057400.0
86,관광숙박업,영업/정상,서울특별시 마포구 서교동 351-29,192893.333078404,450367.063858996,126.917469999887,37.555547308723625,1130053400.0
87,관광숙박업,영업/정상,서울특별시 마포구 도화동 570번지,195484.919869451,448958.582313523,126.94680842614508,37.54287353549999,1130036000.0
88,관광숙박업,영업/정상,서울특별시 마포구 서교동 447-1번지,192736.935397287,450550.232656274,126.91569818000364,37.55719640986607,1130053800.0
89,관광숙박업,영업/정상,서울특별시 마포구 도화동 169-1,195366.504486477,448716.823596557,126.9454700624882,37.54069471341208,1130032000.0
90,관광숙박업,영업/정상,서울특별시 마포구 합정동 382-17번지,192044.052062349,449625.190175398,126.90786658403938,37.5488561068526,1130046100.0
91,관광숙박업,영업/정상,서울특별시 마포구 공덕동 467 롯데캐슬프레지던트,195564.375757848,449186.933273231,126.94770609711782,37.54493134964455,1130036200.0
92,관광숙박업,영업/정상,서울특별시 마포구 상암동 1587,189919.550051873,453342.222208599,126.88377383449884,37.58232515076011,1130028401.0
93,관광숙박업,영업/정상,서울특별시 마포구 노고산동 1-74,194856.148175113,450442.424814188,126.9396831360435,37.55623948141983,1120061900.0
94,관광숙박업,영업/정상,서울특별시 마포구 도화동 25-13 효성해링턴 스퀘어,195616.580723896,448973.867131637,126.94829812065862,37.54301189477253,1130034500.0
95,관광숙박업,영업/정상,서울특별시 마포구 동교동 160-5 롯데호텔 L7홍대,193005.883365365,450387.023230304,126.918743567359,37.55572800912542,1130018301.0
96,관광숙박업,영업/정상,서울특별시 마포구 서교동 354-5,192971.947727746,450243.232547428,126.91836089789764,37.55443220988528,1130052900.0
97,관광숙박업,영업/정상,서울특별시 마포구 서교동 354-10번지,192911.642624498,450171.317352359,126.91767912111123,37.55378379562176,1130052500.0
98,관광숙박업,영업/정상,서울특별시 마포구 동교동 155-30번지,193279.38663668,450637.276776739,126.9218365655498,37.55798482001511,1130056500.0
99,관광숙박업,영업/정상,서울특별시 영등포구 당산동2가 30-8,190378.895367059,446678.151132037,126.88906214246995,37.52228754601523,1180025201.0
100,관광숙박업,영업/정상,서울특별시 송파구 잠실동 180-3번지,207125.820825269,445419.558960012,127.07849518474012,37.51097149429662,1230022503.0
101,관광숙박업,영업/정상,서울특별시 구로구 구로동 1131-2,191043.644024006,442112.644374091,126.8966378843986,37.48115920140509,1160004101.0
102,관광숙박업,영업/정상,서울특별시 구로구 가리봉동 131-18 아단아,190241.658927066,442019.000152412,126.88757188154857,37.48030729292605,1170030400.0
103,관광숙박업,영업/정상,서울특별시 구로구 가리봉동 135-25 구로 제이에스 호스텔,190289.173314581,441929.798809285,126.8881102571132,37.47950409235383,1170040600.0
104,관광숙박업,영업/정상,서울특별시 중구 남대문로4가 17-19,197895.491160507,451035.7030265,126.9740787243814,37.56159701742664,1010002301.0
105,관광숙박업,영업/정상,서울특별시 중구 광희동2가 228,200686.364658168,451262.161389721,127.00566650701955,37.56363972501349,1010005302.0
106,관광숙박업,영업/정상,서울특별시 금천구 독산동 335-8,190204.539880665,440974.712401628,126.8871661912042,37.47089785706989,1170006101.0
107,관광숙박업,영업/정상,서울특별시 영등포구 양평동3가 30-3번지,189758.735655025,447157.130858016,126.88204005029566,37.526596404507856,1140284401.0
108,관광숙박업,영업/정상,서울특별시 은평구 녹번동 141-57,193336.177185859,456159.464402602,126.92242860772151,37.60773932952909,1110012600.0
109,관광숙박업,영업/정상,서울특별시 중구 을지로5가 19-29,200095.261182808,451680.793663218,126.99897613015284,37.56741176369344,1010043200.0
110,관광숙박업,영업/정상,서울특별시 송파구 신천동 29-1 KT송파타워,209337.104501753,445744.864426145,127.10351003071985,37.5138829236026,1230081100.0
111,관광숙박업,영업/정상,서울특별시 송파구 신천동 29-1 KT송파타워,209337.104501753,445744.864426145,127.10351003071985,37.5138829236026,1230081100.0
112,관광숙박업,영업/정상,서울특별시 마포구 합정동 379-4 주니비노 호텔,192043.507297118,449524.361048163,126.907861520851,37.54794764159756,1130001005.0
113,관광숙박업,영업/정상,서울특별시 영등포구 양평동3가 33-5,189814.291077523,447181.999973293,126.8826681942088,37.5268210921456,1140284401.0
115,관광숙박업,영업/정상,서울특별시 구로구 구로동 569-18 코코모호텔,189450.264635122,443088.528795632,126.87860906122636,37.48993498778746,1160030200.0
117,관광숙박업,영업/정상,서울특별시 강서구 염창동 259-2,189200.147733153,449654.951038959,126.875683883362,37.549095128627776,1150049000.0
118,관광숙박업,영업/정상,서울특별시 강서구 외발산동 426,183863.692502412,449443.610735042,126.8152999596022,37.547112667184095,1150022201.0
119,관광숙박업,영업/정상,서울특별시 강서구 화곡동 1110-3번지,186892.947389352,450261.991363534,126.84956413936663,37.55453441829269,1150056300.0
120,관광숙박업,영업/정상,서울특별시 강서구 외발산동 282-2번지,183993.393147385,449605.865701793,126.81676409099748,37.548576832416856,1150022303.0
121,관광숙박업,영업/정상,서울특별시 강서구 외발산동 215,184029.320078984,449535.607231956,126.8171721798505,37.547944438328535,1150022303.0
122,관광숙박업,영업/정상,서울특별시 노원구 상계동 711-9,205157.94751541,461423.045063883,127.0563487260622,37.65517354209855,1100029703.0
123,관광숙박업,영업/정상,서울특별시 강남구 청담동 131번지 알로프트 서울 강남 호텔,204850.302981167,446835.931404503,127.05276711540486,37.523747546772,1220097700.0
124,관광숙박업,영업/정상,서울특별시 강동구 천호동 324-39 외3필지,210981.596844031,449282.085359224,127.12216333362092,37.54573502509505,1240042200.0
125,관광숙박업,영업/정상,서울특별시 강동구 길동 387-1번지,212136.45903212,448450.725351294,127.13521779518447,37.53823016269025,1240039200.0
126,관광숙박업,영업/정상,서울특별시 강동구 천호동 452-30번지,211302.314479117,448470.034451444,127.12578006840312,37.53841467455237,1240039600.0
127,관광숙박업,영업/정상,서울특별시 강남구 개포동 1229-14,204053.596300672,441557.179656218,127.04372579836088,37.47618986019083,1210039400.0
128,관광숙박업,영업/정상,서울특별시 강남구 역삼동 677-9,203451.550821003,444529.420299492,127.03693317845124,37.50297215515202,1220070902.0
129,관광숙박업,영업/정상,서울특별시 강남구 역삼동 677-8,203467.667642123,444535.854061853,127.03711547843314,37.5030300639859,1220066100.0
130,관광숙박업,영업/정상,서울특별시 강남구 역삼동 819-9,202451.742958279,444092.87549641,127.02562461810268,37.49904201828512,1210055300.0
131,관광숙박업,영업/정상,서울특별시 강남구 논현동 206-1,202713.81010796,444963.003980538,127.02859139617412,37.50688114572789,1220075900.0
132,관광숙박업,영업/정상,서울특별시 강남구 역삼동 642-2,203095.187072133,444354.430359109,127.03290222729348,37.50139673690092,1220109500.0
133,관광숙박업,영업/정상,서울특별시 강남구 대치동 891-34번지 서원빌딩 3층~5층호,204719.15931343,444786.150912491,127.05127058598224,37.50527977392389,1220026801.0
134,관광숙박업,영업/정상,서울특별시 강남구 논현동 198-20,202161.235372399,444814.440071409,127.02234140377992,37.50554400819605,1220073300.0
135,관광숙박업,영업/정상,서울특별시 강남구 삼성동 158-13번지,205121.655,445138.69,127.05582509926036,37.50845402523233,1220075700.0
136,관광숙박업,영업/정상,서울특별시 금천구 독산동 152-10,190862.968726515,441065.665921744,126.89460824154914,37.47172413571538,1170039900.0
137,관광숙박업,영업/정상,서울특별시 금천구 가산동 141-1,190291.362021742,441856.76167243,126.88813597095454,37.47884605070698,1160004501.0
138,관광숙박업,영업/정상,서울특별시 금천구 가산동 547-63,189045.768055551,441806.212135891,126.87405446917091,37.478376592637225,1140284401.0
139,관광숙박업,영업/정상,서울특별시 강동구 성내동 417-5,211855.041782136,447431.586848941,127.13201731462328,37.52905145449638,1240009000.0
140,관광숙박업,영업/정상,서울특별시 강남구 논현동 201-4번지,202220.14,444805.625,127.0230075719506,37.50546444897878,1220073300.0
141,관광숙박업,영업/정상,서울특별시 강남구 역삼동 736-51,203064.385125254,444133.338603466,127.0325529843899,37.499404803942326,1220023402.0
142,관광숙박업,영업/정상,서울특별시 강남구 역삼동 823-43,202800.634114449,444058.465089517,127.02957000414077,37.49873101339156,1210022203.0
143,관광숙박업,영업/정상,서울특별시 강남구 신사동 502-11,201684.704785227,446105.858997581,127.01695482777262,37.51718061258927,1210064300.0
144,관광숙박업,영업/정상,서울특별시 강남구 역삼동 678-13,203333.617282827,444467.312715941,127.03559915483704,37.50241299191095,1220109500.0
145,관광숙박업,영업/정상,서울특별시 강남구 역삼동 719-20,203566.634592836,444370.566836892,127.0382339411872,37.50154045910429,1220109300.0
146,관광숙박업,영업/정상,서울특별시 강남구 역삼동 603-1,202535.919022141,444822.174971826,127.02657899146728,37.50561277280215,1220072300.0
147,관광숙박업,영업/정상,서울특별시 강남구 삼성동 158번지,205020.248732302,445191.129756305,127.05467853341888,37.50892705563205,1220029202.0
148,관광숙박업,영업/정상,서울특별시 강남구 청담동 48-3번지,204216.450027497,446867.588235408,127.04559686456632,37.52403584222696,1220034801.0
149,관광숙박업,영업/정상,서울특별시 강남구 삼성동 142-41,204488.365267013,444832.873128843,127.0486606641594,37.50570187430903,1220027702.0
150,관광숙박업,영업/정상,서울특별시 강남구 대치동 995-16,205636.367492511,445183.035278769,127.061646905116,37.50885061265118,1220075400.0
151,관광숙박업,영업/정상,서울특별시 강남구 역삼동 723-3번지,203563.297317024,444266.609812808,127.03819570534634,37.50060382063812,1220066100.0
152,관광숙박업,영업/정상,서울특별시 강남구 신사동 587-21번지,202447.848471025,446447.1648066,127.02558820448992,37.520254108733205,1220089000.0
154,관광숙박업,영업/정상,서울특별시 강남구 역삼동 708-35번지,204272.802698096,444535.336141507,127.04622100872793,37.50302208003602,1220069400.0
155,관광숙박업,영업/정상,서울특별시 강남구 역삼동 720-23번지,203651.669007478,444353.684205677,127.03919552159314,37.50138802055585,1220025301.0
156,관광숙박업,영업/정상,서울특별시 강남구 역삼동 675-3,203578.799034139,444715.394917107,127.0383731569516,37.50464730727603,1220071002.0
157,관광숙박업,영업/정상,서울특별시 구로구 가리봉동 135-30 바모스하우스,190311.667218288,441947.454339126,126.88836433406398,37.47966340628984,1160003501.0
159,관광숙박업,영업/정상,서울특별시 구로구 신도림동 432-30,189793.631285586,444899.40426595,126.88246635225192,37.50625480452749,1160079200.0
160,관광숙박업,영업/정상,서울특별시 구로구 구로동 1128-1,190990.955753109,442338.842381042,126.89603940401376,37.4831967298458,1160020800.0
161,관광숙박업,영업/정상,서울특별시 구로구 구로동 188-25 지밸리비즈플라자,190779.824680954,442527.527966789,126.8936499104846,37.48489468973208,1160023300.0
162,관광숙박업,영업/정상,서울특별시 강북구 수유동 274-1,201305.455244726,460570.957809466,127.0126894490872,37.64750972615965,1080012901.0
163,관광숙박업,영업/정상,서울특별시 강북구 수유동 570-2 영호스텔,200934.182307911,460594.794065117,127.00848251077996,37.64772491139895,1080011500.0
164,관광숙박업,영업/정상,서울특별시 도봉구 도봉동 560-16번지,203956.522216276,464745.309206513,127.042751460904,37.68511209815546,1090039200.0
165,관광숙박업,영업/정상,서울특별시 도봉구 방학동 705-13번지,203781.732147085,462825.040991622,127.0407600985856,37.66781175571348,1090011700.0
166,관광숙박업,영업/정상,서울특별시 중구 충무로2가 51-17,199037.916477276,451051.291993868,126.98700887009048,37.56173945275598,1010003402.0
167,관광숙박업,영업/정상,서울특별시 중구 충무로3가 58-8,199114.933047561,451143.358208599,126.98788043949264,37.56256904195705,1010003302.0
168,관광숙박업,영업/정상,서울특별시 종로구 숭인동 202-13,201770.687981914,452337.690748925,127.01794190306498,37.57332874801868,1000027800.0
169,관광숙박업,영업/정상,서울특별시 구로구 가리봉동 135-90,190307.024213311,441974.142477597,126.8883114877898,37.47990381746722,1160003601.0
170,관광숙박업,영업/정상,서울특별시 영등포구 영등포동2가 317-2 엔와이호스텔,191858.027306326,446421.213263331,126.905797270869,37.51998688617941,1180022301.0
171,관광숙박업,영업/정상,서울특별시 중구 다동 130,198260.880732247,451708.909162308,126.97821261158596,37.56766331646841,1000023500.0
172,관광숙박업,영업/정상,서울특별시 영등포구 당산동1가 186-51 SH호스텔,190957.999888108,446729.260608743,126.895612463573,37.52275393424296,1180021802.0
173,관광숙박업,영업/정상,서울특별시 강남구 신사동 561-19,202159.749483028,446291.277157107,127.02232880600197,37.51885026666118,1220089800.0
174,관광숙박업,영업/정상,서울특별시 중구 충무로2가 12-5,198898.282009528,451082.839302118,126.9854284098363,37.56202352450088,1010024400.0
175,관광숙박업,영업/정상,서울특별시 서초구 서초동 1362-26 준타워,202827.205726281,442635.958648293,127.0298651558019,37.48591415391369,1210048800.0
176,관광숙박업,영업/정상,서울특별시 관악구 신림동 1426-11,193710.457962963,442822.304969444,126.92678281102803,37.487575423688384,1200039800.0
177,관광숙박업,영업/정상,서울특별시 관악구 신림동 1426-12,193706.653374624,442832.744067596,126.92673970247158,37.48766945379084,1200039800.0
178,관광숙박업,영업/정상,서울특별시 광진구 광장동 327-1,209407.745384399,449459.252995276,127.10435627176088,37.54734857549275,1040033500.0
180,관광숙박업,영업/정상,서울특별시 중구 충무로1가 21-17,198403.083197305,451049.012425837,126.97982370863087,37.5617179883987,1010005202.0
181,관광숙박업,영업/정상,서울특별시 중구 충무로1가 21-17,198403.083197305,451049.012425837,126.97982370863087,37.5617179883987,1010005202.0
182,관광숙박업,영업/정상,서울특별시 강서구 마곡동 759-2,184496.437996802,451677.575370424,126.82241267363555,37.567251266654345,1150161900.0
183,관광숙박업,영업/정상,서울특별시 영등포구 당산동1가 186-74 퍼스티어 호스텔,191019.994049092,446713.408294767,126.89631395422887,37.522611715427466,1180031101.0
184,관광숙박업,영업/정상,서울특별시 송파구 방이동 36-2,209577.698774715,445907.77255221,127.1062334866759,37.51534826995913,1230029800.0
185,관광숙박업,영업/정상,서울특별시 중구 남산동2가 43-7,198614.550199488,450677.047277743,126.98221786761026,37.5583669784381,1010002701.0
186,관광숙박업,영업/정상,서울특별시 강남구 역삼동 676 센터필드,203599.062771687,444556.062267296,127.0386015657005,37.50321164604461,1220069700.0
187,관광숙박업,영업/정상,서울특별시 관악구 신림동,193859.618674702,442562.87358396,126.92847155513562,37.48523895996863,1200037300.0
188,관광숙박업,영업/정상,서울특별시 동대문구 전농동 597-41,204138.950468648,453269.018797518,127.04475568306223,37.58171245924447,1050015200.0
189,관광숙박업,영업/정상,서울특별시 동대문구 이문동 254-4,205424.949299884,455714.48034047,127.0593326420296,37.603739090255246,1050021301.0
190,관광숙박업,영업/정상,서울특별시 동대문구 신설동 98-24,202233.604900045,452654.5266264,127.02318303567522,37.576182425160646,1000034800.0
191,관광숙박업,영업/정상,서울특별시 동대문구 장안동 414-4,205320.396297203,451122.642371749,127.05811570006122,37.5623678981932,1030068101.0
192,관광숙박업,영업/정상,서울특별시 관악구 신림동 1422-18,193854.011442373,442535.270597645,126.92840838894335,37.48499021930552,1200037300.0
193,관광숙박업,영업/정상,서울특별시 관악구 신림동 1421-47,193791.550336071,442572.551886902,126.92770184875609,37.485325702047504,1200035100.0
195,관광숙박업,영업/정상,서울특별시 관악구 신림동 1433-122,193457.995986558,442484.950403885,126.92393125264094,37.48453408846391,1200038200.0
196,관광숙박업,영업/정상,서울특별시 관악구 신림동 1432-79,193672.292011766,442595.201521853,126.92635324015689,37.48552895823696,1200037800.0
197,관광숙박업,영업/정상,서울특별시 관악구 신림동 1463-65,193345.76981132,442537.259064514,126.9226618870007,37.48500458069425,1200037700.0
198,관광숙박업,영업/정상,서울특별시 관악구 신림동 1474-11,192221.284006412,442115.233810003,126.9099522724644,37.48119327407576,1200003903.0
199,관광숙박업,영업/정상,서울특별시 관악구 신림동 1432-55,193608.44765448,442632.12005209,126.92563104885818,37.48586115052319,1200041700.0
200,관광숙박업,영업/정상,서울특별시 동대문구 휘경동 319-19,204932.775091374,454118.502321589,127.05374838372305,37.589362326480085,1050045800.0
201,관광숙박업,영업/정상,서울특별시 동대문구 장안동 415-15,205377.431831779,451112.370883917,127.05876117007408,37.56227502624602,1030017102.0
202,관광숙박업,영업/정상,서울특별시 동대문구 신설동 92-35,202286.682586248,452683.713874138,127.02378398369191,37.57644527195336,1050039900.0
203,관광숙박업,영업/정상,서울특별시 강남구 삼성동 159-8,205314.159889285,445204.709309676,127.05800282759331,37.50904778291387,1220331200.0
204,관광숙박업,영업/정상,서울특별시 강남구 대치동 893-1,204976.284445723,444767.617235233,127.05417846052276,37.50511145426723,1220071200.0
205,관광숙박업,영업/정상,서울특별시 강남구 논현동 18-2,201746.195,445794.05,127.01764965890553,37.51437111511779,1210029401.0
206,관광숙박업,영업/정상,서울특별시 강남구 대치동 995-14,205601.904041677,445151.509504571,127.0612568793327,37.508566773704736,1220028802.0
207,관광숙박업,영업/정상,서울특별시 강남구 논현동 205-9번지,202564.648054725,444905.529446636,127.02690419191607,37.50636371740612,1220072300.0
208,관광숙박업,영업/정상,서울특별시 강남구 신사동 527-2,201658.416590861,446639.566102925,127.01665862691992,37.52198933647446,1210005701.0
209,관광숙박업,영업/정상,서울특별시 강남구 역삼동 642,203065.439088667,444338.739765925,127.03256574100844,37.50125546203449,1220064400.0
210,관광숙박업,영업/정상,서울특별시 광진구 자양동 227-342,206217.434726027,448506.218743834,127.06824670604944,37.53878862240544,1040029300.0
211,관광숙박업,영업/정상,서울특별시 광진구 군자동 350-6,206032.404204369,449812.167768449,127.06616375107654,37.55055632487103,1030001800.0
212,관광숙박업,영업/정상,서울특별시 광진구 중곡동 638-3,206698.893815455,450714.384110768,127.07371423239366,37.55868064584303,1040038800.0
213,관광숙박업,영업/정상,서울특별시 광진구 능동 276-1,207010.871583566,450476.132985226,127.0772428550679,37.5565317311254,1040036800.0
214,관광숙박업,영업/정상,서울특별시 광진구 군자동 350-1,206049.041722081,449837.413487285,127.06635223528252,37.55078367853222,1030036200.0
215,관광숙박업,영업/정상,서울특별시 광진구 화양동 24-15,205814.775584133,449312.4702829,127.06369704397864,37.546055479507565,1030031600.0
216,관광숙박업,영업/정상,서울특별시 광진구 화양동 23-15,205879.365670312,449454.638559578,127.06442905938728,37.54733599789739,1030036200.0
217,관광숙박업,영업/정상,서울특별시 광진구 구의동 246-8 4층~5층,207451.978559216,448383.349035758,127.08221398186258,37.53767251567758,1040001702.0
218,관광숙박업,영업/정상,서울특별시 광진구 자양동 24-6 호텔케이월드,205540.082598602,448702.306849626,127.06058411913754,37.54055963013497,1030023401.0
219,관광숙박업,영업/정상,서울특별시 광진구 구의동 595,208051.884671132,447994.805558304,127.08899742147707,37.53416677037465,1040026000.0
221,관광숙박업,영업/정상,서울특별시 동대문구 청량리동 30-6,204390.028486003,453618.739915578,127.04760025487134,37.584862251400985,1050014200.0
222,관광숙박업,영업/정상,서울특별시 동대문구 신설동 76-32,202127.604983917,452682.7306843,127.02198315572872,37.57643678351971,1050037600.0
223,관광숙박업,영업/정상,서울특별시 강서구 화곡동 1097-4,186720.895010675,450123.211356154,126.8476195341007,37.55328155397817,1150011605.0
224,관광숙박업,영업/정상,서울특별시 강서구 외발산동 280-1,183962.828662192,449599.177635822,126.81641836546574,37.54851604065711,1150022204.0
225,관광숙박업,영업/정상,서울특별시 강서구 화곡동 918-23번지 외 2필지,186202.178143443,447567.06883048,126.84179752531077,37.53024334015798,1150007503.0
226,관광숙박업,영업/정상,서울특별시 강서구 방화동 886 외 6필지,182524.823835629,451438.25089679,126.80010176408638,37.565059576801474,1150108200.0
227,관광숙박업,영업/정상,서울특별시 강서구 외발산동 426,183863.692502412,449443.610735042,126.8152999596022,37.547112667184095,1150022201.0
228,관광숙박업,영업/정상,서울특별시 강서구 화곡동 904-6,186440.443863809,447428.864448039,126.84449568104004,37.52900167984946,1150023100.0
229,관광숙박업,영업/정상,서울특별시 강서구 화곡동 905-8번지,186374.27787759,447401.426813655,126.8437476427582,37.528753490013024,1150023100.0
230,관광숙박업,영업/정상,서울특별시 강남구 청담동 53-7,204714.758457103,446852.078363788,127.0512338770348,37.52389372290785,1220095200.0
231,관광숙박업,영업/정상,서울특별시 강남구 역삼동 604-11,202699.226067088,444846.764226016,127.0284260357503,37.50583386997344,1220027203.0
232,관광숙박업,영업/정상,서울특별시 강서구 염창동 20-85번지,188239.336760938,450510.801870622,126.86479731587124,37.55679442244936,1150063101.0
233,관광숙박업,영업/정상,서울특별시 강서구 마곡동 797-10번지 엠팰리체 701호,185373.875552476,450852.52184551,126.8323608911563,37.55983206234053,1150418300.0
234,관광숙박업,영업/정상,서울특별시 동작구 사당동 1043-6,198197.366312126,441663.188965473,126.9775191982536,37.47715172832116,1200030900.0
235,관광숙박업,영업/정상,서울특별시 동작구 상도동 353-2번지,194052.281602581,444337.583039184,126.93063543261668,37.50123035031466,1190018400.0
236,관광숙박업,영업/정상,서울특별시 동작구 신대방동 698,191481.81674639,442602.765890516,126.90158616031732,37.48557936829486,1180041700.0
237,관광숙박업,영업/정상,서울특별시 강남구 삼성동 45-10,204324.263443033,445580.187539001,127.04680904487668,37.51243592665105,1220030001.0
238,관광숙박업,영업/정상,"서울특별시 강남구 신사동 587-1번지 신사동 587-1, 6, 7",202471.536204701,446478.944977018,127.02585626240688,37.52054038518176,1220089000.0
239,관광숙박업,영업/정상,"서울특별시 강남구 논현동 152번지 외 4필지, 152-1, 2, 3, 4",202670.053376769,445410.505681503,127.02809809667431,37.510913248378,1220078800.0
240,관광숙박업,영업/정상,서울특별시 강남구 역삼동 603,202482.701418444,444787.812950605,127.02597700255788,37.50530331261917,1210025402.0
242,관광숙박업,영업/정상,서울특별시 강남구 신사동 527-2번지,201658.416590861,446639.566102925,127.01665862691992,37.52198933647446,1210005701.0
243,관광숙박업,영업/정상,서울특별시 강남구 삼성동 159,205130.591678902,445590.096837802,127.0559292832903,37.512521137011326,1220079000.0
244,관광숙박업,영업/정상,서울특별시 강남구 삼성동 159번지,205130.591678902,445590.096837802,127.0559292832903,37.512521137011326,1220079000.0
245,관광숙박업,영업/정상,서울특별시 강서구 화곡동 921-19,185841.652551744,447544.394615942,126.8377191974923,37.53003356119231,1140069700.0
246,관광숙박업,영업/정상,서울특별시 강서구 등촌동 678-11번지,185746.535,450996.145,126.83657579615732,37.5611319503931,1150421600.0
247,관광숙박업,영업/정상,서울특별시 강서구 등촌동 637-9,187554.713371127,450514.96692719,126.85704907899851,37.556822913074015,1150062100.0
248,관광숙박업,영업/정상,서울특별시 강서구 화곡동 72-1번지,186358.332102311,449480.163884546,126.84352846041158,37.54748245712052,1150010703.0
249,관광숙박업,영업/정상,서울특별시 강서구 공항동 1375,183171.101582153,450946.909086171,126.80742805724924,37.56064473870727,1150073600.0
250,관광숙박업,영업/정상,서울특별시 강서구 염창동 260-7번지,189152.269637156,449524.540786105,126.87514402075116,37.54791958104192,1150049000.0
251,관광숙박업,영업/정상,서울특별시 금천구 독산동 336-28,190008.123794906,441016.561960417,126.88494524193597,37.47127280708246,1170006900.0
252,관광숙박업,영업/정상,서울특별시 강남구 논현동 74 PATIO7,202516.646578688,446175.67162737,127.02636553807186,37.517807786562365,1220088900.0
253,관광숙박업,영업/정상,서울특별시 은평구 응암동 596-1,192502.938401601,453954.267292121,126.91301482079172,37.58786441539917,1110000600.0
254,관광숙박업,영업/정상,서울특별시 중구 회현동1가 100-104,198229.100381804,450386.97375941,126.9778561936738,37.555752758403735,1010002301.0
255,관광숙박업,영업/정상,서울특별시 동작구 사당동 144-17,198183.049703346,442555.99909338,126.97735506292597,37.48519593271436,1190010000.0
256,관광숙박업,영업/정상,서울특별시 종로구 숭인동 217-19,201643.277882724,452339.843125652,127.0164996319765,37.57334836779133,1000002100.0
257,관광숙박업,영업/정상,서울특별시 중구 저동2가 89 포포인츠바이쉐라톤서울명동,198996.366632826,451477.704107715,126.9865379800399,37.56558133156455,1010050100.0
258,관광숙박업,영업/정상,서울특별시 종로구 원남동 49-17 오라카이 대학로 호텔,199821.363678095,452603.475535058,126.99587556375758,37.57572498279619,1000035600.0
259,관광숙박업,영업/정상,서울특별시 마포구 마포동 450 나루,195002.716187445,448331.067134872,126.94135645318173,37.53721715282713,1130030600.0
260,관광숙박업,영업/정상,서울특별시 중구 필동1가 44-1,199303.889590262,451060.843010573,126.990019195737,37.56182576425448,1010029300.0
261,관광숙박업,영업/정상,서울특별시 강북구 수유동 174-32 외1필지(174-19),202345.969509268,459791.642805507,127.02447728745472,37.64048628688365,1080011101.0
262,관광숙박업,영업/정상,서울특별시 영등포구 여의도동 22 파크원,193592.000380036,447092.629432527,126.92540584589976,37.52605009514857,1180119400.0
263,관광숙박업,영업/정상,서울특별시 서대문구 창천동 29-55,194423.876624727,450483.045265462,126.93479065265528,37.55660292392489,1120014300.0
264,관광숙박업,영업/정상,서울특별시 중구 만리동1가 33-1,197118.125654965,450448.652284254,126.9652827249798,37.556305594542,1010021700.0
265,관광숙박업,영업/정상,서울특별시 금천구 독산동 335-21,190183.499829289,441092.525925225,126.88692676527496,37.47195913400039,1170027300.0
266,관광숙박업,영업/정상,서울특별시 강남구 논현동 6-9,202166.609544191,446168.480343939,127.02240605397844,37.51774385684221,1220032607.0
267,관광숙박업,영업/정상,서울특별시 종로구 익선동 89,199022.300982384,452472.976006603,126.98683011082464,37.57454864128695,1000010302.0
268,관광숙박업,영업/정상,서울특별시 관악구 신림동 1432-14,193549.841183338,442753.65108589,126.92496732635168,37.48695573401049,1200039800.0
269,관광숙박업,영업/정상,서울특별시 관악구 남현동 1061-2 3~7층,198260.085928707,441503.878702568,126.9782286603112,37.47571646368014,1200029400.0
270,관광숙박업,영업/정상,서울특별시 용산구 이태원동 99-16 소망빌딩,199451.81421534,447757.249356311,126.9916961938229,37.53206077529231,1020008700.0
271,관광숙박업,영업/정상,서울특별시 서대문구 대현동 101-9,194928.380121094,450562.353002856,126.94049977149632,37.55732042711877,1120004001.0
272,관광숙박업,영업/정상,서울특별시 영등포구 영등포동4가 104-17 오베르,191332.505449152,446266.920603505,126.89985446854855,37.51859189643609,1180019702.0
273,관광숙박업,영업/정상,서울특별시 종로구 창신동 444-14,200846.171043058,452069.005122414,127.0074761325523,37.57090917183999,1000002201.0
274,관광숙박업,영업/정상,서울특별시 종로구 장사동 227-1,199302.818541341,451834.817165156,126.9900062697686,37.56879918308795,1000026300.0
275,관광숙박업,영업/정상,서울특별시 종로구 창신동 436-73,201302.883783666,451982.388503793,127.01264578375871,37.57012826598231,1010019002.0
276,관광숙박업,영업/정상,서울특별시 중구 남학동 13-2,199161.680844774,450949.674631487,126.98840978435838,37.560824020711536,1010027900.0
277,관광숙박업,영업/정상,서울특별시 중구 을지로6가 58-5,200314.646974736,451554.066925226,127.0014593264134,37.56626993695166,1010014902.0
278,관광숙박업,영업/정상,서울특별시 중구 을지로6가 58-5,200314.646974736,451554.066925226,127.0014593264134,37.56626993695166,1010014902.0
279,관광숙박업,영업/정상,서울특별시 중구 회현동1가 194-19,198118.296565976,450847.771205029,126.97660097288126,37.55990426911929,1010002401.0
280,관광숙박업,영업/정상,서울특별시 중구 충무로2가 62-12,198780.018679349,451009.773589561,126.98409000525965,37.5613650530652,1010004601.0
281,관광숙박업,영업/정상,서울특별시 중구 을지로5가 275-3,200161.192418006,451521.415517111,126.99972238831532,37.56597578035972,1010045000.0
282,관광숙박업,영업/정상,서울특별시 중구 광희동2가 360번지 3-7층,200526.656361295,451268.298685031,127.00385885531064,37.56369511528406,1010008102.0
283,관광숙박업,영업/정상,서울특별시 중구 광희동2가 96번지,200792.068633415,451392.78961175,127.00686304515942,37.56481659338568,1010017301.0
284,관광숙박업,영업/정상,서울특별시 중구 남대문로4가 17-23,197891.564897442,450990.593465563,126.97403441984726,37.56119057589254,1010032200.0
285,관광숙박업,영업/정상,서울특별시 중구 을지로5가 273-4,200096.930688028,451569.92963808,126.99899502247388,37.56641289155,1010043300.0
286,관광숙박업,영업/정상,서울특별시 중구 필동1가 10-6,199238.837477244,451039.792552027,126.9892829460767,37.56163604590596,1010029700.0
287,관광숙박업,영업/정상,서울특별시 중구 명동1가 59-1,198514.126767917,451341.512309466,126.98107990291312,37.564353573709816,1010038200.0
288,관광숙박업,영업/정상,서울특별시 중구 을지로2가 195-8,198609.654267051,451404.404906149,126.9821610147933,37.56492038469887,1010041100.0
289,관광숙박업,영업/정상,서울특별시 중구 광희동2가 43-1 3~6층,200647.159357664,451357.621131056,127.00522283832063,37.56449983230938,1010038000.0
290,관광숙박업,영업/정상,서울특별시 중구 명동2가 104,198333.33582458,451110.784887572,126.97903414878358,37.56227442322757,1010030001.0
291,관광숙박업,영업/정상,서울특별시 중구 남산동2가 36-6,198584.797257551,450705.210249383,126.9818810764136,37.558620676639485,1010027700.0
292,관광숙박업,영업/정상,서울특별시 중구 쌍림동 240번지,200419.832186515,451197.291107237,127.00264973246412,37.563055392180495,1010008801.0
293,관광숙박업,영업/정상,서울특별시 중구 을지로6가 17-2번지,200613.510297669,451817.515366883,127.00484232182068,37.56864344723963,1010045600.0
294,관광숙박업,영업/정상,서울특별시 중구 초동 72-10,199128.553284601,451340.595494209,126.98803434608072,37.56434614210716,1010008601.0
295,관광숙박업,영업/정상,서울특별시 중구 남산동2가 45-10,198567.904318412,450646.387187539,126.98169000677036,37.558090659613526,1010002701.0
296,관광숙박업,영업/정상,서울특별시 중구 저동2가 48-27,199088.322667,451230.610149193,126.98757913858934,37.56335514459637,1010012302.0
297,관광숙박업,영업/정상,서울특별시 중구 남산동2가 33,198607.670947146,450770.829936259,126.98213982422487,37.55921193966656,1010027700.0
298,관광숙박업,영업/정상,서울특별시 중구 남산동2가 33-3,198602.1192505,450758.364666589,126.98207701600496,37.55909962008956,1010027700.0
299,관광숙박업,영업/정상,서울특별시 중구 광희동2가 163-2번지,200758.994732114,451302.330983146,127.00648860726729,37.56400159674307,1010036900.0
300,관광숙박업,영업/정상,서울특별시 중구 쌍림동 155-1 호텔더디자이너스디디피,200292.658269708,451281.027011703,127.00121035397898,37.563809883726336,1010035100.0
301,관광숙박업,영업/정상,서울특별시 중구 북창동 12-1 호텔 토마스 명동,198018.679926506,451207.729791045,126.9754725164277,37.56314724146811,1010032300.0
302,관광숙박업,영업/정상,서울특별시 중구 남산동2가 27-12,198676.510359648,450673.848023552,126.98291911920954,37.558338248861645,1010002701.0
303,관광숙박업,영업/정상,서울특별시 송파구 삼전동 180-3번지,208426.169119403,444447.682227261,127.09319174377552,37.502204058906734,1230016503.0
304,관광숙박업,영업/정상,서울특별시 송파구 삼전동 47 2층 부분,207835.820419818,444569.108630582,127.08651666105952,37.50330326306565,1230064000.0
305,관광숙박업,영업/정상,서울특별시 송파구 방이동 36-5번지,209595.213143028,445912.216884712,127.10643165220272,37.515388132529225,1230027404.0
306,관광숙박업,영업/정상,서울특별시 송파구 방이동 49-2번지,209996.0,445952.865,127.11096556980446,37.51575014553251,1230082100.0
308,관광숙박업,영업/정상,서울특별시 송파구 신천동 29,209074.900840074,445657.80932984,127.10054319254532,37.51310115736578,1230025802.0
309,관광숙박업,영업/정상,서울특별시 송파구 문정동 618번지,210868.397496689,442053.227933005,127.120776211014,37.48060473499756,1230045500.0
310,관광숙박업,영업/정상,서울특별시 송파구 잠실동 180-7,207148.374688088,445418.562120928,127.07875027093402,37.51096234006443,1230022605.0
311,관광숙박업,영업/정상,서울특별시 송파구 잠실동 250-9,207714.534207806,444749.931404748,127.085146872091,37.50493348356986,1230018903.0
312,관광숙박업,영업/정상,서울특별시 송파구 가락동 98-5번지,210429.157119053,443526.648866499,127.1158309303561,37.49388527012993,1230056400.0
313,관광숙박업,영업/정상,서울특별시 송파구 석촌동 158,208851.639893799,444965.4232772,127.098009655136,37.50686493922469,1230020203.0
314,관광숙박업,영업/정상,서울특별시 송파구 가락동 98-6번지,210463.282485743,443549.893536475,127.11621714577784,37.49409432065788,1230059100.0
315,관광숙박업,영업/정상,서울특별시 송파구 잠실동 180번지,207106.032236098,445432.48407791,127.07827148934392,37.511088100235,1230022502.0
316,관광숙박업,영업/정상,서울특별시 송파구 석촌동 1-7번지,208554.799609279,444868.79542744,127.09465130913584,37.50599710232848,1230069100.0
317,관광숙박업,영업/정상,서울특별시 영등포구 양평동1가 28-15,190239.788949405,446733.426326781,126.88748780252328,37.52278410180868,1180026901.0
318,관광숙박업,영업/정상,서울특별시 영등포구 영등포동1가 75-5,192277.657623886,446153.532108237,126.9105469099477,37.5175787280708,1180073400.0
319,관광숙박업,영업/정상,서울특별시 영등포구 영등포동3가 11-3번지,191885.845586766,446144.883366505,126.90611502120863,37.517497415401145,1180020500.0
320,관광숙박업,영업/정상,서울특별시 영등포구 신길동 65-85,193001.202811156,445744.288122131,126.91873522945096,37.51389727773699,1180014004.0
321,관광숙박업,영업/정상,서울특별시 영등포구 영등포동2가 34-138번지,191847.316061857,446470.256871214,126.90567555854705,37.520428671075145,1180128500.0
322,관광숙박업,영업/정상,서울특별시 영등포구 당산동2가 29번지,190427.684817138,446681.479810914,126.88961401545608,37.52231804787,1180024202.0
323,관광숙박업,영업/정상,서울특별시 영등포구 당산동1가 394-1번지,190876.344610656,446715.096332249,126.89468893284555,37.522625505774,1180127400.0
324,관광숙박업,영업/정상,서울특별시 영등포구 당산동1가 316-1번지,190808.816420331,446805.883888587,126.89392389302316,37.523442821249326,1180127300.0
325,관광숙박업,영업/정상,서울특별시 영등포구 양평동5가 62,190476.526523265,448495.794800958,126.89014285204782,37.53866539714467,1180134501.0
326,관광숙박업,영업/정상,서울특별시 영등포구 양평동3가 30-26번지,189680.769993867,447133.971430075,126.88115836287986,37.52638686581623,1140284401.0
327,관광숙박업,영업/정상,서울특별시 영등포구 영등포동4가 163-7,191253.377465488,446321.437344249,126.89895874658684,37.51908233740835,1180079000.0
328,관광숙박업,영업/정상,서울특별시 영등포구 영등포동4가 73,191503.413709394,446331.214545378,126.90178697588514,37.51917278211262,1180076600.0
329,관광숙박업,영업/정상,"서울특별시 성동구 도선동 72번지 외 2필지(73, 74번지)",203049.085092078,451259.786486629,127.03240890506838,37.56361370479984,1030016303.0
330,관광숙박업,영업/정상,서울특별시 성동구 용답동 228-6,205306.029406852,451019.471122131,127.057952354493,37.56143841863023,1030045500.0
331,관광숙박업,영업/정상,서울특별시 성동구 도선동 86,203006.379794188,451150.696474495,127.0319251087249,37.56263095318867,1030046100.0
332,관광숙박업,영업/정상,서울특별시 성동구 용답동 228-12,205288.987166136,451015.467879096,127.05775943945866,37.56140244661173,1030043900.0
333,관광숙박업,영업/정상,서울특별시 성동구 하왕십리동 966-68번지,202756.732460612,451193.426474206,127.0290996750094,37.56301670879414,1030017902.0
334,관광숙박업,영업/정상,"서울특별시 용산구 이태원동 119-24번지 119-24,25,108-9,123-10~15,116-1,116-5,112-7,112-15",199362.51518342,448070.485388482,126.99068559133346,37.53488294829656,1020010701.0
335,관광숙박업,영업/정상,서울특별시 용산구 한남동 747-7,199737.097413554,448587.753314794,126.99492343489212,37.53954370523685,1020014900.0
336,관광숙박업,영업/정상,"서울특별시 종로구 명륜4가 188-12번지 2,3층",199747.024385135,453304.910568114,126.99503371599896,37.58204479602324,1000015503.0
337,관광숙박업,영업/정상,서울특별시 종로구 숭인동 1405,201895.419403144,452395.129773561,127.01935399968563,37.57384602696751,1000002401.0
338,관광숙박업,영업/정상,서울특별시 용산구 한강로3가 40-969 서울드래곤시티,196610.663839509,447742.348636253,126.9595523192615,37.53192026020864,1020036400.0
339,관광숙박업,영업/정상,서울특별시 종로구 창신동 444-9,200833.121381281,452040.323909642,127.00732838577343,37.5706507685696,1000002100.0
340,관광숙박업,영업/정상,서울특별시 종로구 관철동 35-1 동산빌딩,198924.493311656,451826.54074884,126.98572391987058,37.568724223159904,1010044700.0
341,관광숙박업,영업/정상,서울특별시 종로구 원남동 25,199818.769709814,452646.808088738,126.99584618470348,37.57611540281994,1000015503.0
342,관광숙박업,영업/정상,서울특별시 종로구 권농동 127-1,199156.623916493,452747.807991092,126.98835032400612,37.57702498415355,1000012800.0
343,관광숙박업,영업/정상,서울특별시 은평구 응암동 109-7,192971.089564435,455290.104972775,126.91830235775213,37.59990381660124,1110009101.0
344,관광숙박업,영업/정상,서울특별시 은평구 불광동 486-22,192984.719960486,457530.548559106,126.91843503787882,37.62008989120674,1110036400.0
345,관광숙박업,영업/정상,서울특별시 은평구 갈현동 395-17,192824.052598114,457573.821408994,126.91661472677296,37.62047851988412,1110014105.0
346,관광숙박업,영업/정상,서울특별시 중구 충무로1가 23-1,198543.644700379,451049.580620366,126.98141460943512,37.56172335042069,1010002803.0
347,관광숙박업,영업/정상,서울특별시 중구 을지로2가 199-33,198492.801933133,451427.348965871,126.98083835195597,37.56512691621419,1010038200.0
348,관광숙박업,영업/정상,서울특별시 용산구 한남동 737-32,199788.755748324,448121.175798434,126.99550811575342,37.53533989135149,1020039700.0
349,관광숙박업,영업/정상,서울특별시 용산구 갈월동 98-11번지,197492.793337805,448731.316989981,126.96952899354773,37.54083367650072,1020015102.0
350,관광숙박업,영업/정상,서울특별시 용산구 이태원동 22-76,199337.628628981,447413.487156381,126.99040467131172,37.52896341541847,1020034600.0
351,관광숙박업,영업/정상,서울특별시 중구 예장동 2-19,199159.933187356,450864.449621814,126.98839010933412,37.56005615065176,1010001105.0
352,관광숙박업,영업/정상,서울특별시 중구 충무로2가 53-10,198990.202955049,451044.895347229,126.9864688485139,37.56168176527939,1010032100.0
353,관광숙박업,영업/정상,서울특별시 중구 충무로3가 30-1,199295.433977253,451227.87958574,126.98992331826057,37.56333073861655,1010012902.0
354,관광숙박업,영업/정상,서울특별시 중구 충무로4가 125-11,199560.411618029,451005.647814461,126.99292260335228,37.56132863744587,1010028700.0
355,관광숙박업,영업/정상,서울특별시 중구 을지로2가 101-1,198991.480652031,451591.912071216,126.98648250966,37.56661032659056,1010043000.0
356,관광숙박업,영업/정상,서울특별시 영등포구 양평동1가 9-28번지,190268.75349914,446608.475784343,126.88781712268644,37.52165861323284,1180084600.0
357,관광숙박업,영업/정상,서울특별시 영등포구 양평동2가 40-5,189552.021760333,446847.704378567,126.87970595028042,37.523806162376815,1140284401.0
359,관광숙박업,영업/정상,서울특별시 영등포구 여의도동 28-3,192739.314354154,446552.469845648,126.91576497025216,37.52117691489328,1180132701.0
360,관광숙박업,영업/정상,서울특별시 영등포구 영등포동4가 442,191385.057392247,446098.555926507,126.9004509054287,37.517075435258,1180016103.0
361,관광숙박업,영업/정상,서울특별시 종로구 수송동 51-8,198260.063190604,452262.484573124,126.97820199579064,37.57265096239422,1000011201.0
362,관광숙박업,영업/정상,서울특별시 종로구 인의동 48-26 호텔아트리움,199764.69151091,452177.255224359,126.9952341914642,37.57188477475612,1000028400.0
363,관광숙박업,영업/정상,서울특별시 영등포구 여의도동 23,193326.931018911,446973.914570276,126.9224082596647,37.524978584310034,1180133801.0
364,관광숙박업,영업/정상,서울특별시 영등포구 여의도동 17-5,192622.209000336,447248.142200812,126.91443322520377,37.527443944522,1180033302.0
365,관광숙박업,영업/정상,서울특별시 영등포구 당산동 121-159,191894.785267023,447125.235782221,126.90620524835808,37.52633041288817,1180132701.0
366,관광숙박업,영업/정상,서울특별시 영등포구 양평동3가 30-8,189670.698184757,447129.428172873,126.88104448648076,37.52634581802194,1140284401.0
367,관광숙박업,영업/정상,"서울특별시 종로구 창신동 329-18 2,3층",201214.620228217,452180.406567952,127.01164699813438,37.57191249901343,1000002100.0
368,관광숙박업,영업/정상,서울특별시 종로구 낙원동 132-2,199006.673946375,452233.299150748,126.9866535564535,37.5723891651057,1000007701.0
369,관광숙박업,영업/정상,서울특별시 종로구 숭인동 1396,201949.270716491,452329.735166543,127.01996342989425,37.57325672121393,1010019702.0
370,관광숙박업,영업/정상,서울특별시 종로구 관철동 43-8,198545.22241783,451854.820889784,126.98143079869324,37.56897847659336,1000002901.0
371,관광숙박업,영업/정상,서울특별시 서대문구 대현동 101-17,194929.750810335,450514.690947083,126.94051561776602,37.55689100463613,1120061900.0
372,관광숙박업,영업/정상,서울특별시 서대문구 대현동 101-17 6층,194929.750810335,450514.690947083,126.94051561776602,37.55689100463613,1120061900.0
373,관광숙박업,영업/정상,서울특별시 서대문구 창천동 29-56,194447.060323027,450457.441284914,126.93505322806992,37.55637237630711,1120003201.0
374,관광숙박업,영업/정상,서울특별시 종로구 익선동 33-24,198951.339009067,452506.320099222,126.98602676122378,37.57484898429779,1000033700.0
375,관광숙박업,영업/정상,서울특별시 종로구 익선동 46,199006.378605147,452484.083300535,126.9866498513668,37.57464869844043,1000010302.0
376,관광숙박업,영업/정상,서울특별시 중구 오장동 90-24,199921.397507532,451313.003647556,126.9970082297027,37.56409800679383,1010010200.0
377,관광숙박업,영업/정상,서울특별시 중구 예장동 1-43,199329.785160077,450473.272809688,126.99031287546408,37.55653183856513,1010021000.0
378,관광숙박업,영업/정상,서울특별시 용산구 동자동 56,197525.407310462,449844.319841559,126.96989417326718,37.55086182894751,1020021802.0
379,관광숙박업,영업/정상,서울특별시 용산구 이태원동 64-32,199190.671806282,447977.234335253,126.98874144302437,37.53404261567484,1020010800.0
380,관광숙박업,영업/정상,서울특별시 용산구 동자동 43-59,197478.685653861,450063.434682284,126.96936467355404,37.55283590336577,1020050800.0
381,관광숙박업,영업/정상,서울특별시 용산구 갈월동 69-27,197419.271266145,449254.786813543,126.96869520346978,37.54554988976766,1020018601.0
382,관광숙박업,영업/정상,서울특별시 종로구 낙원동 25,198886.944446027,452419.42955676,126.98529794281882,37.574066031498646,1000031800.0
383,관광숙박업,영업/정상,서울특별시 종로구 평창동 66-50,197733.39181877,456346.84737021,126.9722271619787,37.60944926249381,1000043300.0
384,관광숙박업,영업/정상,서울특별시 종로구 낙원동 272,198811.497417806,452301.907780717,126.98444407875397,37.57300707555326,1000027000.0
385,관광숙박업,영업/정상,서울특별시 종로구 관수동 124 외1,199121.144814384,451827.704774757,126.9879498662158,37.56873493320662,1000007001.0
386,관광숙박업,영업/정상,서울특별시 종로구 관훈동 198-42,198534.549198735,452256.166993396,126.98130914817334,37.57259453848548,1000007501.0
387,관광숙박업,영업/정상,서울특별시 영등포구 양평동5가 62-3번지 더 스테이트 선유 호텔,190507.597888342,448477.522453196,126.89049465251767,37.538501087321045,1140284401.0
388,관광숙박업,영업/정상,서울특별시 영등포구 영등포동1가 100번지 코코아관광호텔,192140.073900686,446141.887053246,126.90899075598963,37.51747263598919,1180073100.0
389,관광숙박업,영업/정상,"서울특별시 성북구 동선동1가 92-20 외 3필지(92-21, 92-26, 92-27)",201563.230548898,454500.673992299,127.0155979182119,37.59281728397804,1070028600.0
390,관광숙박업,영업/정상,서울특별시 성북구 동선동4가 26,201393.678553282,454585.85117722,127.01367825254974,37.59358497749621,1070029300.0
391,관광숙박업,영업/정상,서울특별시 성북구 동선동1가 120-1,201618.705032679,454656.75912558,127.01622638132346,37.59422349462025,1070007202.0
392,관광숙박업,영업/정상,서울특별시 성북구 동선동1가 120-12번지 호텔 디 아티스트 동선점,201587.018198857,454621.644166732,127.01586751476825,37.59390716731187,1070028700.0
393,관광숙박업,영업/정상,서울특별시 용산구 한강로3가 40-969,196610.663839509,447742.348636253,126.9595523192615,37.53192026020864,1020036400.0
394,관광숙박업,영업/정상,서울특별시 용산구 한강로3가 40-969 서울드래곤시티,196610.663839509,447742.348636253,126.9595523192615,37.53192026020864,1020036400.0
395,관광숙박업,영업/정상,서울특별시 종로구 당주동 29,197758.993026787,452053.420838552,126.97253061642624,37.57076620639485,1000045800.0
396,관광숙박업,영업/정상,서울특별시 종로구 와룡동 68,199153.425066203,452459.177175342,126.98831447005406,37.57442445458047,1000032000.0
397,관광숙박업,영업/정상,서울특별시 종로구 운니동 19,199016.856080944,452710.006795455,126.9867681351302,37.57668425196754,1000012800.0
398,관광숙박업,영업/정상,서울특별시 종로구 와룡동 140,199074.670635062,452648.894407231,126.98742270477328,37.576133701238064,1000012800.0
399,관광숙박업,영업/정상,서울특별시 종로구 익선동 34-8 호텔 이비스앰배서더 인사동,198977.911015975,452460.663046516,126.98632762874485,37.5744376517948,1000032000.0
400,관광숙박업,영업/정상,서울특별시 종로구 종로6가 289-3,200717.7490316,452011.865092338,127.0060223981139,37.57039444707672,1000001902.0
401,관광숙박업,영업/정상,서울특별시 중구 남대문로5가 84-16,197711.630119852,450541.171402454,126.97199933905922,37.55714088827594,1010025900.0
402,관광숙박업,영업/정상,서울특별시 중구 충무로2가 63-2,198695.658587016,451034.509517585,126.98313515994047,37.56158779970009,1010032100.0
403,관광숙박업,영업/정상,서울특별시 중구 충무로2가 62-2,198797.29864019,451041.893325607,126.9842855267709,37.56165447235984,1010032100.0
404,관광숙박업,영업/정상,서울특별시 중구 남대문로4가 17-7,197847.754499522,451011.231861517,126.97353850655092,37.56137642129801,1010032800.0
405,관광숙박업,영업/정상,서울특별시 중구 북창동 17-1,197996.303190059,451214.940443595,126.9752192270888,37.56321215871031,1010010900.0
406,관광숙박업,영업/정상,서울특별시 중구 충무로2가 61-3,198866.36491721,451021.050960516,126.98506726549287,37.56146677725528,1010024500.0
407,관광숙박업,영업/정상,서울특별시 중구 남산동2가 31-1번지,198644.069040474,450827.86176286,126.98255166062,37.559725847285975,1010002802.0
408,관광숙박업,영업/정상,서울특별시 중구 태평로2가 23,197979.021229862,451376.783371586,126.97502316260396,37.56467030649743,1010010900.0
409,관광숙박업,영업/정상,서울특별시 중구 장충동2가 202,200463.625303538,450497.460903907,127.0031450195836,37.55674997726851,1010020700.0
410,관광숙박업,영업/정상,서울특별시 중구 소공동 1,198259.65357739,451392.198218657,126.97819950053707,37.56480978484287,1010010900.0
411,관광숙박업,영업/정상,서울특별시 중구 명동1가 6-3,198662.073220851,451337.206272624,126.98275445639996,37.564315013805206,1010007200.0
412,관광숙박업,영업/정상,서울특별시 용산구 한강로3가 40-969,196610.663839509,447742.348636253,126.9595523192615,37.53192026020864,1020036400.0
413,관광숙박업,영업/정상,서울특별시 은평구 불광동 285-14,193927.400168406,456349.249578345,126.92912270686072,37.60945339170527,1110033000.0
414,관광숙박업,영업/정상,서울특별시 은평구 응암동 30-2,194316.347775038,455199.649918255,126.9335367244724,37.59909821630419,1110088101.0
415,관광숙박업,영업/정상,서울특별시 중구 북창동 93-43 외2,198047.674063427,451117.674050616,126.97580093142386,37.56233591302315,1010002301.0
416,관광숙박업,영업/정상,서울특별시 중구 장충동1가 31-7,200538.850127418,451107.614340285,127.00399676645895,37.56224736069687,1010035100.0
417,관광숙박업,영업/정상,서울특별시 중구 오장동 206-2,200113.999615549,451324.026100645,126.9991882074093,37.56419732765908,1010009302.0
418,관광숙박업,영업/정상,서울특별시 중구 충무로1가 24-30,198484.096465671,450963.971753178,126.98074081546524,37.560951923523,1010007200.0
419,관광숙박업,영업/정상,서울특별시 중구 예관동 70-2,199812.204706685,451319.127469002,126.99577232321064,37.564153158319016,1010009301.0
420,관광숙박업,영업/정상,서울특별시 중구 태평로1가 51-1,197867.156641113,451779.880897566,126.97375580042208,37.56830190870935,1000046700.0
421,관광숙박업,영업/정상,서울특별시 중구 장충동2가 산 5-5,200193.232424569,449809.744684888,127.00008474363848,37.55055379679799,1010020900.0
422,관광숙박업,영업/정상,서울특별시 중구 을지로4가 310,199603.040706779,451543.643423302,126.99340474664665,37.56617594077799,1010014800.0
423,관광숙박업,영업/정상,서울특별시 중구 명동1가 59-5,198433.903211956,451323.216289926,126.98017192604188,37.56418859017147,1010009200.0
424,관광숙박업,영업/정상,서울특별시 중구 순화동 214-0 외 1필지,197268.885433824,451148.620978965,126.96698626273808,37.56261270829212,1010028400.0
425,관광숙박업,영업/정상,서울특별시 중구 오장동 181-4,200171.935816725,451444.246421136,126.99984397978464,37.56528049435907,1010045100.0
426,관광숙박업,영업/정상,서울특별시 중구 광희동2가 238-1,200701.142404743,451316.536804153,127.00583381586996,37.56412963139056,1010010401.0
427,관광숙박업,영업/정상,서울특별시 서대문구 홍은동 201-1 스위스그랜드호텔,194211.997213753,454098.970268002,126.93236386858618,37.58918061490747,1120030200.0
428,관광숙박업,영업/정상,서울특별시 중구 을지로1가 188-3,198113.370663648,451483.299976911,126.9765435318566,37.56563030326632,1010038900.0
429,관광숙박업,영업/정상,서울특별시 중구 남산동2가 1-1,198717.824491651,450932.964839778,126.98338622382325,37.5606729256448,1010029900.0
430,관광숙박업,영업/정상,서울특별시 중구 태평로1가 29-1,198000.967176821,451745.025547093,126.97527052494668,37.56798817547941,1010017801.0
431,관광숙박업,영업/정상,서울특별시 중구 소공동 87-1,198172.151119488,451350.969223428,126.9772091964212,37.564438140714685,1010006005.0
432,관광숙박업,영업/정상,서울특별시 중구 회현동1가 65,198249.758791197,450711.482993526,126.97808918843909,37.558676594724986,1010002508.0
433,관광숙박업,영업/정상,서울특별시 중구 인현동2가 73-1,199550.506270874,451392.219693582,126.99281022249215,37.56481160230311,1010006602.0
434,관광숙박업,영업/정상,서울특별시 양천구 신월동 87-13,185307.072104229,448328.26558548,126.83165555525186,37.5370877636638,1140070500.0
435,관광숙박업,영업/정상,서울특별시 서대문구 대현동 104-5 신촌푸르지오시티,194855.910937446,450573.690449065,126.93967951955094,37.557422169705376,1120003901.0
436,관광숙박업,영업/정상,서울특별시 서대문구 미근동 333,196994.923867704,451431.128739436,126.96388429465152,37.56515719978063,1120017200.0
437,관광숙박업,영업/정상,서울특별시 종로구 인사동 34-2,198797.815432789,452231.193562946,126.98428932220412,37.57236993054434,1000027600.0
438,관광숙박업,영업/정상,서울특별시 마포구 동교동 113-96번지,193449.985027039,451015.020894903,126.92376392787068,37.56138949207034,1130021402.0
439,관광숙박업,영업/정상,서울특별시 마포구 동교동 190-1번지,193285.549735897,450808.571641119,126.92190473479792,37.55952821306618,1130057300.0
440,관광숙박업,영업/정상,서울특별시 강남구 논현동 60-8,202624.921452758,446421.036809928,127.02759114978868,37.52001822245351,1220089800.0
441,관광숙박업,영업/정상,서울특별시 동대문구 답십리동 494-5,204662.341213164,451605.260722901,127.05067066954008,37.566719751491,1050027000.0
442,관광숙박업,영업/정상,서울특별시 은평구 대조동 15-136,193616.443648211,456275.831801835,126.92560164287792,37.60878978472751,1110011400.0
443,관광숙박업,영업/정상,서울특별시 서초구 신원동 271-21번지 오라카이 청계산호텔,204773.965728195,438573.091945475,127.05185071379852,37.44929971834132,1210166300.0
444,관광숙박업,영업/정상,서울특별시 강남구 삼성동 113-5,204077.378499389,445400.198580187,127.04401561080356,37.51081533806805,1220027703.0
445,관광숙박업,영업/정상,서울특별시 금천구 가산동 238-74,189919.971505268,441209.131322921,126.88394607216,37.47300689651538,1170006300.0
446,관광숙박업,영업/정상,서울특별시 중구 광희동2가 14-1,200625.524648469,451359.906142005,127.00497796517418,37.56452043342592,1010010501.0
447,관광숙박업,영업/정상,서울특별시 영등포구 당산동1가 311번지,190820.780294749,446822.685784485,126.89405902174762,37.523594325152885,1180027200.0
448,관광숙박업,영업/정상,서울특별시 마포구 서교동 373-1,192702.357899428,450008.91757619,126.9153122788536,37.552318943072834,1130051900.0
449,관광숙박업,영업/정상,서울특별시 종로구 숭인동 217-26 케이디오피스텔,201649.840328936,452323.368074798,127.01657388293135,37.5731999183819,1000002401.0
450,관광숙박업,영업/정상,서울특별시 종로구 숭인동 217-26,201649.840328936,452323.368074798,127.01657388293135,37.5731999183819,1000002401.0
451,관광숙박업,영업/정상,서울특별시 종로구 숭인동 217-26,201649.840328936,452323.368074798,127.01657388293135,37.5731999183819,1000002401.0
452,관광숙박업,영업/정상,서울특별시 강남구 논현동 74-6,202545.820550895,446151.727131374,127.02669546028366,37.51759196966935,1220087800.0
453,관광숙박업,영업/정상,서울특별시 영등포구 양평동1가 31-5 가온,190266.579204407,446769.272182126,126.8877903838238,37.52310735541017,1180084700.0
454,관광숙박업,영업/정상,서울특별시 용산구 이태원동 126-7,199602.998335774,448000.622353627,126.99340649413593,37.53425363855492,1020009600.0
