,개방서비스명,영업상태명,소재지전체주소,좌표정보(x),좌표정보(y),경도,위도
0,의원,영업/정상,서울특별시 구로구 구로동 650번지 4호 SK허브수,188674.995072188,443749.503020388,126.86983261122901,37.49588111944704
1,의원,영업/정상,서울특별시 구로구 개봉동 359번지 13호 성은빌딩,187046.36902326,442668.752856504,126.8514348664153,37.486122079332645
2,의원,영업/정상,서울특별시 구로구 개봉동 403번지 44호,187215.740793865,443275.563712122,126.85333932146726,37.491591800280624
3,의원,영업/정상,서울특별시 구로구 구로동 1125번지 1호 부호빌딩,191239.693382941,442430.463625802,126.89885061349364,37.48402464534474
4,의원,영업/정상,서울특별시 구로구 구로동 235번지 한신아이티타워,190594.904645635,442261.654499191,126.8915625165878,37.482497294625276
5,의원,영업/정상,서울특별시 구로구 개봉동 403번지 53호,187166.338835564,443250.627612101,126.85278114240216,37.49136643850051
6,의원,영업/정상,서울특별시 구로구 개봉동 202번지 17호 진영빌딩,187434.769427132,443559.941447823,126.85581112408468,37.49415705475481
7,의원,영업/정상,서울특별시 구로구 개봉동 403번지 68호 대성빌딩,187231.137062471,443090.011520129,126.85351664974814,37.489920194092655
8,의원,영업/정상,서울특별시 구로구 구로동 197번지 5호 삼성IT밸리,190612.779366379,442662.421914354,126.89175946928582,37.486108390272285
9,의원,영업/정상,서울특별시 구로구 신도림동 338번지 신도림2차푸르지오 301호,190156.399992266,445369.517787461,126.8865628591849,37.51049447025954
10,의원,영업/정상,서울특별시 구로구 구로동 100번지 8호 신안타워,190099.217394597,443743.18319767,126.8859381232331,37.49584063725699
11,의원,영업/정상,서울특별시 구로구 오류동 10-1,185986.133598256,443725.340023989,126.83942686253464,37.49562635239637
12,의원,영업/정상,서울특별시 구로구 개봉동 361번지 4호,186914.38135061,442658.621139659,126.84994269703428,37.48602892428464
13,의원,영업/정상,서울특별시 구로구 구로동 8번지 17호,190188.145705079,444823.105868276,126.88692925216546,37.50557166200234
14,의원,영업/정상,서울특별시 구로구 신도림동 375번지 1호 보미플라자,189772.876108997,445262.493847028,126.88222653637501,37.50952599482262
15,의원,영업/정상,서울특별시 구로구 고척동 253번지 11호 두발로빌딩,186666.582498006,444503.991525664,126.84710732011409,37.50265208674552
16,의원,영업/정상,서울특별시 구로구 구로동 766번지 207호,190215.052305117,442973.265428003,126.88725830956328,37.4889049341531
17,의원,영업/정상,서울특별시 구로구 궁동 199번지 6호,185294.8470884,443478.840911567,126.83161462690045,37.49339461376667
18,의원,영업/정상,서울특별시 구로구 개봉동 156번지 5호 대림프라자,187165.943935519,443936.217551483,126.85276466510977,37.49754357536018
19,의원,영업/정상,서울특별시 구로구 고척동 258번지 5호,186684.485444637,444518.108994515,126.84730953197605,37.50277954396093
20,의원,영업/정상,서울특별시 구로구 가리봉동 25번지 64호,189837.221459608,442515.356008999,126.88299246905645,37.484775071167896
21,의원,영업/정상,서울특별시 구로구 개봉동 403번지 55호,187171.397065781,443189.380697988,126.8528394109497,37.49081467612828
22,의원,영업/정상,서울특별시 구로구 개봉동 156번지 5호 대림프라자,187165.943935519,443936.217551483,126.85276466510977,37.49754357536018
23,의원,영업/정상,"서울특별시 구로구 개봉동 161번지 25호 1~2층, 4층일부, 5층",187190.111430769,443880.346195961,126.85303893953552,37.49704051365839
24,의원,영업/정상,서울특별시 구로구 오류동 37번지 7호,186163.283062821,443831.592757294,126.84142809184227,37.496586367537574
25,의원,영업/정상,서울특별시 구로구 오류동 37번지 7호,186163.283062821,443831.592757294,126.84142809184227,37.496586367537574
26,의원,영업/정상,서울특별시 구로구 구로동 142번지 75호 정내과,190428.538705666,443241.6656571,126.8896687256958,37.491325467150844
27,의원,영업/정상,서울특별시 구로구 오류동 55번지 50호 3층일부,186212.084054908,443782.555826869,126.84198087149994,37.49614527979397
28,의원,영업/정상,서울특별시 구로구 개봉동 403번지 95호,187208.353423988,442714.449838492,126.85326558440235,37.48653607557954
29,의원,영업/정상,서울특별시 구로구 구로동 685번지 124호 중앙구로하이츠아파트,188973.657255048,443848.715615601,126.87320845449649,37.496778655543466
30,의원,영업/정상,서울특별시 구로구 구로동 313번지 119호,190278.288744443,443061.838685268,126.88797215802214,37.48970364984131
31,의원,영업/정상,서울특별시 구로구 구로동 3번지 25호 신도림테크노마트,190232.524534335,444978.682746138,126.88742908395564,37.50697387704599
32,의원,영업/정상,서울특별시 구로구 고척동 253번지 11호 두발로빌딩,186666.582498006,444503.991525664,126.84710732011409,37.50265208674552
33,의원,영업/정상,서울특별시 구로구 고척동 52번지 74호,187932.89401264,444516.503683237,126.86142812862414,37.50278232033883
34,의원,영업/정상,서울특별시 구로구 구로동 98번지 대림오페라타워,190151.087788499,443666.065893922,126.88652572360807,37.49514637013975
35,의원,영업/정상,서울특별시 구로구 고척동 94번지 8호,187278.27157367,444008.225998653,126.85403366721691,37.49819393015963
36,의원,영업/정상,서울특별시 구로구 구로동 754번지 7호 남부빌딩,189649.97735104,443171.415450471,126.88086610616898,37.49068406743367
37,의원,영업/정상,서울특별시 구로구 구로동 685번지 448호 신영상가,188999.735767494,443303.671762993,126.87351155139997,37.491868137041585
38,의원,영업/정상,서울특별시 구로구 구로동 313번지 95호 에벤에셀,190190.535273676,443094.051861173,126.88697947157758,37.489992956647534
39,의원,영업/정상,"서울특별시 구로구 개봉동 407번지 18호 ,2층",187433.534139461,443461.41933817,126.8557988458021,37.493269356731965
40,의원,영업/정상,서울특별시 구로구 오류동 353번지 1호 골드프라자,185651.200187402,442660.967785404,126.83566021489561,37.486031231767086
41,의원,영업/정상,서울특별시 구로구 구로동 314번지 극동아파트,190186.001622359,443209.462254601,126.88692665973524,37.49103275407787
42,의원,영업/정상,서울특별시 중랑구 신내2동 645번지 홈플러스 2층,208208.786684767,457054.793655589,127.09087324152529,37.61579463074159
43,의원,영업/정상,서울특별시 중랑구 상봉2동 118번지 5호,207208.057491391,454772.376318377,127.07951634270813,37.59523878436356
44,의원,영업/정상,서울특별시 양천구 신정동 973번지 30호 2층,187061.011280709,446602.905581004,126.85153090072775,37.521568810913216
45,의원,영업/정상,서울특별시 중랑구 망우본동 470번지 11호 6층,208574.566606995,455201.404791635,127.09499465504591,37.59909263857449
46,의원,영업/정상,서울특별시 중구 신당동 373번지 3호 동양빌딩 2층 203호,200929.515411973,450242.717073989,127.0084174028946,37.554454440899896
47,의원,영업/정상,서울특별시 중구 황학동 668번지 황학아크로타워 2층 217호,201818.834333334,451579.319666666,127.01848510333576,37.56649582544842
48,의원,영업/정상,서울특별시 중구 서소문동 120번지 14호 4층,197604.36730827,451110.547640244,126.97078348351842,37.56227062819841
49,의원,영업/정상,서울특별시 중구 순화동 217번지 덕수궁롯데캐슬 1층 120호,197312.655183004,451257.223181993,126.967481255668,37.563591333826345
50,의원,영업/정상,"서울특별시 중구 중림동 398번지 9호 2,3층",196711.099340642,450733.44040347,126.9606749559192,37.558870115452336
51,의원,영업/정상,서울특별시 양천구 신월동 27번지 6호,184705.839940901,448625.102280957,126.82484675760372,37.53975241507303
52,의원,영업/정상,서울특별시 양천구 신정동 769번지 9호,185615.520850794,445480.509688438,126.8352014488555,37.51143461298685
53,의원,영업/정상,서울특별시 송파구 방이동 44번지 1호,209879.174643529,446088.51074896,127.10964594225648,37.516973555711495
54,의원,영업/정상,서울특별시 송파구 신천동 17번지 4호,209151.713940169,446519.612162961,127.10142266220869,37.52086520261506
55,의원,영업/정상,서울특별시 송파구 장지동 880번지 대길프라자,212509.060261175,442181.794453598,127.13932757828455,37.48174248668535
56,의원,영업/정상,서울특별시 중랑구 면목동 178번지 52호,206831.16196502,454060.213250261,127.07524208058918,37.58882515769927
57,의원,영업/정상,서울특별시 중랑구 신내2동 646번지 금강리빙스텔 202호,208112.860200669,457113.638411288,127.08978738999562,37.61632565432783
58,의원,영업/정상,서울특별시 중랑구 상봉동 74-46 성환빌딩,208240.86652649,455162.056999516,127.09121545088195,37.59874114648496
59,의원,영업/정상,서울특별시 중랑구 망우본동 470번지 11호 외1필지4층,208574.566606995,455201.404791635,127.09499465504591,37.59909263857449
60,의원,영업/정상,서울특별시 중랑구 면목본동 1216번지,207700.345591851,453988.511689469,127.08508247667577,37.58817234069591
61,의원,영업/정상,서울특별시 서초구 반포동 32번지 1호 반포메딕스 401호,200982.169900218,444468.719796887,127.00900608840804,37.502430999286105
62,의원,영업/정상,서울특별시 서초구 방배동 984번지 1호 204호,199783.057194961,442111.603972035,126.99544593897217,37.48119379848368
63,의원,영업/정상,서울특별시 서초구 양재동 326-7 한석빌딩,203470.772394968,440773.57015373,127.03713318931686,37.46913184798965
64,의원,영업/정상,서울특별시 중랑구 면목동 118번지 1호,207529.024369805,453948.919232668,127.08314234299031,37.5878170235654
65,의원,영업/정상,서울특별시 양천구 신월동 575번지 1호,186007.943213494,446225.17755519,126.83962572899651,37.51815007520424
66,의원,영업/정상,서울특별시 양천구 신월동 575번지 1호,186007.943213494,446225.17755519,126.83962572899651,37.51815007520424
67,의원,영업/정상,서울특별시 양천구 목동 907번지 4호,189197.506088261,448244.523188923,126.87567485920106,37.53638728252555
68,의원,영업/정상,서울특별시 양천구 신정4동 900번지 14호,187903.955709963,447135.710268595,126.86105755028632,37.526380830855956
69,의원,영업/정상,서울특별시 양천구 신정동 1022번지 2호,187457.031469087,446397.255000094,126.85601424252718,37.51972140803541
70,의원,영업/정상,서울특별시 양천구 신정동 201번지 1호 세양청마루 2차 주상복합상가 203호,187954.189632117,445124.131588947,126.86165896535778,37.50825729863264
71,의원,영업/정상,서울특별시 서초구 방배동 924-10 2층,199563.291543858,442327.181356689,126.99296111407595,37.48313606096087
72,의원,영업/정상,서울특별시 서초구 양재동 1번지 7호 3층,203288.558315531,442465.267741919,127.03508080463224,37.48437473304183
73,의원,영업/정상,서울특별시 서초구 양재동 1번지 2층,203266.332997452,442515.863669236,127.03482973375047,37.48483068009408
74,의원,영업/정상,서울특별시 서초구 방배동 907번지 9호 안혜빌딩,199626.199878331,442376.394258865,126.99367234708711,37.483579501812464
75,의원,영업/정상,서울특별시 중랑구 묵동 244번지 149호 삼삼메디컬빌딩,206784.137676923,456364.6175168,127.07473080086895,37.60958778645665
76,의원,영업/정상,서울특별시 중랑구 신내동 559번지 2호 4층,208329.316273878,455923.228873371,127.09222562744141,37.60559837714951
77,의원,영업/정상,서울특별시 중랑구 면목동 118번지 1호 6층,207529.024369805,453948.919232668,127.08314234299031,37.5878170235654
78,의원,영업/정상,서울특별시 서초구 서초동 1306번지 5호 삼영빌딩 8층,202244.977325839,444208.20024313,127.02328670413746,37.50008160402598
79,의원,영업/정상,서울특별시 중랑구 상봉2동 130번지 3호 3층,206526.002200022,454549.167447113,127.07179128657468,37.593232748862604
80,의원,영업/정상,서울특별시 용산구 이촌동 301번지 18호,197716.552441801,446510.928737718,126.97206792932222,37.52082871011973
81,의원,영업/정상,서울특별시 용산구 보광동 260번지 12호,199862.580109193,447278.462642041,126.99634361113444,37.52774711624214
82,의원,영업/정상,서울특별시 양천구 목동 616번지 1호,187973.506057862,449577.544330613,126.86180417132742,37.548382435221214
83,의원,영업/정상,서울특별시 양천구 신정동 1190번지 4호,186871.131492965,446517.085069491,126.84938450424382,37.520792880180444
84,의원,영업/정상,서울특별시 양천구 신정동 1190번지 4호,186871.131492965,446517.085069491,126.84938450424382,37.520792880180444
85,의원,영업/정상,서울특별시 양천구 목동 758번지 1호,188569.533100846,448315.673705478,126.8685686497845,37.53702073140286
86,의원,영업/정상,서울특별시 양천구 목동 907번지 현대월드타워 317호,189151.208015925,448200.067716589,126.87515168762695,37.535986196178
87,의원,영업/정상,서울특별시 양천구 신정동 1029번지 9호,187078.706604818,446545.155384127,126.85173209179406,37.521048735095256
88,의원,영업/정상,서울특별시 양천구 신정동 1052번지 2호,187063.896032922,446132.627214456,126.8515718483566,37.51733167752808
89,의원,영업/정상,서울특별시 양천구 신월동 544번지 9호,185943.889483219,446243.158506473,126.83890083581849,37.51831110468079
90,의원,영업/정상,서울특별시 중랑구 묵동 173번지 7호 도림빌딩,206882.954067277,456658.592752196,127.0758526775643,37.612235720255775
91,의원,영업/정상,서울특별시 중랑구 면목동 611번지 3호 2층,207747.046458217,453107.130727702,127.08560199385961,37.58023084381979
92,의원,영업/정상,서울특별시 중랑구 면목동 634번지 10호 한성빌딩,207629.811932774,453054.444711078,127.08427424031056,37.57975712079425
93,의원,영업/정상,서울특별시 중랑구 묵동 170-1 묵동자이아파트,206777.731391054,456837.219624564,127.07466258151506,37.6138458874861
94,의원,영업/정상,서울특별시 중랑구 면목4동 376번지 4호,207095.043308103,452454.938575965,127.07821442385315,37.574359890939576
95,의원,영업/정상,서울특별시 중랑구 면목7동 634번지 10호,207629.811932774,453054.444711078,127.08427424031056,37.57975712079425
96,의원,영업/정상,서울특별시 용산구 갈월동 93번지 30호 국제전산빌딩 6층,197443.881826007,448884.957554763,126.96897500999947,37.54221782841724
97,의원,영업/정상,서울특별시 용산구 이촌동 300번지 27호,197450.277644237,446437.197878548,126.96905608788694,37.52016368273121
98,의원,영업/정상,서울특별시 양천구 신정동 1190번지 3호,186868.545723569,446530.744050987,126.84935500894893,37.52091590961118
99,의원,영업/정상,서울특별시 양천구 목동 923번지,188494.598982992,447318.660520705,126.86773651161039,37.52803679193673
100,의원,영업/정상,서울특별시 양천구 신정동 1031번지 2호,186936.178192265,446507.437323078,126.85012048275625,37.52070688211174
101,의원,영업/정상,서울특별시 양천구 신월동 931번지 8호,185186.188587777,446690.212001563,126.83032099117808,37.52232711891848
102,의원,영업/정상,서울특별시 양천구 목동 718번지 10호,188088.108041167,448596.44170467,126.86311702360955,37.53954429966092
103,의원,영업/정상,서울특별시 양천구 목동 917-1,188871.512837973,447348.13213342,126.87200011660521,37.52830697735907
104,의원,영업/정상,서울특별시 양천구 신정동 972번지 3호,186902.218757915,446619.780718704,126.84973432389211,37.52171860397739
105,의원,영업/정상,서울특별시 양천구 신정동 312번지,187766.276177683,446265.890841351,126.85951455751923,37.518541997704475
106,의원,영업/정상,서울특별시 양천구 신월동 81번지 21호,184829.306182525,448254.981721699,126.82625143186061,37.5364197178221
107,의원,영업/정상,서울특별시 양천구 신정동 947번지 1호 2층,187022.02884855,446935.775199941,126.85108402254151,37.52456739016798
108,의원,영업/정상,서울특별시 양천구 신정동 1259번지,187047.810109944,445755.514912318,126.85139656804968,37.513933694150055
109,의원,영업/정상,서울특별시 양천구 신정동 1267번지,187158.467033065,445678.076325463,126.85264956014865,37.5132375307506
110,의원,영업/정상,서울특별시 양천구 신월동 428번지 7호,185919.935903308,446920.163216996,126.8386168580289,37.52441049567078
111,의원,영업/정상,서울특별시 송파구 문정동 150번지 26호,210226.697751848,443267.228806217,127.11353795410238,37.49155014929301
112,의원,영업/정상,서울특별시 양천구 목1동 404번지 87호 정목빌딩 2층,188953.963181509,446792.121550223,126.87294129107026,37.52329835957051
113,의원,영업/정상,서울특별시 양천구 목동 506번지 7호,188540.174473765,449290.733051822,126.86822117455483,37.54580555252731
114,의원,영업/정상,서울특별시 양천구 신정동 119-10 경향빌딩,189006.199644684,446677.57208947,126.87353393171904,37.52226690417828
115,의원,영업/정상,서울특별시 양천구 신정동 1028번지 2호,187193.402978833,446564.088993035,126.85302920674441,37.52122093192287
116,의원,영업/정상,서울특별시 양천구 신정동 1293번지,186165.495957043,445104.207668176,126.84142908014695,37.50805259708488
117,의원,영업/정상,서울특별시 중랑구 망우동 489번지 1호 삼부빌딩,208490.019432559,455252.715739808,127.0940378470757,37.59955571887474
118,의원,영업/정상,서울특별시 중랑구 중화동 315번지 10호,206723.262017513,455124.809250397,127.07403008302012,37.59841777964194
119,의원,영업/정상,서울특별시 중랑구 묵1동 175번지 7호 2층,206788.864647983,456673.982652025,127.07478717788752,37.61237507274863
120,의원,영업/정상,서울특별시 중랑구 상봉동 101번지 15호 주연빌딩,207525.305571893,454847.071739309,127.08310938437063,37.595909261153295
121,의원,영업/정상,서울특별시 중랑구 망우본동 489번지 28호,208412.629957471,455211.359469508,127.09316102456603,37.59918381133056
122,의원,영업/정상,서울특별시 중랑구 망우3동 410번지 1호,208781.999418607,454740.62692431,127.09733810588538,37.59493916940472
123,의원,영업/정상,서울특별시 중랑구 면목동 632번지 10호 농협,207528.589834323,452941.322890204,127.0831271623402,37.57873873524305
124,의원,영업/정상,서울특별시 중랑구 묵동 238번지 8호 2층,206712.645739265,456738.441211434,127.07392451910727,37.61295638580277
125,의원,영업/정상,서울특별시 서초구 방배동 438-14,198367.956597525,442294.805432186,126.97944633977357,37.482842932661036
126,의원,영업/정상,서울특별시 송파구 석촌동 296번지 15호,209733.324912029,444276.304902223,127.1079723577644,37.500647196399164
127,의원,영업/정상,서울특별시 양천구 신월동 110번지 1호,185214.1358482,447808.60383603,126.83061453899357,37.53240417457314
128,의원,영업/정상,서울특별시 양천구 신정동 118번지 20호 2층(덕진빌딩 2층 일부),188860.887455631,446682.626199308,126.87189005382773,37.52231068902615
129,의원,영업/정상,"서울특별시 양천구 목동 916 현대백화점, B1층",188884.075622342,447186.888604306,126.87214469362013,37.52685433788699
130,의원,영업/정상,서울특별시 양천구 목동 406번지 21호 대학학원빌딩 2층,188767.584299319,446998.232038717,126.87082973906581,37.52515313780415
131,의원,영업/정상,서울특별시 양천구 목동 405번지 276호,188617.140810233,446949.529618415,126.86912858495658,37.524712478892916
132,의원,영업/정상,서울특별시 양천구 신정동 86번지 28호,188811.345893568,446697.880348388,126.87132939585884,37.52244752519414
133,의원,영업/정상,서울특별시 양천구 목동 404번지 156호,188954.524397407,446824.338404844,126.87294715285779,37.52358863791501
134,의원,영업/정상,서울특별시 양천구 목동 766번지 18호,188285.094794252,448194.558648501,126.86535233506532,37.5359259080546
135,의원,영업/정상,서울특별시 양천구 신월동 550번지 3호 승일뷰티타워 601호,185962.809546697,446176.170952681,126.83911613643093,37.51770784108361
136,의원,영업/정상,서울특별시 은평구 신사동 20번지 8호 신창빌딩 3층,192017.924374175,455140.248754241,126.90751039975589,37.59854579941714
137,의원,영업/정상,서울특별시 은평구 응암동 110번지 53호 4층,192814.393929864,455262.12972518,126.91652821932067,37.599650543605605
138,의원,영업/정상,서울특별시 은평구 불광동 311번지 13호 메트로타워 3층 3010호,192998.202204135,457479.99522553,126.9185882398322,37.61963451975199
139,의원,영업/정상,서울특별시 은평구 응암동 103번지 25호 301호,192986.753723441,455156.719218491,126.91848102716865,37.59870215476731
140,의원,영업/정상,서울특별시 중랑구 상봉동 222번지 82호 3층,207518.836843774,455604.158486813,127.08304384238014,37.60273053287274
141,의원,영업/정상,서울특별시 중랑구 중화동 303번지 14호,206936.570187916,455280.600452321,127.07644699071523,37.59981986371344
142,의원,영업/정상,서울특별시 중랑구 신내동 613번지 10호 2층,208457.071353064,456153.414908527,127.0936750696097,37.60767115372262
143,의원,영업/정상,서울특별시 중랑구 면목2동 184번지 52호,206761.24003808,454386.740893815,127.07445338893258,37.59176763101913
144,의원,영업/정상,서울특별시 중랑구 신내2동 654번지 진로아파트상가 205호,208167.41370761,456865.81881552,127.09040254357626,37.61409237066817
145,의원,영업/정상,서울특별시 중랑구 신내동 646번지 금강리빙스텔 215호,208112.860200669,457113.638411288,127.08978738999562,37.61632565432783
146,의원,영업/정상,서울특별시 중랑구 면목본동 126번지 7호,207613.845872319,454128.450084891,127.08410455268091,37.58943387662049
147,의원,영업/정상,서울특별시 중랑구 면목본동 74번지 1호,208177.795391594,454220.604326257,127.09049082020705,37.59025937515603
148,의원,영업/정상,서울특별시 중랑구 신내1동 667번지 금강프라자 404호,208368.252033443,456040.864473831,127.0926679021684,37.606657901355256
149,의원,영업/정상,서울특별시 중랑구 망우동 488번지 8호 장스빌딩A동,208547.560589346,455271.790327778,127.0946896586217,37.599727049022285
150,의원,영업/정상,서울특별시 중랑구 면목동 17번지 31호 청파빌딩,208533.165197782,454186.696918605,127.0945141019098,37.589950675124065
151,의원,영업/정상,서울특별시 중랑구 면목동 496번지 4호 KFC,207708.434592968,453190.864383804,127.08516574280004,37.58098559303206
152,의원,영업/정상,서울특별시 서초구 신원동 195번지 12호,205079.455986292,438165.682928893,127.05530036012829,37.44562733188389
153,의원,영업/정상,서울특별시 서초구 우면동 66번지 2호 우면종합상가 502호,202175.011113176,440963.759050916,127.02248616641127,37.47084932148351
154,의원,영업/정상,서울특별시 서초구 서초동 1621번지 1호 희원빌딩 2층,201322.503912237,442689.352937397,127.01285196525389,37.48639851022162
155,의원,영업/정상,서울특별시 서초구 반포동 748번지 1호 청호타워 3층,202020.540674638,444789.801740358,127.02075012264247,37.50532232607383
156,의원,영업/정상,서울특별시 서초구 서초동 1337번지 32호 광일플라자 5층,202552.631386203,443374.448124774,127.0267631090894,37.492568726432
157,의원,영업/정상,"서울특별시 서초구 서초동 1714번지 21호 서초법조타운, 302호",201086.778264491,443626.535141939,127.0101879592537,37.494842814482425
158,의원,영업/정상,서울특별시 서초구 서초동 1306번지 3호 한승빌딩 402호,202233.709871973,444233.535744827,127.02315935651413,37.500309903084506
159,의원,영업/정상,서울특별시 서초구 서초동 1318번지 2호 7층,202288.363387944,444068.982690301,127.02377693129489,37.49882715215996
160,의원,영업/정상,서울특별시 송파구 잠실동 44번지 3호 레이크팰리스상가 A동 401호,208105.938904596,445043.97737109,127.08957671685067,37.50757950303905
161,의원,영업/정상,서울특별시 양천구 신월동 146번지 5호,184813.391143317,448153.005674036,126.82607348099556,37.53550066179924
162,의원,영업/정상,서울특별시 양천구 신정동 1190번지 5호,186876.287616831,446502.706603741,126.84944308806847,37.52066340496693
163,의원,영업/정상,서울특별시 양천구 목동 526번지,188788.809659247,449313.885409203,126.87103431436167,37.54601722622307
164,의원,영업/정상,"서울특별시 송파구 석촌동 296번지 17호 2층,3층",209751.9855,444250.6205,127.10818305128599,37.50041558517939
165,의원,영업/정상,서울특별시 은평구 구산동 상원빌딩 4층,192563.874496397,456570.084566278,126.9136779568427,37.611432967592606
166,의원,영업/정상,서울특별시 영등포구 당산동1가 16-1 진로아파트,190766.238732198,446496.183037224,126.893446154613,37.52065200776725
167,의원,영업/정상,서울특별시 중랑구 면목동 524번지 13호 201호,208091.849962077,453106.606235283,127.08950550166387,37.580223177861626
168,의원,영업/정상,서울특별시 중랑구 상봉동 500번지,207923.745922676,455090.718335439,127.08762368028492,37.598101159737865
169,의원,영업/정상,서울특별시 중랑구 상봉동 500번지,207923.745922676,455090.718335439,127.08762368028492,37.598101159737865
170,의원,영업/정상,서울특별시 중랑구 상봉동 116번지 25호,207193.113865555,454833.873507726,127.07934773067636,37.5957929795388
171,의원,영업/정상,서울특별시 중랑구 신내동 563번지 3호,208382.976882977,455900.325723704,127.09283306405946,37.60539154057056
172,의원,영업/정상,서울특별시 양천구 목동 603번지 5호,188212.125472688,449668.428997479,126.86450295570133,37.54920439364329
173,의원,영업/정상,서울특별시 양천구 목동 792번지 1호,187908.613114643,447909.376500792,126.86109744155482,37.53335155944486
174,의원,영업/정상,서울특별시 양천구 신월동 116번지 36호,185599.058085887,447598.764336924,126.83497356957736,37.530519656118315
175,의원,영업/정상,서울특별시 양천구 목동 614번지 12호 1층,187882.729194567,449588.385660235,126.86077674755768,37.548478919678296
176,의원,영업/정상,서울특별시 양천구 목5동 908번지 28호 부영그린타운2차 2층 206-4호,189423.528553032,448240.505845376,126.87823221169876,37.53635372127709
177,의원,영업/정상,서울특별시 양천구 목동 613번지 2호,187916.254332614,449683.219205227,126.86115455415087,37.549333801371915
178,의원,영업/정상,서울특별시 양천구 목동 902번지 2단지관리동 202호,188965.738829492,448365.713974147,126.87305073579473,37.537476441319505
179,의원,영업/정상,서울특별시 중구 장교동 1번지 장교빌딩 2304호,198744.433228989,451677.065126229,126.98368604352257,37.56737722498538
180,의원,영업/정상,서울특별시 중구  23번지,200488.771189305,451524.878308043,127.0034302007126,37.566006887135
181,의원,영업/정상,서울특별시 송파구 잠실동 44번지 3호 레이크팰리스상가A동308호,208105.938904596,445043.97737109,127.08957671685067,37.50757950303905
182,의원,영업/정상,서울특별시 송파구 잠실동 44번지 3호 레이크팰리스상가A동304호,208105.938904596,445043.97737109,127.08957671685067,37.50757950303905
183,의원,영업/정상,서울특별시 송파구 신천동 7번지,208707.089897534,446299.352775446,127.0963904851533,37.51888494791349
184,의원,영업/정상,서울특별시 송파구 잠실동 181번지 9호(8층),207248.404515714,445470.750139552,127.07988216929392,37.51143177929264
185,의원,영업/정상,서울특별시 용산구 한강로3가 40번지 999호 6층,196762.077394917,447480.039577359,126.96126654334233,37.52955742609546
186,의원,영업/정상,서울특별시 용산구 한강로3가 40번지 961호,196864.360553566,447707.403309726,126.96242271624692,37.53160631975509
187,의원,영업/정상,서울특별시 송파구 신천동 11번지 4호 잠실푸르지오 월드마크 2층,209087.122362019,446139.152554604,127.10068733357093,37.51743791643554
188,의원,영업/정상,서울특별시 양천구 목동 613번지 8호,187903.989509689,449662.909076605,126.8610160983048,37.54915064777935
189,의원,영업/정상,서울특별시 서초구 양재동 11번지 72호,203155.560586557,442363.386531969,127.03357663650746,37.48345723662686
190,의원,영업/정상,서울특별시 서초구 서초동 1311번지 삼호종합상가 303호,201848.84806058,444363.963061623,127.01880730272303,37.501485874993655
191,의원,영업/정상,서울특별시 서초구 방배동 874-1 한국수입협회(KOIMA)빌딩,199271.0207388,442933.45613873,126.98965595142555,37.4885983976967
192,의원,영업/정상,서울특별시 서초구 서초동 1330번지 10호 갤럭시타워 6층,202467.838463422,443416.353040198,127.02580442882707,37.49294651407975
193,의원,영업/정상,서울특별시 중구 신당동 140번지 10호,201726.806519228,451462.316640157,127.01744318328343,37.56544181213963
194,의원,영업/정상,서울특별시 중구 충무로2가 65번지 9호 65-9 하이해리엇9층,198636.2503948,451005.721641592,126.98246282385563,37.56132833388368
195,의원,영업/정상,서울특별시 중구 명동1가 5번지 1호 보림빌딩 6층,198686.678201289,451324.490368584,126.9830329738265,37.5642004820417
196,의원,영업/정상,서울특별시 중구 을지로2가 199-40 명동아르누보센텀,198505.140766586,451381.113105659,126.98097810987493,37.5647103572842
197,의원,영업/정상,서울특별시 중구  5번지 6호 칠보빌딩3층,199055.288923974,451579.319762379,126.98720476846053,37.56649694342424
198,의원,영업/정상,서울특별시 중구  355번지,197133.181826761,450929.253706925,126.9654512015502,37.56063581142435
199,의원,영업/정상,"서울특별시 종로구 종로1가 24번지 르메이에르종로타운 413-2호, 414-1호",198150.300374121,452019.212642931,126.97696013266717,37.57045889074498
200,의원,영업/정상,서울특별시 종로구 낙원동 141 내인빌딩,198977.28746058,452187.211222643,126.98632097545739,37.57197388436186
201,의원,영업/정상,서울특별시 서초구 방배동 836-3,199177.0452218,443168.320380936,126.98859307304447,37.49071443985604
202,의원,영업/정상,서울특별시 송파구 방이동 43번지,209756.076693304,445947.907683148,127.10825167778653,37.5157080301266
203,의원,영업/정상,서울특별시 송파구 방이동 108번지,209892.748415508,445538.660265161,127.10979213272347,37.512019286709474
204,의원,영업/정상,서울특별시 송파구 가락동 123번지 4층,210932.386303593,443703.135621607,127.12152401292184,37.495469629302974
205,의원,영업/정상,서울특별시 송파구 신천동 7번지 25호,208747.966147418,445880.344362008,127.09684791727004,37.51510932010715
206,의원,영업/정상,"서울특별시 송파구 장지동 881번지 5호 에스비트램스퀘어 303,304호",212569.252309346,442123.304850852,127.14000712177928,37.48121468368919
207,의원,영업/정상,서울특별시 송파구 삼전동 22번지 4호 301호,208131.297119724,444974.445083967,127.08986275584813,37.50695279839364
208,의원,영업/정상,서울특별시 송파구 송파동 167번지 1호,210454.620818605,444560.998707038,127.11613347347168,37.503204446349905
209,의원,영업/정상,서울특별시 송파구 문정동 4-4 삼원빌딩,211108.28082746,443222.447366901,127.1235058457981,37.49113655350096
210,의원,영업/정상,서울특별시 송파구 잠실동 35번지 2호 5층,207553.918225133,445383.338011122,127.08333681744926,37.510641771957324
211,의원,영업/정상,서울특별시 송파구 석촌동 295-10 금도빌딩,209535.293856198,444388.263142818,127.10573427561522,37.50165798842289
212,의원,영업/정상,서울특별시 송파구 방이동 207번지 MIK타워 401호,211050.348471002,445216.912830336,127.122880546895,37.509107311068334
213,의원,영업/정상,"서울특별시 송파구 신천동 7번지 17호 한빛프라자,삼성웰리스아파트",208730.633457015,445905.025545443,127.09665215573816,37.515331859222975
214,의원,영업/정상,서울특별시 서초구 방배동 866번지 10호 방배 마에스트로,198504.826881916,442641.079956283,126.98099310086758,37.485963111017746
215,의원,영업/정상,서울특별시 영등포구 영등포동4가 425번지 2호 체신빌딩 4층,191619.249847095,446038.543732844,126.90310064621738,37.51653690048206
216,의원,영업/정상,서울특별시 영등포구 여의도동 44번지 35호,193818.18014,446332.089777304,126.92797103241683,37.51919923260958
217,의원,영업/정상,서울특별시 영등포구 영등포동3가 6번지,191562.894420316,446375.319049694,126.90245929667229,37.51957071096463
218,의원,영업/정상,서울특별시 영등포구 영등포동5가 26번지,191565.581208536,446524.181032762,126.90248796838337,37.520911973765045
219,의원,영업/정상,서울특별시 성동구 도선동 46 W에비뉴타워  201호,202967.042456635,451118.809600324,127.03147974968348,37.562343780673665
220,의원,영업/정상,"서울특별시 성동구 금호동3가 1331번지 두산아파트상가 508, 509호",201383.023709556,449744.280482389,127.01354890324775,37.549963036494745
221,의원,영업/정상,서울특별시 성동구 옥수동 436번지 극동그린아파트상가 205호,200813.000885632,448855.573036243,127.00709738296737,37.54195649518382
222,의원,영업/정상,서울특별시 용산구  63번지 5호,196993.838133124,449201.432096601,126.96388133363858,37.5450678498899
223,의원,영업/정상,서울특별시 종로구 명륜동2가 211번지 유니지오빌딩  301호,199769.96511678,453520.42735819,126.99529334754914,37.583986579737726
224,의원,영업/정상,서울특별시 종로구 신문로1가 25번지 5층,197680.780080175,452016.543891352,126.97164540017526,37.57043375057823
225,의원,영업/정상,서울특별시 종로구 창신동 212번지 2층,201185.963029126,452281.72964337,127.01132276120016,37.57282544269716
226,의원,영업/정상,서울특별시 종로구 종로3가 130번지 화영빌딩 5층,199214.548011588,451983.042894684,126.98900694064753,37.5701346020241
227,의원,영업/정상,서울특별시 종로구 종로6가 215번지 16호 2층,200438.102064147,452339.55653695,127.00285709989635,37.57334706251862
228,의원,영업/정상,서울특별시 송파구 석촌동 184번지 7호 레이크빌 빌딩,209240.579467845,444954.764895918,127.10240838523846,37.506765125022866
229,의원,영업/정상,서울특별시 송파구 잠실동 40번지 갤러리아팰리스상가 205호,208233.926974585,445435.257647797,127.09102860715147,37.5111038000225
230,의원,영업/정상,서울특별시 송파구 마천동 128-16,213108.957649782,443871.689231991,127.14614000379413,37.49696012435503
231,의원,영업/정상,서울특별시 송파구 마천동 35번지 1호,212877.140294641,444042.378453313,127.14352149724942,37.49850127193654
232,의원,영업/정상,서울특별시 서초구 서초동 1538번지 10호 꽃빌딩 3층,200728.01799306,442900.274138108,127.0061304101779,37.48829952983669
233,의원,영업/정상,서울특별시 서초구 반포동 32-1 반포트라이엄프메딕스빌딩,200982.169900218,444468.719796887,127.00900608840804,37.502430999286105
234,의원,영업/정상,서울특별시 서초구 서초동 1485번지 1호,200727.162672148,442346.430471291,127.00612024049036,37.483309393826374
235,의원,영업/정상,서울특별시 송파구 송파동 19-9 삼현빌딩,209522.43324123,444926.099764329,127.10559574675973,37.506504009793794
236,의원,영업/정상,서울특별시 송파구 문정동 618번지 파크하비오,210868.397496689,442053.227933005,127.120776211014,37.48060473499756
237,의원,영업/정상,서울특별시 송파구 방이동 180번지 18호 한우리빌딩,210151.390873614,445852.199143259,127.11272185014985,37.51484146688586
238,의원,영업/정상,서울특별시 서초구 서초4동 1692번지 7호 나호 3층,201287.065383865,443586.472440334,127.01245275798746,37.494481606365646
239,의원,영업/정상,서울특별시 서초구 반포동 736번지 2호 대유빌딩,201928.488232335,445018.433564604,127.01970961895317,37.5073824839984
240,의원,영업/정상,서울특별시 서초구 잠원동 72번지 3호 태남홀딩스,200258.046490891,445103.708668959,127.00081697232218,37.50815267167595
241,의원,영업/정상,"서울특별시 서초구 반포동 18번지 3호 래미안퍼스티지중심상가309,310,311호일부",200005.626362552,444680.521703344,126.99796210917894,37.50433978486845
242,의원,영업/정상,서울특별시 송파구 석촌동 174번지 2호 태문빌딩3층,209328.877055075,444801.540394882,127.10340509029913,37.505383696333766
243,의원,영업/정상,서울특별시 송파구 신천동 7번지 17호 한빛프라자 3층,208730.633457015,445905.025545443,127.09665215573816,37.515331859222975
244,의원,영업/정상,서울특별시 서초구 양재동 217번지 서울오토갤러리 금관309호,203059.646700644,439960.533113874,127.03248243188956,37.461807775430515
245,의원,영업/정상,서울특별시 서초구 방배동 899번지 1호,199455.677164807,442720.577889389,126.99174406551477,37.486680503343194
246,의원,영업/정상,서울특별시 서초구 방배동 908번지 8호,199700.288597296,442239.986498699,126.99451009082111,37.482350498163655
247,의원,영업/정상,서울특별시 송파구 마천동 118번지 24호,212931.068187861,444027.752100972,127.14413109099038,37.4983687395446
248,의원,영업/정상,서울특별시 영등포구 양평동2가 37번지 1호 동아프라임밸리 206호,189700.355755718,446888.903509382,126.88138338858566,37.52417904127924
249,의원,영업/정상,서울특별시 송파구 잠실동 175번지 9호 잠실현대빌딩 2층,206978.093333333,445479.071666667,127.07682487010533,37.51150881941661
250,의원,영업/정상,서울특별시 송파구 거여동 27번지 5호 203호,212800.699970729,443397.261935451,127.14264590200564,37.49268985093887
251,의원,영업/정상,서울특별시 서초구 잠원동 73번지 잠원쇼핑센터 306호,200126.805375737,445334.308692995,126.99933264175007,37.51023038997537
252,의원,영업/정상,서울특별시 서초구 잠원동 69번지 22호 반도쇼핑8동 403호,200623.25426297,445026.538461296,127.00494745014134,37.507457221182875
253,의원,영업/정상,서울특별시 서초구 방배동 824번지 2호,198636.863843084,443169.200980051,126.9824849865828,37.49072169750352
254,의원,영업/정상,서울특별시 중구 신당동 360번지 2호,200809.411043139,450318.80879106,127.00705824777481,37.55514012477385
255,의원,영업/정상,서울특별시 송파구 삼전동 1번지 1호 신원빌딩 4층,208011.39567091,444998.464309311,127.0885069412669,37.50717025033266
256,의원,영업/정상,서울특별시 송파구 문정동 74-7 선도빌딩,211091.294891515,441953.803802768,127.12329478312665,37.47970629187119
257,의원,영업/정상,서울특별시 송파구 신천동 7번지 29호 향군타워 2층 206호,208883.088818201,446048.260013091,127.09837832136847,37.516620950932186
258,의원,영업/정상,서울특별시 송파구 마천동 181번지 현대그린빌 306호,213279.781081276,443674.682876425,127.14806820227393,37.49518267657036
259,의원,영업/정상,서울특별시 송파구 신천동 7번지 20호 한국루터회관 5층,209035.875632195,445898.643365404,127.10010472287819,37.51527144045027
260,의원,영업/정상,서울특별시 송파구 송파동 97번지 31호 메디포레 2층 2-2,209768.501168011,444354.49627271,127.10837119523222,37.50135132941828
261,의원,영업/정상,서울특별시 송파구 장지동 880번지 대길프라자 604호,212509.060261175,442181.794453598,127.13932757828455,37.48174248668535
262,의원,영업/정상,서울특별시 송파구 마천2동 128번지 61호 2층,213157.047527162,443876.933343624,127.14668391542342,37.497006693342286
263,의원,영업/정상,서울특별시 송파구 가락본동 80번지 성원상떼빌 102동 210호,210580.683290918,443657.71204579,127.1175462491218,37.495064434146755
264,의원,영업/정상,서울특별시 송파구 삼전동 48-10 서울외과빌딩,207914.786189844,444584.647018072,127.08740987878204,37.50344259571917
265,의원,영업/정상,서울특별시 송파구 방이동 24-3 제이타워빌딩,209464.391222287,445823.868004612,127.1049507736535,37.51459345481739
266,의원,영업/정상,서울특별시 영등포구 당산동3가 385번지 1호,190733.030903431,447118.969319485,126.8930626034017,37.52626293717536
267,의원,영업/정상,서울특별시 송파구 방이동 208번지 1호 민성빌딩 2층,210888.579009374,445284.19361835,127.12105188893062,37.50971541811656
268,의원,영업/정상,서울특별시 송파구 장지동 880번지,212509.060261175,442181.794453598,127.13932757828455,37.48174248668535
269,의원,영업/정상,서울특별시 송파구 송파동 84번지 7호 4층 1호,209484.320725356,444751.41436612,127.10516246413717,37.504930490261394
270,의원,영업/정상,서울특별시 서초구 서초동 1685-8 G5센트럴프라자,201386.338220173,443689.075119969,127.01357552324967,37.49540591929722
271,의원,영업/정상,서울특별시 양천구 목동 907번지 4호,189197.506088261,448244.523188923,126.87567485920106,37.53638728252555
272,의원,영업/정상,서울특별시 양천구 신정4동 900번지 20호,187898.092971404,447235.471088768,126.86098957488248,37.52727959058964
273,의원,영업/정상,서울특별시 양천구 신월동 166번지 5호,184781.157969354,448087.355237628,126.8257101548345,37.534908625064
274,의원,영업/정상,서울특별시 양천구 목동 753번지 12호,188605.762730565,448342.943184802,126.86897814200623,37.53726687758997
275,의원,영업/정상,서울특별시 양천구 신월동 972번지 1호,185409.296580064,446424.528992096,126.83285012724335,37.519936906394975
276,의원,영업/정상,서울특별시 양천구 신월6동 550번지 3호 승일뷰티타워2 401호,185962.809546697,446176.170952681,126.83911613643093,37.51770784108361
277,의원,영업/정상,서울특별시 양천구 신월동 510번지 1호,186148.086395033,446679.296890975,126.84120237243157,37.52224377825865
278,의원,영업/정상,서울특별시 양천구 신정동 1031번지 1호,186925.884838357,446522.764708979,126.8500037708886,37.5208448342558
279,의원,영업/정상,서울특별시 양천구 목동 909번지 5호 화성프라자 401호,189755.541308355,448356.632865262,126.88198708508514,37.537403785227006
280,의원,영업/정상,서울특별시 양천구 목동 406번지 274호 신한빌딩 4층,188943.811621589,447039.51965518,126.87282271031845,37.52552727642278
281,의원,영업/정상,서울특별시 송파구 잠실동 184번지,207285.647226547,445469.00224568,127.08030338892874,37.511415740333824
282,의원,영업/정상,서울특별시 서초구 방배동 910번지 14호,199606.291233026,442298.073952228,126.99344730077448,37.48287382515496
283,의원,영업/정상,서울특별시 서초구 양재동 9번지 60호 삼광빌딩,203483.098880553,442306.086048111,127.03727964113877,37.48293980515901
284,의원,영업/정상,서울특별시 양천구 신정동 201번지 1호 세양청마루 2차주상복합 204호,187954.189632117,445124.131588947,126.86165896535778,37.50825729863264
285,의원,영업/정상,서울특별시 양천구 신월동 23번지 14호,185219.063117975,448660.569381106,126.8306530690255,37.54008037195153
286,의원,영업/정상,서울특별시 양천구 신월1동 134번지 17호 태형(아)상가 1층,185127.29180394,447849.098954469,126.82963118735763,37.53276762964868
287,의원,영업/정상,"서울특별시 양천구 신정동 1320번지 서남프라자1, 3층",185099.82674039,445627.497359739,126.82936567628819,37.51275074807838
288,의원,영업/정상,서울특별시 양천구 신정동 128번지 105호,188775.802463919,446300.797031525,126.87093341719137,37.51886939706757
289,의원,영업/정상,서울특별시 양천구 신정동 1190번지 4호,186871.131492965,446517.085069491,126.84938450424382,37.520792880180444
290,의원,영업/정상,서울특별시 양천구 신정동 1190번지 4호,186871.131492965,446517.085069491,126.84938450424382,37.520792880180444
291,의원,영업/정상,서울특별시 양천구 목동 907번지 18호,189224.684682604,448126.370368706,126.87598411023271,37.53532305581545
292,의원,영업/정상,서울특별시 양천구 신정동 784번지 서남프라자 3층,185110.894254328,445597.867304429,126.8294914604945,37.512483962705275
293,의원,영업/정상,"서울특별시 송파구 잠실동 19번지 9호 파인애플상가  3A16,호",207373.50021477,445545.656024061,127.08129781896768,37.51210569660913
294,의원,영업/정상,서울특별시 영등포구 당산동5가 11번지 47호,191474.827235984,447592.026937653,126.90144888001457,37.53053235572207
295,의원,영업/정상,서울특별시 영등포구 양평동2가 6번지 1호 우남푸르미아오피스텔 103호,189749.797733542,446736.431998505,126.88194484004187,37.522805837130065
296,의원,영업/정상,서울특별시 영등포구 여의도동 46번지 1호,193707.703181901,446349.960394983,126.92672118930497,37.5193594918555
297,의원,영업/정상,서울특별시 영등포구 도림동 150번지 10호 엠&디클리닉 4층,191255.740251902,444998.53166729,126.89900131733653,37.507163041302086
298,의원,영업/정상,서울특별시 영등포구 신길동 4656번지 우성3차아파트 상가동 2층,191876.456490876,443886.527837144,126.90603395013014,37.497149629461234
299,의원,영업/정상,서울특별시 영등포구 신길동 355-273,191311.372471427,444820.54654975,126.89963263147062,37.505559930730946
300,의원,영업/정상,서울특별시 영등포구 대림동 710번지 10호 3층,191039.739317388,443638.704942648,126.89657503633447,37.49490895589937
301,의원,영업/정상,서울특별시 은평구 진관동 74번지,192831.901570697,459170.418887077,126.91668784292635,37.634863576538685
302,의원,영업/정상,서울특별시 은평구 증산동 223번지 25호,191287.170393418,452799.599269845,126.8992635600674,37.577450247647434
303,의원,영업/정상,서울특별시 영등포구 대림동 710번지 12호 대림빌딩,190998.394353858,443603.26278376,126.89610794046902,37.4945892179582
304,의원,영업/정상,서울특별시 송파구 가락동 95-1 가락금호아파트,210220.248083252,443801.403399783,127.11347239297454,37.49636312209328
305,의원,영업/정상,서울특별시 송파구 가락동 72번지 승원빌딩,210588.088052782,443964.222163686,127.11763436493648,37.49782599799221
306,의원,영업/정상,서울특별시 서초구 방배동 750-12 학림빌딩,198727.495028369,443997.623474367,126.9835082917751,37.49818591623391
307,의원,영업/정상,서울특별시 서초구 서초동 1536번지 14호 서울빌딩 1층,200813.416584578,442677.106514911,127.0070957941227,37.486288722699285
308,의원,영업/정상,서울특별시 서초구 서초동 1342번지 15호,202336.840042177,442859.79398989,127.02432140640187,37.487932247695646
309,의원,영업/정상,서울특별시 송파구 가락동 167번지 3층 304호,211878.793979653,443937.413148924,127.1322299009745,37.49756884514266
310,의원,영업/정상,서울특별시 송파구 잠실동 184번지 서경빌딩,207285.647226547,445469.00224568,127.08030338892874,37.511415740333824
311,의원,영업/정상,서울특별시 송파구 신천동 20-6 파크리오,209933.823276344,446455.526715924,127.11026902153725,37.52027976572573
312,의원,영업/정상,서울특별시 양천구 목동 404번지 84호 대성빌딩 2층,188961.777665764,446721.956484245,126.87303075099135,37.522666271253534
313,의원,영업/정상,서울특별시 양천구 신월2동 446번지 2호 청솔아파트 상가 120호,185982.904177801,446903.316659652,126.83932950993331,37.5242596724758
314,의원,영업/정상,서울특별시 양천구 목동 617번지 5호,188058.3048129,449560.639015671,126.86276404259418,37.54823122817873
315,의원,영업/정상,서울특별시 송파구 송파동 84번지 7호 영빌딩,209484.320725356,444751.41436612,127.10516246413717,37.504930490261394
316,의원,영업/정상,서울특별시 송파구 문정동 116번지 4호,211591.053808857,442873.351740073,127.12895933949949,37.487985312660186
317,의원,영업/정상,서울특별시 송파구 잠실동 35번지 2호 트리지움상가 2층,207553.918225133,445383.338011122,127.08333681744926,37.510641771957324
318,의원,영업/정상,서울특별시 양천구 신정동 888번지 47호 담우빌딩 6층,187852.723365018,447149.18316504,126.86047774425364,37.526501544095
319,의원,영업/정상,"서울특별시 양천구 목1동 917번지 9호 현대41타워 19호, 21호",188953.066831076,447333.569187997,126.8729229664223,37.52817675191504
320,의원,영업/정상,서울특별시 영등포구 여의도동 15번지 12호 성우빌딩,192808.983832728,447368.078113569,126.91654502484863,37.52852604662697
321,의원,영업/정상,서울특별시 영등포구 양평동5가 74번지 1호,190575.40719987,448477.213372581,126.89126189592783,37.53849900253477
322,의원,영업/정상,서울특별시 영등포구 양평동4가 72번지 3층,190698.674854517,448292.388150373,126.8926589841369,37.536835002922174
323,의원,영업/정상,서울특별시 송파구 신천동 17번지 4호 파크리오상가A동 5층17호,209151.713940169,446519.612162961,127.10142266220869,37.52086520261506
324,의원,영업/정상,서울특별시 송파구 신천동 7번지 2동 323호,208707.089897534,446299.352775446,127.0963904851533,37.51888494791349
325,의원,영업/정상,서울특별시 송파구 장지동 894 위례아이파크,212494.327675839,441590.062253247,127.13915102692584,37.47641118196037
326,의원,영업/정상,서울특별시 송파구 방이동 149번지,209971.395559643,445531.059937332,127.11068158163941,37.51194996764418
327,의원,영업/정상,서울특별시 종로구 창신동 327번지 2호 금호팔레스 4층,201282.378349367,452249.643664396,127.01241411702598,37.57253622962248
328,의원,영업/정상,서울특별시 종로구 종로5가 37번지 2층,200289.509574092,452120.645782129,127.00117497296387,37.571374751951254
329,의원,영업/정상,서울특별시 서초구 방배1동 902번지 1호 5층,199519.489703464,442590.573810453,126.99246568127236,37.48550920525379
330,의원,영업/정상,서울특별시 송파구 문정동 9번지 8호,211249.190302708,443098.142260961,127.12509729246608,37.49001487209772
331,의원,영업/정상,"서울특별시 서초구 반포동 32번지 2호 301호, 302호",200990.250327999,444448.965951032,127.00909744702511,37.5022530093889
332,의원,영업/정상,서울특별시 서초구 서초동 1690번지 2호 영문빌딩,201436.64625883,443641.297497268,127.01414432640452,37.494975369815364
333,의원,영업/정상,서울특별시 서초구 서초동 1490번지 31호 영일빌딩 301호,200273.3895,442299.1765,127.00098970675893,37.48288384894091
334,의원,영업/정상,서울특별시 서초구 방배동 796번지 28호,199100.858117466,443429.869828771,126.98773124738517,37.493070924054656
335,의원,영업/정상,서울특별시 서초구 서초동 1307번지 7호 센터프라자 2층,202183.509841993,444119.505393165,127.02259132024575,37.499282607604144
336,의원,영업/정상,서울특별시 서초구 서초동 1685번지 8호 G-five CENTRAL PLAZA 2층 1호,201386.338220173,443689.075119969,127.01357552324967,37.49540591929722
337,의원,영업/정상,서울특별시 양천구 신정동 899번지 7호 이증빌딩 3층,187889.318611598,447351.606624409,126.86088838712185,37.528325846573026
338,의원,영업/정상,서울특별시 종로구 인사동 194번지 홍익빌딩 4층,198573.808102344,452241.522842737,126.98175358233287,37.57246266086584
339,의원,영업/정상,서울특별시 종로구 적선동 100번지 1호 경복빌딩 2층,197538.542807564,452679.892786314,126.97003305907262,37.576410061265165
340,의원,영업/정상,서울특별시 종로구 내자동 26번지 한빛빌딩 3층,197348.44253811,452671.549044338,126.96788107633294,37.576334344375574
341,의원,영업/정상,서울특별시 서초구 서초동 1361번지 5호 2층,202792.607431076,442746.377727357,127.02947437074222,37.486909133398456
342,의원,영업/정상,서울특별시 서초구 서초동 1602번지 1호 4층,201236.091736571,442527.409858756,127.01187466070759,37.484939515156924
343,의원,영업/정상,서울특별시 서초구 양재동 377번지 3호 3층,203981.093872445,441070.67123356,127.0429035523657,37.471806717144254
344,의원,영업/정상,서울특별시 서초구 서초동 1690번지 1호 삼풍프라자 201호,201415.869526967,443633.277166992,127.01390936606035,37.494903137305116
345,의원,영업/정상,서울특별시 서초구 서초동 1598번지 1호 큐브플러스 303호,201181.277534585,442874.506031276,127.01125542489433,37.48806692237294
346,의원,영업/정상,서울특별시 서초구 방배동 782번지 1호 1층,198437.442760536,443516.483654039,126.98022927112514,37.49385038445935
347,의원,영업/정상,서울특별시 송파구 오금동 1번지 홍일빌딩 6층,211282.308702926,445435.901904076,127.12550740700563,37.511077603083045
348,의원,영업/정상,서울특별시 송파구 잠실동 181번지 동신빌딩,207102.395,445477.545,127.07823078141685,37.511494125148374
349,의원,영업/정상,서울특별시 양천구 목동 762번지 6호 하이파킹빌딩 2층,188454.414943734,448208.039742948,126.86726785463179,37.53604951780585
350,의원,영업/정상,서울특별시 양천구 목동 602번지 1호 3층,188253.377395195,449654.079008626,126.8649700043723,37.549075631159
351,의원,영업/정상,서울특별시 중구 신당동 295-27 신흥빌딩,201114.378396275,450876.543087634,127.0105104212394,37.560164957494614
352,의원,영업/정상,서울특별시 성동구 용답동 1번지 2호 (4층),204750.372773832,451412.450938987,127.05166586225522,37.56498211455986
353,의원,영업/정상,서울특별시 송파구 장지동 841번지 6호 북일프라자 301호,211207.386328242,441633.255096118,127.12460243986337,37.476816756117294
354,의원,영업/정상,서울특별시 영등포구 당산동5가 11번지 34호 삼성타운  405호,191186.037189337,447739.896956998,126.89817987856767,37.531861920137516
355,의원,영업/정상,서울특별시 영등포구 영등포동6가 74번지 2호 2층,191348.000234809,446504.542511731,126.90002692332281,37.52073300289458
356,의원,영업/정상,서울특별시 영등포구 영등포동8가 72번지 302호~304호,191463.486635133,447373.174522815,126.90132313988607,37.528560405388404
357,의원,영업/정상,서울특별시 영등포구 영등포동6가 3번지 1호,191497.782018645,446527.65865588,126.9017209828055,37.520942680223925
358,의원,영업/정상,서울특별시 종로구 종로4가 141번지 1호,199824.438542568,452032.702161687,126.99591055906383,37.57058238679596
359,의원,영업/정상,서울특별시 종로구 적선동 100번지 1호 경복빌딩 3층,197538.542807564,452679.892786314,126.97003305907262,37.576410061265165
360,의원,영업/정상,"서울특별시 종로구 평창동 182번지 11호 나라빌딩 3층(301,302호)",197025.84989175,455981.012780814,126.96421547198617,37.6061510939944
361,의원,영업/정상,서울특별시 종로구 효제동 221번지 1층 101호,200257.061566929,452233.907627057,127.00080770251576,37.57239523460173
362,의원,영업/정상,서울특별시 종로구 경운동 89번지 4호 운현궁 에스케이 허브,198658.943470079,452604.254902527,126.98271660382527,37.57573096457345
363,의원,영업/정상,서울특별시 종로구 창신동 303 명제빌딩,201223.533789596,452304.752922139,127.01174809379754,37.57303283307242
364,의원,영업/정상,서울특별시 서초구 잠원동 75번지 19호 반포쇼핑타운 3동 3층,200257.080193185,444878.428106997,127.00080598438296,37.506122899279525
365,의원,영업/정상,서울특별시 종로구 도렴동 65번지 센터포인트 B 103호,197660.370711237,452306.635808312,126.97141342514867,37.57304738981276
366,의원,영업/정상,서울특별시 서초구 방배동 983번지 1호 거양빌딩,199782.69999376,442080.188000352,126.99544191245046,37.48091073994532
367,의원,영업/정상,서울특별시 서초구 방배동 3001번지 1호 301호,198394.433265008,442651.55894894,126.97974488367434,37.48605733396922
368,의원,영업/정상,서울특별시 서초구 잠원동 18-18 1층,201453.155875725,445881.581774331,127.01433524754377,37.51516026058794
369,의원,영업/정상,서울특별시 서초구 반포동 52번지 8호,200933.463655115,444432.907922616,127.0084552156492,37.502108381984755
370,의원,영업/정상,서울특별시 서초구 서초동 1538번지 10호 IWHA(이화빌딩),200728.01799306,442900.274138108,127.0061304101779,37.48829952983669
371,의원,영업/정상,서울특별시 양천구 목동 609번지 1호 남강빌딩 2층,188203.564289506,449624.068138672,126.86440679170092,37.54880459723437
372,의원,영업/정상,서울특별시 성동구 행당동 287번지 15호 왕십리역이스타빌 407호,202988.299644972,450991.695797571,127.0317198380725,37.56119843195402
373,의원,영업/정상,서울특별시 성동구 하왕십리동 700번지,202372.912023599,451536.680876573,127.02475652676303,37.5661104335459
374,의원,영업/정상,서울특별시 성동구 성수동2가 281번지 거화빌딩 3층,205530.086593394,449516.704776817,127.06047707569066,37.54789734511247
375,의원,영업/정상,서울특별시 성동구 용답동 56번지 6호,204535.607584886,451356.670223944,127.0492346635732,37.56448060367807
376,의원,영업/정상,"서울특별시 성동구 도선동 22번지 1호 다남매빌딩 4층 402, 403호",203077.751686799,451121.27351231,127.03273279838938,37.56236562496732
377,의원,영업/정상,서울특별시 성동구 행당동 287번지 15호 왕십리역이스타빌 405호,202988.299644972,450991.695797571,127.0317198380725,37.56119843195402
378,의원,영업/정상,서울특별시 성동구 왕십리2동 959번지 13호 (2층),202698.421451204,451221.788268492,127.02843979026204,37.56327241390415
379,의원,영업/정상,서울특별시 송파구 방이동 149번지 세나빌딩 2층,209971.395559643,445531.059937332,127.11068158163941,37.51194996764418
380,의원,영업/정상,서울특별시 송파구 풍납동 403번지 2호 도원빌딩 2층,210185.598338404,447414.523518115,127.11313028209476,37.5289175355067
381,의원,영업/정상,서울특별시 송파구 삼전동 131번지 함프톤빌딩,208487.21961392,444834.450051737,127.09388660246718,37.505688270445965
382,의원,영업/정상,서울특별시 영등포구 당산동5가 11번지 33호 디오빌 2층,191292.095160096,447892.078672003,126.89937796574782,37.5332340801925
383,의원,영업/정상,"서울특별시 서초구 양재동 291번지 20호 1층, 2층",203971.088570481,441106.597104933,127.04279063668733,37.472130452581624
384,의원,영업/정상,서울특별시 서초구 방배동 937번지 22호,199300.09457237,442778.033942044,126.98998485494556,37.4871980672594
385,의원,영업/정상,서울특별시 서초구 잠원동 56번지 3호,200883.46902532,445971.21278915,127.00789152980514,37.51596851393217
386,의원,영업/정상,서울특별시 서초구 잠원동 56번지 3호,200883.46902532,445971.21278915,127.00789152980514,37.51596851393217
387,의원,영업/정상,서울특별시 서초구 서초동 1445번지 13호 쌍용플래티넘 203호,201463.690299789,442429.147525901,127.01444783986693,37.48405385386832
388,의원,영업/정상,서울특별시 서초구 반포동 56번지 1호 강남빌딩 6층,200884.624630186,444571.106094448,127.00790303997313,37.50335358986878
389,의원,영업/정상,서울특별시 종로구 종로3가 10번지 3층,199088.104870893,452035.630756211,126.9875756019194,37.57060828698884
390,의원,영업/정상,서울특별시 서초구 서초동 1344번지 12호 2층,202446.579651069,442799.347859186,127.02556204210309,37.487387351349966
391,의원,영업/정상,서울특별시 서초구 서초동 1303-37 서초더블유타워,202117.592232177,444488.18998182,127.02184690234549,37.502604599254525
392,의원,영업/정상,서울특별시 서초구 반포동 455번지 4호 동화프라자빌딩 202호,200990.250327999,444448.965951032,127.00909744702511,37.5022530093889
393,의원,영업/정상,서울특별시 서초구 반포동 52번지 8호,200933.463655115,444432.907922616,127.0084552156492,37.502108381984755
394,의원,영업/정상,서울특별시 서초구 서초동 1687번지 2호 서초프라자 201호,201643.318591414,443772.466475611,127.01648168170647,37.49615687143954
395,의원,영업/정상,서울특별시 양천구 목동 907번지 4호 우성에펠타운 3층,189197.506088261,448244.523188923,126.87567485920106,37.53638728252555
396,의원,영업/정상,서울특별시 양천구 신정동 1018번지 1호 3층,187546.051563766,446614.863102314,126.85701751588628,37.52168325282682
397,의원,영업/정상,서울특별시 양천구 신정동 1284번지 2호 신정프라자 3층,185614.002019468,445613.501447784,126.83518165730808,37.51263283591798
398,의원,영업/정상,서울특별시 양천구 신정동 902번지 11호,187825.424052159,447104.600254739,126.86016965395879,37.52609949399028
399,의원,영업/정상,"서울특별시 송파구 장지동 841번지 6호(5층 501,502호)",211207.386328242,441633.255096118,127.12460243986337,37.476816756117294
400,의원,영업/정상,서울특별시 송파구 문정동 4-4 삼원빌딩,211108.28082746,443222.447366901,127.1235058457981,37.49113655350096
401,의원,영업/정상,서울특별시 송파구 장지동 841번지 2호(3층 302호),211186.443985092,441726.692570639,127.12436708980242,37.47765888004467
402,의원,영업/정상,서울특별시 송파구 방이동 89번지 11호 올림픽프라자,211619.368009793,445963.384875409,127.12932800768446,37.515826038692644
403,의원,영업/정상,서울특별시 송파구 장지동 841번지 2호(3층 301호),211186.443985092,441726.692570639,127.12436708980242,37.47765888004467
404,의원,영업/정상,"서울특별시 송파구 잠실동 40번지 갤러리아팰리스 207호,호",208233.926974585,445435.257647797,127.09102860715147,37.5111038000225
405,의원,영업/정상,서울특별시 송파구 잠실동 35-2 트리지움상가 402호,207553.918225133,445383.338011122,127.08333681744926,37.510641771957324
406,의원,영업/정상,서울특별시 송파구 가락동 164번지 19호(2층),211520.090478574,443786.527564468,127.12817116330352,37.49621388819914
407,의원,영업/정상,서울특별시 송파구 석촌동 295번지 5호(2층),209607.767430913,444433.731153949,127.10655447621019,37.50206690786657
408,의원,영업/정상,서울특별시 송파구 잠실동 183번지 정호빌딩,207277.677707777,445430.373420134,127.08021287022972,37.51106775839843
409,의원,영업/정상,서울특별시 송파구 신천동 7-18 롯데캐슬골드,208836.192051204,445807.727388799,127.09784498609747,37.51445421068647
410,의원,영업/정상,서울특별시 송파구 삼전동 1-3 아카데미빌딩,207968.193015362,444982.601705591,127.08801815148595,37.50702769956608
411,의원,영업/정상,서울특별시 송파구 가락2동 125번지 2호 수동빌딩 2층,211151.35856112,443333.470679847,127.12399461938986,37.49213635538511
412,의원,영업/정상,서울특별시 양천구 신정동 1190번지 4호,186871.131492965,446517.085069491,126.84938450424382,37.520792880180444
413,의원,영업/정상,서울특별시 양천구 목동 731번지 12호,187885.518995273,448172.033976263,126.86083180382703,37.535717774594154
414,의원,영업/정상,서울특별시 양천구 신정동 1190번지 4호,186871.131492965,446517.085069491,126.84938450424382,37.520792880180444
415,의원,영업/정상,서울특별시 양천구 목동 917번지 9호 현대41타워 1층 106호,188953.066831076,447333.569187997,126.8729229664223,37.52817675191504
416,의원,영업/정상,서울특별시 양천구 신정동 117번지 35호,188828.544788973,446633.615480486,126.87152493587787,37.52186871269066
417,의원,영업/정상,서울특별시 양천구 신정동 971번지 20호,186852.153851552,446714.974104065,126.84916627347303,37.52257557373663
418,의원,영업/정상,서울특별시 양천구 신월동 492번지 16호,186302.868073988,446772.054242718,126.84295155492528,37.5230818351226
419,의원,영업/정상,서울특별시 양천구 신정동 1258번지,186889.526648358,445651.658984887,126.84960809465957,37.51299571387396
420,의원,영업/정상,서울특별시 양천구 목동 956번지 목동롯데캐슬위너(아)상가 205호,188198.09157556,449411.580893629,126.86434829542189,37.546890040359166
421,의원,영업/정상,서울특별시 양천구 신월동 428번지 2호 청송프라임,185927.367971683,446888.312178952,126.83870154591186,37.52412363440297
422,의원,영업/정상,서울특별시 종로구 관철동 32번지 7호 계원빌딩 401호,198653.41747785,451836.488124374,126.98265552520742,37.568813472592176
423,의원,영업/정상,서울특별시 종로구 수송동 58번지 두산위브파빌리온 205호,198324.653631679,452252.812389497,126.9789331725444,37.57256394146239
424,의원,영업/정상,서울특별시 서초구 서초동 1692번지 4호 장안빌딩 3층,201267.726324912,443579.007559631,127.01223405897058,37.4944143732117
425,의원,영업/정상,서울특별시 서초구 잠원동 65번지 32호 한신빌딩,200628.43767533,445580.594039349,127.00500649936689,37.51244924342233
426,의원,영업/정상,서울특별시 서초구 서초동 1657번지 4호 2층,201185.18405821,443373.466662334,127.01130035578068,37.492562554077296
427,의원,영업/정상,서울특별시 서초구 반포동 93-6,199798.00941306,444137.233602988,126.99561425673178,37.49944473087489
428,의원,영업/정상,서울특별시 서초구 양재동 276번지 6호 3층,203930.778343566,441611.769631309,127.04233759359073,37.47668223881454
429,의원,영업/정상,서울특별시 서초구 방배동 2525번지,198389.022273532,441358.650490197,126.97968664290744,37.47440819641196
430,의원,영업/정상,서울특별시 서초구 반포동 32번지 1호 반포메딕스 301호,200982.169900218,444468.719796887,127.00900608840804,37.502430999286105
431,의원,영업/정상,서울특별시 서초구 서초동 1316번지 28호 우송빌딩 7층,202168.523433745,443992.861821658,127.02242148047534,37.49814158469237
432,의원,영업/정상,서울특별시 서초구 방배동 874번지 14호 2층,199299.725721283,442899.726274723,126.98998055802625,37.48829451563996
433,의원,영업/정상,서울특별시 서초구 서초동 1533번지 한신리빙타워 206호,200811.671174369,442445.605649334,127.00707582419474,37.48420289895126
434,의원,영업/정상,서울특별시 서초구 양재동 154번지 2호 2반 2층,202535.840179252,441604.113261939,127.0265672977487,37.476618036183424
435,의원,영업/정상,서울특별시 송파구 송파동 97번지 2호 두성빌딩 3층,209716.962692116,444418.853986075,127.1077891879725,37.50193173041882
436,의원,영업/정상,서울특별시 양천구 목동 793번지 1호,187920.000309636,447790.00708684,126.8612282477217,37.53227620162298
437,의원,영업/정상,서울특별시 양천구 목동 793번지 1호,187920.000309636,447790.00708684,126.8612282477217,37.53227620162298
438,의원,영업/정상,서울특별시 양천구 목동 722번지 2호,187931.482019672,448543.852499983,126.8613456990618,37.53906842934552
439,의원,영업/정상,서울특별시 양천구 목동 723번지 11호,188077.561456513,448555.32693208,126.862998361973,37.53917372262442
440,의원,영업/정상,서울특별시 양천구 신정1동 1031번지 1호,186925.884838357,446522.764708979,126.8500037708886,37.5208448342558
441,의원,영업/정상,서울특별시 양천구 신정동 991번지 6호,187792.028038797,447057.170533183,126.85979264426531,37.52567171246544
442,의원,영업/정상,서울특별시 양천구 신정4동 900번지 14호,187903.955709963,447135.710268595,126.86105755028632,37.526380830855956
443,의원,영업/정상,서울특별시 양천구 신월동 931번지 7호,185178.000183429,446678.359798735,126.83022860238806,37.522220199566426
444,의원,영업/정상,서울특별시 양천구 신정7동 325번지 신시가지12단지(아)A상가 3층 301호,187412.030051052,445546.556343923,126.85551983098647,37.51205605305201
445,의원,영업/정상,서울특별시 송파구 가락동 36번지,211053.853517605,444134.571409402,127.12290402505556,37.49935541627874
446,의원,영업/정상,서울특별시 송파구 장지동 894번지 위례아이파크,212494.327675839,441590.062253247,127.13915102692584,37.47641118196037
447,의원,영업/정상,서울특별시 송파구 잠실동 181번지 9호 맥스타워 7층,207248.404515714,445470.750139552,127.07988216929392,37.51143177929264
448,의원,영업/정상,서울특별시 송파구 방이동 207번지 11호,211042.295147166,445201.044729283,127.12278922525239,37.508964435997804
449,의원,영업/정상,서울특별시 송파구 가락2동 167번지 3호 (3층),211907.685267696,443924.875483069,127.13255641560293,37.497455511262345
450,의원,영업/정상,서울특별시 송파구 잠실동 184번지 1호 메디시티빌딩 6층,207309.958050889,445467.870918803,127.08057834733492,37.51140535668165
451,의원,영업/정상,서울특별시 송파구 석촌동 158번지 2호 보정빌딩,208888.2046311,444985.075379112,127.09842343395059,37.507041655314595
452,의원,영업/정상,서울특별시 영등포구 영등포동6가 3번지 1호 베스트크리닉빌딩 2층,191497.782018645,446527.65865588,126.9017209828055,37.520942680223925
453,의원,영업/정상,서울특별시 영등포구 영등포동 620번지 311호,191512.384505727,445326.556989877,126.90190013368591,37.51012094894769
454,의원,영업/정상,서울특별시 영등포구 신길동 4902번지,192082.666939336,444962.818937611,126.90835419225682,37.5068487878732
455,의원,영업/정상,서울특별시 영등포구 대림동 783번지 1호 대림프라자 303호,190757.023090843,444484.398134559,126.8933673635368,37.50252582491949
456,의원,영업/정상,서울특별시 양천구 목동 610번지 14호,188144.220046577,449584.740750439,126.86373587843484,37.5484494966808
457,의원,영업/정상,서울특별시 양천구 목동 793번지 1호,187920.000309636,447790.00708684,126.8612282477217,37.53227620162298
458,의원,영업/정상,서울특별시 양천구 신정동 314번지,188231.065840178,446607.610784468,126.86476658913051,37.521626945937065
459,의원,영업/정상,서울특별시 양천구 신정동 118번지 20호,188860.887455631,446682.626199308,126.87189005382773,37.52231068902615
460,의원,영업/정상,서울특별시 양천구 신정동 1026번지 1호 3층,187415.922905255,446600.184140953,126.85554573918843,37.52154922249653
461,의원,영업/정상,서울특별시 양천구 신정동 773번지 5호,185572.760435391,445539.789716155,126.83471663719789,37.51196805192786
462,의원,영업/정상,서울특별시 양천구 신정동 1051번지 2호,187040.565203129,446283.731987701,126.85130526659648,37.5186927920655
463,의원,영업/정상,"서울특별시 송파구 가락동 479번지 헬리오시티상가 1A동 3041호일부,3042호",209412.197809542,443928.783342251,127.10433633410392,37.49751934168874
464,의원,영업/정상,서울특별시 송파구 잠실동 193번지 태원빌딩 4층,207041.476516961,445344.568936527,127.0775404959117,37.51029647811544
465,의원,영업/정상,서울특별시 송파구 잠실동 184번지 1호 메디시티 4층,207309.958050889,445467.870918803,127.08057834733492,37.51140535668165
466,의원,영업/정상,서울특별시 양천구 신월동 536-6,186052.170748482,446339.972046325,126.84012382405254,37.51918503720316
467,의원,영업/정상,서울특별시 양천구 목동 603번지 2호 목동대우마이빌,188169.180124964,449701.802558519,126.8640164339219,37.54950453265434
468,의원,영업/정상,서울특별시 종로구 종로5가 58번지 평창빌딩 2층,200182.499160172,452111.960195543,126.99996365081506,37.571296515788795
469,의원,영업/정상,서울특별시 종로구 적선동 100번지 1호 경복빌딩 5층,197538.542807564,452679.892786314,126.97003305907262,37.576410061265165
470,의원,영업/정상,서울특별시 서초구 잠원동 365번지 7호 반포쇼핑타운 1동 404호,200039.021341023,444810.196873629,126.99833978605771,37.505508157083185
471,의원,영업/정상,서울특별시 서초구 서초동 1457번지 2호,201209.438429864,442466.166192446,127.01157320721396,37.48438774245835
472,의원,영업/정상,"서울특별시 서초구 서초동 1598번지 3호 르네상스오피스텔 407호, 408호",201184.994931613,442857.184989612,127.01129743140729,37.48791085518529
473,의원,영업/정상,서울특별시 서초구 서초동 1583번지 10호 서초아트자이상가 213-1호,200953.239716326,442613.337649681,127.00867666979575,37.485714040740035
474,의원,영업/정상,"서울특별시 송파구 잠실동 22번지 6호 리센츠상가 4층 22,23호",207624.424720682,445533.439634339,127.08413582130426,37.51199360708194
475,의원,영업/정상,서울특별시 송파구 석촌동 210번지 공익빌딩 2층 201-1호,208529.294612776,444440.154041662,127.09435792270902,37.50213529085402
476,의원,영업/정상,서울특별시 서초구 양재동 23번지 양재역환승주차장 302호,202962.207813123,442366.929774694,127.0313905315039,37.48348978771007
477,의원,영업/정상,서울특별시 서초구 양재동 4번지 3호 4층,203697.922400689,442204.601325423,127.03970799884942,37.4820246070294
478,의원,영업/정상,"서울특별시 서초구 방배동 2525 , 201,202호",198389.022273532,441358.650490197,126.97968664290744,37.47440819641196
479,의원,영업/정상,서울특별시 서초구 방배동 925번지 4호,199484.678634659,442545.251530337,126.99207211912041,37.48510082987624
480,의원,영업/정상,서울특별시 서초구 양재동 23번지 환승주차장 2층,202962.207813123,442366.929774694,127.0313905315039,37.48348978771007
481,의원,영업/정상,서울특별시 서초구 서초동 1694번지 17호 경원빌딩 302호,201146.11709612,443615.16482653,127.01085895154564,37.4947403004209
482,의원,영업/정상,서울특별시 서초구 방배동 3001번지 1호 디오슈페리움2 403호,198394.433265008,442651.55894894,126.97974488367434,37.48605733396922
483,의원,영업/정상,서울특별시 서초구 서초동 1576-6 서교빌딩 4층,201163.956667396,443156.553951424,127.01105999781545,37.49060819598068
484,의원,영업/정상,서울특별시 서초구 반포1동 708번지 14호,201773.4489027,445245.204970928,127.01795665355591,37.50942598845668
485,의원,영업/정상,서울특별시 송파구 문정동 76-1 문정동 봉의빌딩,211160.897060247,442018.027417102,127.12408265764014,37.48028411358631
486,의원,영업/정상,서울특별시 송파구 가락동 77번지 7호 송파NSuite,210669.40746034,443691.603121899,127.11855003930452,37.49536877777344
487,의원,영업/정상,서울특별시 송파구 잠실동 242-9 잠실청호빌딩,207871.472705898,445031.713404435,127.08692477395824,37.5074710169947
488,의원,영업/정상,서울특별시 양천구 목동 406번지 28호 목동 슬로우스퀘어 4층,188951.756197598,446969.388649775,126.87291364511633,37.52489549689233
489,의원,영업/정상,서울특별시 양천구 목동 613번지 1호 리치스퀘어 3층,187927.103647605,449727.47955699,126.86127659639851,37.54973272492351
490,의원,영업/정상,"서울특별시 송파구 풍납동 391번지 7호 세제빌딩 4층,9층",210328.606548565,447123.483601342,127.11474409977617,37.526293707559034
491,의원,영업/정상,서울특별시 송파구 방이동 34-2 현대드림밸리,209542.709911306,445868.526191867,127.1058372160099,37.5149950221297
492,의원,영업/정상,서울특별시 송파구 잠실동 181-2 성진빌딩,207135.25,445476.02,127.07860237630581,37.511480133952226
493,의원,영업/정상,서울특별시 양천구 신정동 972번지 4호,186904.1507792,446604.608490055,126.84975645071513,37.521581930906486
494,의원,영업/정상,서울특별시 송파구 마천동 35-1 강동중앙의원,212877.140294641,444042.378453313,127.14352149724942,37.49850127193654
495,의원,영업/정상,서울특별시 종로구 종로5가 58번지 1층,200182.499160172,452111.960195543,126.99996365081506,37.571296515788795
496,의원,영업/정상,서울특별시 종로구 창신1동 327번지 2호 금호팰리스 501호,201282.378349367,452249.643664396,127.01241411702598,37.57253622962248
497,의원,영업/정상,서울특별시 종로구 청진동 119번지 1호,198286.311784052,452091.444332546,126.9784995405367,37.57110996198946
498,의원,영업/정상,"서울특별시 서초구 서초동 1364번지 7호 지하1층, 1층, 2층",202567.140028313,442520.557491848,127.02692426696045,37.48487512930676
499,의원,영업/정상,서울특별시 서초구 서초동 1329번지 9호 대일빌딩 3층,202523.427385959,443426.91462957,127.02643305283739,37.493041527701315
500,의원,영업/정상,서울특별시 서초구 방배4동 867번지 28호,198712.884758557,442656.279196719,126.983345532172,37.48610038394802
501,의원,영업/정상,서울특별시 서초구 서초동 1675번지 7호 디앤비빌딩,201455.093433773,443514.694357851,127.01435268995584,37.493834648463974
502,의원,영업/정상,서울특별시 서초구 방배동 867번지 35호 금성빌딩,198847.192402455,442674.825267108,126.9848640877822,37.486267670828106
503,의원,영업/정상,서울특별시 서초구 잠원동 20번지 5호,201631.754128865,445925.192925207,127.01635549337466,37.51555290954828
504,의원,영업/정상,서울특별시 서초구 서초동 1621번지 7호 지하~5층,201348.644322901,442697.421878205,127.01314754423396,37.486471175487864
505,의원,영업/정상,서울특별시 서초구 양재동 377번지 1호 화성빌딩,203950.417280847,441056.732472795,127.04255669170216,37.47168125794352
506,의원,영업/정상,서울특별시 서초구 잠원동 75번지 10호 일동빌딩 4층,200039.021341023,444810.196873629,126.99833978605771,37.505508157083185
507,의원,영업/정상,서울특별시 중구 서소문동 21-1 연호빌딩,197797.652080109,451308.84015603,126.97297052090565,37.56405771749644
508,의원,영업/정상,서울특별시 중구 신당동 47번지 6호,201548.650934621,450994.889949924,127.01542573836792,37.56123065325314
509,의원,영업/정상,서울특별시 중구 을지로1가 32번지,198118.88012816,451614.362900051,126.97660554467416,37.56681117678755
510,의원,영업/정상,서울특별시 중구 신당동 291-48 동산빌딩,201362.695573425,451177.222462071,127.01332139627993,37.562873730141675
511,의원,영업/정상,서울특별시 중구 필동1가 21번지 2호 외1필지 선일빌딩 9층,199219.595009634,450957.263884439,126.9890652514088,37.560892453981936
512,의원,영업/정상,서울특별시 양천구 신정동 325번지 신시가지11단지 A상가209호,187412.030051052,445546.556343923,126.85551983098647,37.51205605305201
513,의원,영업/정상,서울특별시 양천구 목동 905번지 22호,189042.496526196,447777.835760268,126.87392802987908,37.53218063041063
514,의원,영업/정상,서울특별시 영등포구 양평동3가 23번지 4호 월드프라자 2층,189862.670939789,447108.692357096,126.88321652795695,37.52616113185698
515,의원,영업/정상,서울특별시 영등포구 여의도동 44번지 11호 인영빌딩 302호,193808.969259588,446429.98392891,126.927866008312,37.52008119168406
516,의원,영업/정상,서울특별시 영등포구 대림동 890번지 1호 1층,191467.14694791,443713.845754602,126.90140732087055,37.495590049110774
517,의원,영업/정상,서울특별시 영등포구 영등포동5가 41번지 유니온빌딩,191556.437820673,446591.720509469,126.90238375671773,37.52152041630314
518,의원,영업/정상,서울특별시 송파구 잠실동 22번지 6호 4층 21호,207624.424720682,445533.439634339,127.08413582130426,37.51199360708194
519,의원,영업/정상,서울특별시 송파구 가락동 77번지 4호 송파KCC웰츠타워 2층 204호,210732.145627948,443731.087627262,127.11926006394336,37.49572380990707
520,의원,영업/정상,서울특별시 서초구 방배동 852번지 20호 3층,199245.439853629,443009.301109201,126.98936662014705,37.489281738906286
521,의원,영업/정상,서울특별시 서초구 잠원동 12번지 1호 신사쇼핑 2층,201531.571742672,446115.079072598,127.01522268758713,37.51726394116975
522,의원,영업/정상,서울특별시 서초구 잠원동 75번지 10호 반포쇼핑 1동 4층,200039.021341023,444810.196873629,126.99833978605771,37.505508157083185
523,의원,영업/정상,서울특별시 서초구 방배동 925번지 10호 방배메디칼 4층,199524.663124973,442467.198073938,126.99252426591556,37.48439759158728
524,의원,영업/정상,서울특별시 서초구 서초동 1332번지 3호 무지개종합상가 316호,202225.961330686,443324.848590806,127.02306906050559,37.49212265666117
525,의원,영업/정상,"서울특별시 서초구 서초동 1303번지 35호 강남태영데시앙루브 208,209호",202100.548018749,444515.155344243,127.02165421947852,37.502847594434954
526,의원,영업/정상,서울특별시 서초구 서초동 1302번지 4호 GDA주니어스쿨 3층,201862.357603246,444462.626124882,127.01896032446899,37.50237480142921
527,의원,영업/정상,서울특별시 종로구 동숭동 1번지 31호,200123.437670579,453357.294678965,126.99929519596061,37.58251682244855
528,의원,영업/정상,서울특별시 종로구 종로1가 24번지 르메이에르종로타운1,198150.300374121,452019.212642931,126.97696013266717,37.57045889074498
529,의원,영업/정상,서울특별시 종로구 창신동 525번지 3층,201047.506702961,452179.50932328,127.00975531624941,37.57190460838518
530,의원,영업/정상,서울특별시 종로구 종로2가 84번지 8호 2층,198599.354528711,451963.264066125,126.9820433191154,37.569955624301485
531,의원,영업/정상,서울특별시 서초구 양재동 2번지 37호 대명빌딩,203543.679906911,442552.601669092,127.03796575267178,37.48516068733576
532,의원,영업/정상,서울특별시 서초구 방배동 813번지 6호 3층,199078.143976803,443354.525206928,126.98747450076854,37.49239204515564
533,의원,영업/정상,서울특별시 서초구 방배동 438번지 14호 4층,198367.956597525,442294.805432186,126.97944633977357,37.482842932661036
534,의원,영업/정상,서울특별시 서초구 방배동 1669번지 성산빌딩,198409.59135773,442782.267523805,126.9799159790333,37.48723504648482
535,의원,영업/정상,서울특별시 서초구 잠원동 75번지 10호 반포쇼핑 1동 4층,200039.021341023,444810.196873629,126.99833978605771,37.505508157083185
536,의원,영업/정상,서울특별시 서초구 잠원동 69번지 22호 반포쇼핑타운,200623.25426297,445026.538461296,127.00494745014134,37.507457221182875
537,의원,영업/정상,서울특별시 송파구 거여동 293번지 1호,212631.968657493,443089.54324724,127.14073268091406,37.48991962406015
538,의원,영업/정상,서울특별시 서초구 반포동 32번지 1호 반포트라이엄프메딕스빌딩,200982.169900218,444468.719796887,127.00900608840804,37.502430999286105
539,의원,영업/정상,서울특별시 서초구 방배동 908번지 1호,199644.660936906,442342.54363532,126.9938810943931,37.4832745158187
540,의원,영업/정상,서울특별시 서초구 잠원동 72번지 2호,200246.255070605,445174.193878077,127.00068362760683,37.50878774401627
541,의원,영업/정상,서울특별시 서초구 방배동 796번지 28호,199100.858117466,443429.869828771,126.98773124738517,37.493070924054656
542,의원,영업/정상,서울특별시 서초구 잠원동 75번지 10호 반포쇼핑 1동,200039.021341023,444810.196873629,126.99833978605771,37.505508157083185
543,의원,영업/정상,서울특별시 은평구 불광동 357번지 14호 2층,193296.847623863,457624.618620068,126.92196964509017,37.62093979267868
544,의원,영업/정상,서울특별시 은평구 불광동 309번지,193119.718313116,457463.914506829,126.9199647998736,37.619490561304346
545,의원,영업/정상,"서울특별시 은평구 진관동 63 롯데몰 은평점, 4층",192694.92374224,459461.236119623,126.91513305312583,37.6374826845283
546,의원,영업/정상,서울특별시 은평구 응암동 590-6,192578.162771432,454189.705277869,126.91386411595761,37.58998628879607
547,의원,영업/정상,서울특별시 은평구 대조동 12번지 2호,193579.117145731,456415.777324717,126.92517766872604,37.610050405210195
548,의원,영업/정상,서울특별시 영등포구 대림동 681번지 메디칼빌딩,191029.590652458,444340.940285174,126.89645165471535,37.50123598025613
549,의원,영업/정상,서울특별시 영등포구 양평동1가 247 영등포 중흥 S-CLASS,189877.186450371,446802.004602857,126.8833849892267,37.523398056712246
550,의원,영업/정상,서울특별시 영등포구 신길동 414번지 62호,191479.031244062,443954.457975597,126.90153890443183,37.49775807079783
551,의원,영업/정상,서울특별시 영등포구 여의도동 37번지 아일렉스 305호,193209.283508484,446474.956573488,126.92108200966746,37.52048213427575
552,의원,영업/정상,서울특별시 영등포구 여의도동 17번지 20호 원정빌딩 201호,192636.733285481,447145.450291822,126.91459857620403,37.526518813988865
553,의원,영업/정상,서울특별시 영등포구 신길동 259번지 4호 3층,191936.254364904,444885.168731883,126.9066991401771,37.50614788519949
554,의원,영업/정상,"서울특별시 송파구 장지동 881번지 505,506,507호",212524.306739955,442109.564102077,127.13949873453768,37.48109148660835
555,의원,영업/정상,서울특별시 송파구 잠실동 35번지 2호,207553.918225133,445383.338011122,127.08333681744926,37.510641771957324
556,의원,영업/정상,서울특별시 송파구 잠실동 35번지 2호,207553.918225133,445383.338011122,127.08333681744926,37.510641771957324
557,의원,영업/정상,서울특별시 서초구 반포동 707번지 9호 장생시니어타운,201805.326291344,445264.136588804,127.01831724092078,37.50959650226574
558,의원,영업/정상,서울특별시 서초구 방배동 725번지 신삼호상가 205호,199022.868453712,443881.411090312,126.98684871508995,37.49713922390887
559,의원,영업/정상,서울특별시 서초구 방배동 813번지 6호,199078.143976803,443354.525206928,126.98747450076854,37.49239204515564
560,의원,영업/정상,서울특별시 서초구 서초동 1302번지 4호 3층,201862.357603246,444462.626124882,127.01896032446899,37.50237480142921
561,의원,영업/정상,서울특별시 서초구 방배동 443번지 5호 삼미빌딩,198349.158592224,441806.510983821,126.97923494101877,37.47844335679508
562,의원,영업/정상,서울특별시 송파구 삼전동 111번지 3호 301호,208312.220404996,444948.902590642,127.09190869459299,37.50672106335297
563,의원,영업/정상,서울특별시 송파구 방이동 66번지 2호 세기빌딩 705호,209496.859211168,445600.046915876,127.10531515031742,37.51257650657038
564,의원,영업/정상,"서울특별시 송파구 신천동 7번지 17호 한빛프라자,삼성웰리스아파트",208730.633457015,445905.025545443,127.09665215573816,37.515331859222975
565,의원,영업/정상,서울특별시 종로구 종로5가 267번지,200452.553783171,452048.601289635,127.0030205387138,37.570725585606205
566,의원,영업/정상,서울특별시 종로구 창신동 292번지 5층,201238.696068454,452317.86559669,127.01191975032872,37.57315095743347
567,의원,영업/정상,서울특별시 종로구 명륜2가 8번지 9호,199933.543569824,453600.903598962,126.99714529679443,37.58471169703305
568,의원,영업/정상,서울특별시 서초구 서초동 1573번지 10호 로이어즈타워 1001호,201123.234498578,443432.174000124,127.01059993016067,37.49309158017141
569,의원,영업/정상,서울특별시 서초구 서초동 1335,202245.377899369,442987.986999742,127.02328761905767,37.4890874876711
570,의원,영업/정상,서울특별시 서초구 서초동 1457번지 1호 2층,201188.401228786,442464.474326122,127.0113353471667,37.48437252454822
571,의원,영업/정상,서울특별시 서초구 양재동 275번지 6호 삼호물산 B동 302호,203847.029537103,441707.819305687,127.04139127688781,37.477547994789546
572,의원,영업/정상,서울특별시 송파구 삼전동 48번지 8호 백영빌딩 3층,207876.426191728,444598.313037563,127.08697619621003,37.503566051406914
573,의원,영업/정상,서울특별시 송파구 신천동 11번지 4호 월드마크푸르지오 212~2호,209087.122362019,446139.152554604,127.10068733357093,37.51743791643554
574,의원,영업/정상,"서울특별시 송파구 신천동 11번지 4호 잠실푸르지오월드마크 켄달스퀘어 210,211 210호",209087.122362019,446139.152554604,127.10068733357093,37.51743791643554
575,의원,영업/정상,서울특별시 서초구 반포동 30-25 삼호가든상가,200996.974700931,444526.688404154,127.00917359287409,37.502953280642274
576,의원,영업/정상,서울특별시 양천구 신정동 976번지 12호,187086.000566034,446599.337231584,126.85181364468977,37.521537012050764
577,의원,영업/정상,서울특별시 양천구 신정동 310번지,187158.975642094,446187.787046041,126.85264636831968,37.51782999782561
578,의원,영업/정상,서울특별시 양천구 신월동 116번지 36호,185599.058085887,447598.764336924,126.83497356957736,37.530519656118315
579,의원,영업/정상,서울특별시 양천구 목동 405번지 24호,188879.448572755,446808.521815814,126.87209810561599,37.523445224833175
580,의원,영업/정상,서울특별시 양천구 목동 907번지 4호,189197.506088261,448244.523188923,126.87567485920106,37.53638728252555
581,의원,영업/정상,서울특별시 양천구 목동 907번지 4호,189197.506088261,448244.523188923,126.87567485920106,37.53638728252555
582,의원,영업/정상,서울특별시 은평구 갈현동 456번지 28호 성보빌딩 3층,192799.615219713,457260.536260331,126.91634103337786,37.61765569223148
583,의원,영업/정상,"서울특별시 은평구 진관동 6번지 상림마을 702동 114호,113호일부",193546.051070086,460518.839422473,126.92476660592811,37.64701786750701
584,의원,영업/정상,서울특별시 은평구 구산동 17번지 33호,192229.081906953,456382.836357293,126.90988819825579,37.609743107207656
585,의원,영업/정상,서울특별시 은평구 응암동 749번지 13호,192821.072325108,453972.115951813,126.91661660032013,37.58802778644204
586,의원,영업/정상,"서울특별시 은평구 진관동 74 휴먼프라자 I   501,502호",192831.901570697,459170.418887077,126.91668784292635,37.634863576538685
587,의원,영업/정상,서울특별시 은평구 진관동 74번지,192831.901570697,459170.418887077,126.91668784292635,37.634863576538685
588,의원,영업/정상,서울특별시 은평구 응암동 110번지 12호 7층,192784.902290794,455255.74675348,126.91619432171169,37.59959280137912
589,의원,영업/정상,서울특별시 영등포구 대림동 1052번지 40호 위너빌,190725.315270263,443395.289736462,126.89302259073112,37.49271266473578
590,의원,영업/정상,서울특별시 영등포구 여의도동 44번지 21호 중앙빌딩,193678.695372375,446510.536954452,126.92639166466934,37.52080607831989
591,의원,영업/정상,서울특별시 영등포구 여의도동 12 C.C.M.M빌딩,193293.251953215,447448.342915454,126.9220228902006,37.52925290764505
592,의원,영업/정상,서울특별시 성동구 용답동 48번지 1호 (2층),204601.591861289,451258.307860225,127.04998090527116,37.56359404755882
593,의원,영업/정상,서울특별시 성동구 성수동1가 14번지 17호 삼성빌딩 202호(지상2층),204257.584861091,449412.544118545,127.04607672712754,37.546965530751216
594,의원,영업/정상,"서울특별시 성동구 옥수동 436번지 극동그린아파트상가동 201,206-1,207,208,209호",200813.000885632,448855.573036243,127.00709738296737,37.54195649518382
595,의원,영업/정상,서울특별시 성동구 금호동2가 455번지,201729.474463119,450201.958233372,127.01747052140674,37.55408611007001
596,의원,영업/정상,서울특별시 성동구 성수동1가 14번지 17호 203호,204257.584861091,449412.544118545,127.04607672712754,37.546965530751216
597,의원,영업/정상,"서울특별시 송파구 잠실동 218번지 6호 B1, 1층 일부",207298.562274102,445157.837161711,127.0804464055585,37.50861205328406
598,의원,영업/정상,서울특별시 양천구 신정동 1182번지 7호,186971.769170476,446249.655024105,126.85052767655131,37.518384787913774
599,의원,영업/정상,서울특별시 양천구 신정동 991번지 6호,187792.028038797,447057.170533183,126.85979264426531,37.52567171246544
600,의원,영업/정상,서울특별시 양천구 목동 739번지 1호,188117.351835882,448552.989897945,126.8634486182408,37.539153182369716
601,의원,영업/정상,서울특별시 양천구 신월동 931번지 1호,185195.750311335,446675.50089973,126.8304294527377,37.52219472723137
602,의원,영업/정상,서울특별시 송파구 장지동 881번지 아이온스퀘어,212524.306739955,442109.564102077,127.13949873453768,37.48109148660835
603,의원,영업/정상,서울특별시 송파구 잠실동 181번지 4호 서일빌딩 3층 302호,207167.21,445474.534999999,127.07896384846296,37.51146650887063
604,의원,영업/정상,서울특별시 송파구 삼전동 1번지 1호 신원빌딩 2층,208011.39567091,444998.464309311,127.0885069412669,37.50717025033266
605,의원,영업/정상,서울특별시 송파구 방이동 215번지 201호 코오롱아파트 A상가,210847.471017432,445137.878479864,127.1205848001027,37.508397606454174
606,의원,영업/정상,서울특별시 양천구 신정동 118번지 20호 목동제일병원가 7층,188860.887455631,446682.626199308,126.87189005382773,37.52231068902615
607,의원,영업/정상,서울특별시 양천구 목동 808번지 7호,187948.538264517,447308.27945586,126.86155905994198,37.52793625173203
608,의원,영업/정상,서울특별시 양천구 신정동 1029번지 9호 4층,187078.706604818,446545.155384127,126.85173209179406,37.521048735095256
609,의원,영업/정상,서울특별시 양천구 신월동 23번지 14호,185219.063117975,448660.569381106,126.8306530690255,37.54008037195153
610,의원,영업/정상,서울특별시 서초구 잠원동 75번지 10호 반포쇼핑상가 1동 3층,200039.021341023,444810.196873629,126.99833978605771,37.505508157083185
611,의원,영업/정상,서울특별시 송파구 잠실동 22번지 6호 리센츠상가 5층 B18호,207624.424720682,445533.439634339,127.08413582130426,37.51199360708194
612,의원,영업/정상,서울특별시 송파구 석촌동 174번지 2호 태문빌딩 7층 일부,209328.877055075,444801.540394882,127.10340509029913,37.505383696333766
613,의원,영업/정상,서울특별시 송파구 잠실동 184번지 21호 서경빌딩 5층,207285.007760799,445451.585148695,127.08029598522594,37.51125881796631
614,의원,영업/정상,서울특별시 송파구 풍납동 402번지 3호 J빌딩 2호,210387.956134978,447302.640257779,127.11541802705568,37.527907234060166
615,의원,영업/정상,서울특별시 서초구 우면동 66번지 2호 세신우면종합상가 4층,202175.011113176,440963.759050916,127.02248616641127,37.47084932148351
616,의원,영업/정상,서울특별시 서초구 서초동 1490번지 32호 2층,200252.21010492,442294.044670632,127.00075024505996,37.48283761563527
617,의원,영업/정상,서울특별시 서초구 반포동 106번지 1호 1층~6층,199682.230003257,444124.076704851,126.99430493892156,37.49932614673898
618,의원,영업/정상,서울특별시 서초구 서초동 1324번지 14호 4층,201993.714242549,443438.041140726,127.02044318094543,37.49314303547363
619,의원,영업/정상,서울특별시 송파구 문정동 150번지 26호 훼미리샤르망빌딩,210226.697751848,443267.228806217,127.11353795410238,37.49155014929301
620,의원,영업/정상,서울특별시 서초구 서초동,202188.819669176,444329.635047436,127.02265197438452,37.50117586076021
621,의원,영업/정상,"서울특별시 서초구 반포동 30번지 25호 삼호가든1,2차 상가 306호",200996.974700931,444526.688404154,127.00917359287409,37.502953280642274
622,의원,영업/정상,서울특별시 양천구 신정동 1031번지 1호,186925.884838357,446522.764708979,126.8500037708886,37.5208448342558
623,의원,영업/정상,서울특별시 양천구 목동 614번지 13호,187886.552139099,449603.052220201,126.86081976533364,37.54861111421201
624,의원,영업/정상,서울특별시 양천구 신정동 900번지 21호 2층,187890.858025161,447260.880710898,126.86090730541055,37.5275084338192
625,의원,영업/정상,서울특별시 양천구 신정동 1021번지 9호 현대프라자  502호,187587.063452976,446444.996171878,126.85748432955758,37.520153319361825
626,의원,영업/정상,서울특별시 송파구 문정동 1번지 문정래미안 아파트 상가 207호,211453.050926808,443165.755655708,127.1274034590251,37.49062157750121
627,의원,영업/정상,서울특별시 송파구 풍납동 402번지 3호,210387.956134978,447302.640257779,127.11541802705568,37.527907234060166
628,의원,영업/정상,서울특별시 송파구 거여동 27번지 4호 2층,212757.695,443412.795000001,127.14215988107995,37.49283039516925
629,의원,영업/정상,서울특별시 송파구 잠실2동 19번지 9호 잠실파인애플상가 5B29,207373.50021477,445545.656024061,127.08129781896768,37.51210569660913
630,의원,영업/정상,서울특별시 영등포구 당산동5가 11번지 34호 삼성타운 707호,191186.037189337,447739.896956998,126.89817987856767,37.531861920137516
631,의원,영업/정상,서울특별시 송파구 가락동 96번지 19호 송강빌딩 2층,210369.648130525,443593.30524839,127.11515894022892,37.49448650831479
632,의원,영업/정상,서울특별시 송파구 가락동 123번지 4호 (3층),210898.806666333,443665.880577398,127.12114374064367,37.49513435669391
633,의원,영업/정상,서울특별시 송파구 가락동 123번지 3호 1층,210914.474749676,443681.679631046,127.12132114993322,37.49527652189996
634,의원,영업/정상,"서울특별시 송파구 풍납동 391번지 7호 2,5,6층",210328.606548565,447123.483601342,127.11474409977617,37.526293707559034
635,의원,영업/정상,서울특별시 송파구 문정동 150번지 26호,210226.697751848,443267.228806217,127.11353795410238,37.49155014929301
636,의원,영업/정상,서울특별시 송파구 신천동 7번지 12호,209039.148023482,446007.966801057,127.10014307157184,37.516256407274994
637,의원,영업/정상,서울특별시 송파구 문정동 618번지,210868.397496689,442053.227933005,127.120776211014,37.48060473499756
638,의원,영업/정상,서울특별시 송파구 신천동 7번지 30호 타워730 2층,208688.155079917,445954.176613992,127.09617225207879,37.515775105685755
639,의원,영업/정상,서울특별시 송파구 문정동 85번지,211255.759612505,442338.115571068,127.12516002440758,37.48316696234296
640,의원,영업/정상,서울특별시 송파구 삼전동 28번지 11호 5층,207821.160113817,444618.000254524,127.08635137782667,37.50374389845264
641,의원,영업/정상,서울특별시 양천구 신월동 535번지 4호,186110.201186169,446397.806029971,126.84077915060385,37.519706995966544
642,의원,영업/정상,서울특별시 양천구 목동 907번지,189151.208015925,448200.067716589,126.87515168762695,37.535986196178
643,의원,영업/정상,서울특별시 양천구 신정동 907번지 17호,187557.851836023,447065.473444194,126.85714333561646,37.52574337737964
644,의원,영업/정상,서울특별시 양천구 신정동 1029번지 9호,187078.706604818,446545.155384127,126.85173209179406,37.521048735095256
645,의원,영업/정상,서울특별시 양천구 신월동 509번지 2호,186221.041152022,446702.573862405,126.84202721173232,37.522454598930075
646,의원,영업/정상,서울특별시 송파구 잠실동 183번지 7층,207277.677707777,445430.373420134,127.08021287022972,37.51106775839843
647,의원,영업/정상,서울특별시 종로구 평창동 331번지 2층,196965.164175084,455959.269196762,126.96352830325517,37.605954985762494
648,의원,영업/정상,서울특별시 종로구 창신동 651번지 4호 2층,200839.314319615,452369.462633178,127.00739883473226,37.57361626266882
649,의원,영업/정상,서울특별시 서초구 양재동 12번지 3호 대진빌딩 4층,203046.165527146,442456.82733291,127.03234015324404,37.48429949864914
650,의원,영업/정상,서울특별시 서초구 방배동 758번지 2호 삼호상가 214호,198845.657797775,443825.9650708,126.9848448310504,37.496639438947035
651,의원,영업/정상,서울특별시 서초구 방배동 1669번지 성산빌딩,198409.59135773,442782.267523805,126.9799159790333,37.48723504648482
652,의원,영업/정상,서울특별시 서초구 서초동 1676번지 1호 신승빌딩,201513.21956369,443609.105458048,127.01501016258028,37.49468520278776
653,의원,영업/정상,서울특별시 서초구 잠원동 69번지 22호 반포쇼핑 8동 302호,200623.25426297,445026.538461296,127.00494745014134,37.507457221182875
654,의원,영업/정상,서울특별시 송파구 신천동 7번지 장미아파트 에이상가,208707.089897534,446299.352775446,127.0963904851533,37.51888494791349
655,의원,영업/정상,서울특별시 송파구 가락동 80 송파성원쌍떼빌,210580.683290918,443657.71204579,127.1175462491218,37.495064434146755
656,의원,영업/정상,"서울특별시 양천구 목동 613번지 1호 리치스퀘어 202,203,302호",187927.103647605,449727.47955699,126.86127659639851,37.54973272492351
657,의원,영업/정상,서울특별시 중구 신당동 295번지 27호,201114.378396275,450876.543087634,127.0105104212394,37.560164957494614
658,의원,영업/정상,서울특별시 중구  1번지 2호 영창빌딩 601호,198617.56275615,450922.262559512,126.98225147926266,37.560576347297605
659,의원,영업/정상,서울특별시 중구 무교동 21번지 3호 정오빌딩 3층,198109.617344821,451640.773996802,126.97650062920053,37.56704911810168
660,의원,영업/정상,"서울특별시 중구 흥인동 13번지 1호 청계층두산위브더제니스상가 2층 245,246호",201442.039019479,451619.845549151,127.01422026558141,37.56686159922389
661,의원,영업/정상,서울특별시 중구 신당동 141번지 1호 3층,201687.107644786,451417.239528779,127.01699374176064,37.56503574321471
662,의원,영업/정상,서울특별시 중구 충무로3가 57번지 8호 한영빌딩3층,199189.786245108,451121.34232144,126.98872767821496,37.56237075528441
663,의원,영업/정상,서울특별시 중구 의주로1가 32번지 2호 바비엥-1빌딩 2층,197144.128731285,451340.354322577,126.96557346260157,37.56433981747273
664,의원,영업/정상,서울특별시 중구 신당동 295-27 신흥빌딩,201114.378396275,450876.543087634,127.0105104212394,37.560164957494614
665,의원,영업/정상,서울특별시 성동구 성수2가3동 315번지 70호,204780.982340553,449043.607254236,127.05199710074872,37.543638912951494
666,의원,영업/정상,서울특별시 성동구 행당동 346번지 행당한진타운 단지상가(구 행당동 328번지) 202호,202511.142930696,450401.303715561,127.02631735663064,37.555880450385224
667,의원,영업/정상,서울특별시 성동구 금호동3가 1331번지 두산아파트상가 503호,201383.023709556,449744.280482389,127.01354890324775,37.549963036494745
668,의원,영업/정상,서울특별시 성동구 성수1가2동 656번지 565호,203896.088891123,449349.271942673,127.04198572378911,37.54639702673174
669,의원,영업/정상,서울특별시 성동구 성수동2가 573번지 7호 2층,205017.047053155,448277.387756454,127.05466311364165,37.53673409792541
670,의원,영업/정상,"서울특별시 성동구 용답동 2번지 3호 1,2,3,4,5,6,7,8층",204811.005190157,451358.607132575,127.05235179286619,37.56449667782379
671,의원,영업/정상,서울특별시 성동구 도선동 48번지 2층,202950.728811623,451115.849929451,127.03129509556032,37.56231716559239
672,의원,영업/정상,서울특별시 송파구 잠실동 19번지 9호 잠실파인애플상가 3층 3B04호,207373.50021477,445545.656024061,127.08129781896768,37.51210569660913
673,의원,영업/정상,서울특별시 송파구 신천동 17 파크리오 311호,209314.259995755,446483.316079239,127.10326092657975,37.520536562525166
674,의원,영업/정상,서울특별시 송파구 장지동 841번지 2호 리더스플라자 401호,211186.443985092,441726.692570639,127.12436708980242,37.47765888004467
675,의원,영업/정상,서울특별시 송파구 신천동 17번지 4호 퍼크리오상가 A동 507호,209151.713940169,446519.612162961,127.10142266220869,37.52086520261506
676,의원,영업/정상,서울특별시 송파구 가락동 125번지 6호 3층,211101.394789055,443302.584615574,127.12342918313563,37.49185867074686
677,의원,영업/정상,서울특별시 성동구 행당동 133번지 6호,203208.995497233,450729.889204993,127.03421657640166,37.55883885591676
678,의원,영업/정상,서울특별시 영등포구 영등포동3가 10번지 8호 2층,191724.299338016,446073.213158342,126.90428850452099,37.516850225218995
679,의원,영업/정상,서울특별시 영등포구 당산동1가 308번지 2호,190781.676311178,446851.183585442,126.89361630154802,37.52385069605383
680,의원,영업/정상,서울특별시 영등포구 여의도동 13번지 25호,193026.875747265,447427.783375434,126.9190095000515,37.52906567451905
681,의원,영업/정상,서울특별시 양천구 신정동 282번지 10호,188596.339869239,446018.924908482,126.86890778824348,37.51632753497976
682,의원,영업/정상,서울특별시 양천구 목동 406번지 108호 2층,188613.829212455,447036.001411884,126.86908977525547,37.52549154223837
683,의원,영업/정상,서울특별시 양천구 신월동 513번지 1호,186086.509920658,446661.846343126,126.8405061398663,37.52208561981015
684,의원,영업/정상,서울특별시 양천구 신월동 550번지 5호,185983.856210213,446209.12310839,126.83935357472942,37.518005058778414
685,의원,영업/정상,서울특별시 양천구 신월동 550번지 5호,185983.856210213,446209.12310839,126.83935357472942,37.518005058778414
686,의원,영업/정상,서울특별시 양천구 신월동 575번지 24호,186082.53813079,446296.048725832,126.84046816663233,37.51878975189019
687,의원,영업/정상,서울특별시 송파구 거여동 35,213118.559768606,443434.859083162,127.14624084192445,37.49302416407174
688,의원,영업/정상,서울특별시 송파구 송파동 89번지 6호,209589.090547772,444589.730339624,127.10634527545895,37.50347264826039
689,의원,영업/정상,서울특별시 서초구 방배동 2267번지 대양빌딩,198429.068124585,443208.179122881,126.98013525597385,37.491072546259275
690,의원,영업/정상,서울특별시 중구 삼각동 115번지 경기빌딩 2층,198448.848428937,451658.304454683,126.98034034645109,37.567207722684074
691,의원,영업/정상,서울특별시 종로구 종로5가 11-1 순흥한의원,200426.102897113,452114.581580848,127.0027211589896,37.57132007076456
692,의원,영업/정상,서울특별시 종로구 낙원동 9번지,198863.14636817,452389.307405288,126.98502859650165,37.57379460399426
693,의원,영업/정상,서울특별시 서초구 반포동 2번지 8호 신반포상가 3층,199448.513021585,444800.550772527,126.99166132153982,37.505421040939574
694,의원,영업/정상,서울특별시 서초구 반포동 706번지 201호,201706.111065673,445359.548908557,127.01719529817356,37.51045634629172
695,의원,영업/정상,서울특별시 종로구 창신동 23-74,201276.672713985,452735.604634862,127.01235033352812,37.57691468352034
696,의원,영업/정상,서울특별시 종로구 청진동 184번지 1호 삼송빌딩 303호,198127.421580952,452175.453719092,126.97670074318023,37.57186655588216
697,의원,영업/정상,서울특별시 송파구 문정동 121번지 7호 기영빌딩 201,211602.10277502,442917.675166164,127.12908496493584,37.488384528085874
698,의원,영업/정상,서울특별시 송파구 오금동 42번지 12호,211235.349711339,445052.2126942,127.12497045019558,37.50762115116599
699,의원,영업/정상,서울특별시 송파구 방이동 180-6 로가디스빌딩,210171.65554262,445936.573366338,127.11295222517765,37.51560145250346
700,의원,영업/정상,서울특별시 서초구 방배동 445번지 5호 3층,198358.536839066,441651.560578965,126.97934132664126,37.47704726770636
701,의원,영업/정상,서울특별시 양천구 신정동 1320번지 5호 이펜하우스타워 3층,185143.375565775,445610.277402204,126.82985859523363,37.51259630225786
702,의원,영업/정상,서울특별시 중구 서소문동 97번지 2호,197799.199634708,451258.272946282,126.97298819310701,37.563602116380366
703,의원,영업/정상,서울특별시 중구 충무로1가 24번지 31호 2431빌딩 10층,198504.71050756,450963.951884949,126.98097412678845,37.56095177962671
704,의원,영업/정상,서울특별시 중구 중림동 128번지 21호,197192.687794504,450621.319528756,126.96612589674702,37.55786154413954
705,의원,영업/정상,서울특별시 은평구 신사동 21번지 1호,192300.908674547,455128.788804477,126.91071496578216,37.59844497752287
706,의원,영업/정상,서울특별시 중구  59번지 13호,199095.113474444,451098.796818087,126.98765617408922,37.56216752803007
707,의원,영업/정상,서울특별시 중구 을지로2가 195번지 3호 한양빌딩502호,198560.694554378,451400.785003747,126.98160686309807,37.56488769119666
708,의원,영업/정상,서울특별시 중구 신당동 213번지 3호 2층,201094.409142844,451855.569604419,127.01028578446814,37.568985899442396
709,의원,영업/정상,서울특별시 영등포구 당산동2가 4번지 3호,190661.911571136,446554.257497073,126.89226526655474,37.521174198363276
710,의원,영업/정상,서울특별시 영등포구 신길동 713번지,192978.771860106,444624.757732932,126.91849229684948,37.50381017630208
711,의원,영업/정상,서울특별시 영등포구 영등포동8가 59번지 1호 문성빌딩,191633.780565487,447343.704510686,126.90325004113708,37.52829645408612
712,의원,영업/정상,서울특별시 영등포구 대림동 978번지 17호,191714.247074703,443120.588317372,126.90420830435527,37.490247074194485
713,의원,영업/정상,서울특별시 영등포구 신길동 252번지 6호,191994.836106517,444756.087354597,126.90736310263279,37.5049853799147
714,의원,영업/정상,서울특별시 영등포구 당산동3가 386번지 1호 서림빌딩 407호,190783.606940757,447179.012459191,126.89363400256329,37.52680443173243
715,의원,영업/정상,서울특별시 영등포구 당산동6가 235번지 1호,191320.409022415,447990.787272801,126.89969713039068,37.534123705760344
716,의원,영업/정상,서울특별시 송파구 잠실동 40호 갤러리아팰리스 A동 206호,208233.926974585,445435.257647797,127.09102860715147,37.5111038000225
717,의원,영업/정상,서울특별시 송파구 잠실동 40호 갤러리아팰리스 201호,208233.926974585,445435.257647797,127.09102860715147,37.5111038000225
718,의원,영업/정상,서울특별시 영등포구 영등포동4가 146번지 1호,191378.329184458,446422.869146048,126.9003709687236,37.51999741643563
719,의원,영업/정상,서울특별시 은평구 불광동 311번지 3호,192958.23121253,457487.644551441,126.91813541595737,37.619703130656895
720,의원,영업/정상,서울특별시 송파구 마천동 32번지 2호(301호),212664.976994997,444154.365848021,127.14112414259334,37.49951319228248
721,의원,영업/정상,서울특별시 송파구 거여동 565번지,212708.019509914,443388.362997915,127.14159774325913,37.49261094461362
722,의원,영업/정상,서울특별시 송파구 신천동 7번지 17호,208730.633457015,445905.025545443,127.09665215573816,37.515331859222975
723,의원,영업/정상,서울특별시 송파구 잠실동 181번지 4호 5층,207167.21,445474.534999999,127.07896384846296,37.51146650887063
724,의원,영업/정상,"서울특별시 은평구 응암동 111-15 3층,5층",192644.619468849,455218.08657864,126.91460615263854,37.59925236965361
725,의원,영업/정상,서울특별시 은평구 구산동 200번지 2호,192164.787576508,456783.723389013,126.90915570913079,37.61335447135679
726,의원,영업/정상,서울특별시 영등포구 대림동 1036번지 3호,191112.011862888,443340.889968925,126.89739592179569,37.49222635111103
727,의원,영업/정상,서울특별시 송파구 오금동 17번지 8호(3층),211132.844469698,445154.005691793,127.12381264810931,37.50853953562055
728,의원,영업/정상,"서울특별시 송파구 잠실3동 40번지 1호 롯데호텔건물 지하1층,6층",208589.363343145,445455.90405262,127.09504902014581,37.51128661020394
729,의원,영업/정상,"서울특별시 송파구 잠실3동 35번지 2호 트리지움상가 4층 410호, 411호일부",207553.918225133,445383.338011122,127.08333681744926,37.510641771957324
730,의원,영업/정상,서울특별시 송파구 삼전동 5,207870.116087704,444850.883067286,127.08690751212008,37.50584175311463
731,의원,영업/정상,서울특별시 양천구 신월7동 928번지 1호 우성상가 2층,185221.95790954,446727.354964214,126.83072487064968,37.522662349681696
732,의원,영업/정상,"서울특별시 양천구 목동 792번지 4호 태영프라자 301호, 302호",187923.919592336,447850.891096367,126.86127158340425,37.532824812722296
733,의원,영업/정상,"서울특별시 송파구 잠실본동 209번지 2호 2층 제1호,2호",207591.935792101,445173.382920733,127.08376466530767,37.50874977524008
734,의원,영업/정상,서울특별시 양천구 신정동 128번지 113호,188793.497546726,446277.050684118,126.87113394245213,37.518655660209994
735,의원,영업/정상,서울특별시 양천구 목동 907번지 17호,189214.609593464,448157.690643506,126.87586965637315,37.53560513030677
736,의원,영업/정상,서울특별시 양천구 목동 613번지 5호,187916.262445693,449629.868996021,126.86115552870642,37.54885312218817
737,의원,영업/정상,서울특별시 영등포구 여의도동 50번지,194370.32715363,446497.523930335,126.93421550532688,37.52069335713258
738,의원,영업/정상,서울특별시 영등포구 당산동1가 127번지,190998.295811151,446617.309479313,126.89606968311944,37.52174565811298
739,의원,영업/정상,서울특별시 영등포구 당산동3가 5번지 1호 한성빌딩,190971.321697046,446854.649163817,126.89576161270557,37.52388380855286
740,의원,영업/정상,서울특별시 송파구 가락동 140번지 가락쌍용아파트,211259.909777857,443711.702922024,127.12522783123327,37.49554290972
741,의원,영업/정상,서울특별시 영등포구 대림동 688번지 2호 강림빌딩,190927.29229011,444157.765368221,126.8952970327547,37.499584573156575
742,의원,영업/정상,서울특별시 송파구 가락동,210481.077142289,443448.892122874,127.11641693789441,37.49318409963774
743,의원,영업/정상,서울특별시 송파구 방이동 208번지 5호(6층),210948.49213501,445251.52298422,127.12172904158273,37.509420353039275
744,의원,영업/정상,서울특별시 송파구 방이동 112호(201호),210031.905108466,445458.885088696,127.11136500601785,37.51129902448112
745,의원,영업/정상,서울특별시 송파구 잠실동 40호 갤러리아팰리스상가223호,208233.926974585,445435.257647797,127.09102860715147,37.5111038000225
746,의원,영업/정상,서울특별시 송파구 방이동 23번지 2호(9층),209502.636725561,445943.944356679,127.10538491157331,37.5156749464441
747,의원,영업/정상,서울특별시 영등포구 대림동 783번지 1호,190757.023090843,444484.398134559,126.8933673635368,37.50252582491949
748,의원,영업/정상,서울특별시 영등포구 영등포동6가 3번지 1호,191497.782018645,446527.65865588,126.9017209828055,37.520942680223925
749,의원,영업/정상,서울특별시 영등포구 신길동 4677번지,191859.757252434,443736.812787665,126.90584677673904,37.49580055156824
750,의원,영업/정상,서울특별시 영등포구 대림동 710번지 10호,191039.739317388,443638.704942648,126.89657503633447,37.49490895589937
751,의원,영업/정상,서울특별시 영등포구 양평동4가 153번지 30호,190821.191218719,448262.05854845,126.89404556622736,37.53656297142608
752,의원,영업/정상,서울특별시 성동구 행당1동 6번지 2호 3층,203543.956458882,450868.869071348,127.03800824115451,37.560089846329184
753,의원,영업/정상,서울특별시 성동구 성수동2가 314번지 6호 2층,204762.18272976,449148.896432559,127.05178504814616,37.544587655552284
754,의원,영업/정상,"서울특별시 성동구 성수동2가 344번지 5호 1, 3층",204570.726286922,448424.212495784,127.04961415794865,37.53805926612387
755,의원,영업/정상,서울특별시 성동구 금호동3가 303번지 2층,201966.933288081,449566.694861987,127.02015620544579,37.548361985966636
756,의원,영업/정상,"서울특별시 영등포구 신길동 508번지 시원빌딩 5,6,7층",192753.630818112,444219.184867426,126.91595010833983,37.50015422036587
757,의원,영업/정상,서울특별시 영등포구 문래동3가 82번지 29호 우리벤처타운2 206-1호,190217.705071932,446449.917568696,126.88724178047181,37.52022947037971
758,의원,영업/정상,서울특별시 영등포구 신길동 170번지 7호 우성상가 201호,192542.596305093,445785.06170688,126.91354753509408,37.5142610237452
759,의원,영업/정상,서울특별시 은평구 응암동 603번지 77호,192598.009582498,453870.140222215,126.91409208688036,37.58710721948052
760,의원,영업/정상,서울특별시 은평구 응암동 109번지 1호 2층,193030.130167261,455321.511069497,126.91897062964425,37.6001872331364
761,의원,영업/정상,"서울특별시 송파구 잠실동 22번지 6호 리센츠상가 제3층 3A26, 27-1호",207624.424720682,445533.439634339,127.08413582130426,37.51199360708194
762,의원,영업/정상,서울특별시 양천구 신정동 1190번지 3호 2층,186868.545723569,446530.744050987,126.84935500894893,37.52091590961118
763,의원,영업/정상,서울특별시 양천구 신정동 1191번지 7호,186802.250020562,446582.255698899,126.84860414362662,37.52137907551389
764,의원,영업/정상,서울특별시 중구 신당동 295번지 27호 신흥빌딩 4층 403호,201114.378396275,450876.543087634,127.0105104212394,37.560164957494614
765,의원,영업/정상,서울특별시 중구 남창동 9번지 15호 금오빌딩 5층,198065.845616529,450787.39677054,126.97600750184785,37.55936018955863
766,의원,영업/정상,서울특별시 중구 충무로1가 23-5,198583.645844751,451071.071908407,126.98186730669914,37.561917049743215
767,의원,영업/정상,서울특별시 중구 을지로4가 125번지 3층 301호,199867.937256754,451624.546965781,126.99640305359365,37.56690496699577
768,의원,영업/정상,서울특별시 중구 신당동 140-4,201691.903143786,451465.657346612,127.01704812794921,37.565471973819626
769,의원,영업/정상,서울특별시 중구 을지로4가 156번지 1호 동암빌딩 4층 401호,199951.086537603,451634.418806011,126.99734421683176,37.566993925125296
770,의원,영업/정상,서울특별시 중구 서소문동 55번지 1호 배재빌딩,197528.707279402,451216.355753578,126.96992677688758,37.56322374259902
771,의원,영업/정상,서울특별시 중구  313번지 2호,199491.409659823,451559.512857112,126.99214119736085,37.5663188598998
772,의원,영업/정상,서울특별시 영등포구 영등포동8가 76-1 영등포삼환아파트,191540.890469634,447472.600953239,126.90219766903047,37.529456948743864
773,의원,영업/정상,서울특별시 영등포구 영등포동 631번지 12호 반석빌딩 201호,191569.194879089,445706.526620493,126.90253829221524,37.5135449831567
774,의원,영업/정상,서울특별시 영등포구 당산동6가 216번지 8호 대정프라자 401호,191497.686124581,447849.294135628,126.90170449391833,37.53285052656592
775,의원,영업/정상,서울특별시 영등포구 신길동 196번지 3호,192290.13861244,445439.202411962,126.91069563964817,37.51114275508229
776,의원,영업/정상,서울특별시 영등포구 신길동 115번지 1호 미주메디컬 3층,192574.606470155,445510.425772004,126.91391239901304,37.51178682586924
777,의원,영업/정상,서울특별시 양천구 신정동 1182번지 2호 3층,186953.199757922,446282.381840537,126.85031704313033,37.51867939064201
778,의원,영업/정상,서울특별시 양천구 신월동 1002번지 2호,185569.399902308,446011.525304939,126.83466933026874,37.516218303120766
779,의원,영업/정상,서울특별시 양천구 신정동 118번지 20호,188860.887455631,446682.626199308,126.87189005382773,37.52231068902615
780,의원,영업/정상,서울특별시 양천구 신월동 428번지 2호,185927.367971683,446888.312178952,126.83870154591186,37.52412363440297
781,의원,영업/정상,서울특별시 양천구 목동 792-4 목동 태영프라자,187923.919592336,447850.891096367,126.86127158340425,37.532824812722296
782,의원,영업/정상,서울특별시 양천구 목동 405번지 25호 청학빌딩,188904.571764159,446861.525362878,126.8723815040613,37.523923087132005
783,의원,영업/정상,서울특별시 양천구 목동 405번지 25호 청학빌딩,188904.571764159,446861.525362878,126.8723815040613,37.523923087132005
784,의원,영업/정상,서울특별시 양천구 목동 739번지 1호,188117.351835882,448552.989897945,126.8634486182408,37.539153182369716
785,의원,영업/정상,서울특별시 영등포구 문래동3가 77번지 59호 중원빌딩 202호,190127.699768428,446134.558965388,126.8862279111362,37.51738714348494
786,의원,영업/정상,서울특별시 영등포구 영등포동 620번지 311호,191512.384505727,445326.556989877,126.90190013368591,37.51012094894769
787,의원,영업/정상,서울특별시 영등포구 도림동 138번지 43호 2층,191460.031238137,445105.89101817,126.90131057927402,37.508132270970755
788,의원,영업/정상,서울특별시 중구 태평로2가 360번지 1호 광학빌딩,197861.454595185,451379.089909811,126.97369246156877,37.564690814610024
789,의원,영업/정상,서울특별시 중구 신당동 368-2,200893.939428042,450192.730603877,127.0080147296807,37.55400410028862
790,의원,영업/정상,서울특별시 중구 신당동 170번지 30호,202054.715963905,451407.184134774,127.02115456022527,37.56494442472868
791,의원,영업/정상,"서울특별시 은평구 진관동 60번지 은평뉴타운솔하임 202,203-1 A동",192702.578806614,459703.972784634,126.91521733758289,37.63966974610128
792,의원,영업/정상,서울특별시 영등포구 영등포동4가 153번지 0호,191212.621317352,446435.446363002,126.89849635143399,37.52010916231259
793,의원,영업/정상,서울특별시 송파구 마천동 176번지 23호 2층,213370.322739915,443862.569612157,127.14909545309753,37.49687422958862
794,의원,영업/정상,서울특별시 송파구 거여동 27번지 1호 3층,212740.515,443413.645,127.14196562849527,37.49283828949269
795,의원,영업/정상,서울특별시 영등포구 신길동 233번지 10호,192046.479533346,444930.97164063,126.90794526377779,37.50656153135879
796,의원,영업/정상,서울특별시 영등포구 양평동2가 29-23 목동비즈타워,189785.752470051,446796.882113561,126.88235072516258,37.523350889723424
797,의원,영업/정상,서울특별시 영등포구 대림동 1027번지 25호,191161.842456096,443148.865925576,126.89796171196119,37.4904966984738
798,의원,영업/정상,서울특별시 송파구 문정동 150번지 2호 문정프라자,210343.699256005,443288.284974717,127.11486125119131,37.491738570839466
799,의원,영업/정상,서울특별시 송파구 문정동  1번지 래미안문정아파트상가 203호,211453.050926808,443165.755655708,127.1274034590251,37.49062157750121
800,의원,영업/정상,서울특별시 성동구 성수동1가 14번지 17호 삼성빌딩 4층,204257.584861091,449412.544118545,127.04607672712754,37.546965530751216
801,의원,영업/정상,서울특별시 중구 신당동 369-11 약수JK빌딩,200817.3218528,450240.079713616,127.00714769521578,37.554430776973994
802,의원,영업/정상,서울특별시 중구 신당동 369번지 11호 JK빌딩 3층,200817.3218528,450240.079713616,127.00714769521578,37.554430776973994
803,의원,영업/정상,서울특별시 중구 충무로3가 39번지 1호 미르내빌딩 501호,199303.523789232,451086.415293019,126.99001502900258,37.56205616746177
804,의원,영업/정상,서울특별시 중구 방산동 4번지 2호 BYC건물2층,200143.045588734,451894.158889651,126.99951702722966,37.56933415647611
805,의원,영업/정상,서울특별시 양천구 신정동 994번지 5호 2층,187917.430453569,447015.243697217,126.86121197838806,37.52529561395037
806,의원,영업/정상,서울특별시 양천구 목3동 611번지 4호 2층,188014.925269664,449599.975407779,126.86227250891521,37.54858507883479
807,의원,영업/정상,서울특별시 양천구 신정동 323번지 16호 대영프라자 5층 503호,187758.0753401,445907.064446739,126.859427797585,37.51530888608179
808,의원,영업/정상,서울특별시 양천구 신정2동 128번지 113호 현승빌딩 2층,188793.497546726,446277.050684118,126.87113394245213,37.518655660209994
809,의원,영업/정상,"서울특별시 양천구 신월동 160번지 10호 1층, 2층",184694.338669981,448015.717748069,126.82472937238046,37.53426173672075
810,의원,영업/정상,서울특별시 중구  188번지 3호,198113.370663648,451483.299976911,126.9765435318566,37.56563030326632
811,의원,영업/정상,서울특별시 중구 장교동 1번지 장교빌딩 7층 704호,198744.433228989,451677.065126229,126.98368604352257,37.56737722498538
812,의원,영업/정상,서울특별시 중구  273번지 2호,200099.931001133,451587.720094494,126.99902898358303,37.56657318141258
813,의원,영업/정상,서울특별시 중구 신당동 294번지 13호,201221.48794772,450873.344252428,127.01172267746713,37.560136008109
814,의원,영업/정상,서울특별시 중구 회현동1가 206번지 리더스뷰남산 지하층 116호,198219.475276246,450761.443791768,126.97774632214926,37.55912667622506
815,의원,영업/정상,서울특별시 양천구 목동 808번지 5호,187978.068877411,447379.54998456,126.8618919692961,37.52857878059022
816,의원,영업/정상,"서울특별시 양천구 신월5동 51번지 7호 1층, 2층",184748.532781957,448279.633016419,126.82533702221514,37.536640485839406
817,의원,영업/정상,서울특별시 양천구 신월동 961번지 5호 남영상가 2층,185239.757650968,446682.446868663,126.83092713118299,37.52225801766072
818,의원,영업/정상,서울특별시 성동구 금호동4가 559,201886.383803036,449529.945528725,127.019244602462,37.548031040330514
819,의원,영업/정상,서울특별시 성동구 금호4가동 624번지,201704.732921652,449424.276017831,127.01718878292827,37.54707930810817
820,의원,영업/정상,서울특별시 양천구 신월3동 147번지 3호 3층,184748.571712549,448142.580280567,126.82534031985507,37.53540565634864
821,의원,영업/정상,서울특별시 은평구 응암동 760번지 힐스테이트2차,193178.165720379,454282.485459616,126.92065675306806,37.590826906227015
822,의원,영업/정상,서울특별시 은평구 대조동 198번지 10호 아트캐슬4층,192879.28604388,457277.268887329,126.91724327286575,37.61780707559145
823,의원,영업/정상,서울특별시 성동구 용답동 14번지 20호 2층,204621.770692302,451280.813111834,127.05020943858435,37.563796717757704
824,의원,영업/정상,서울특별시 성동구 성수2가1동 565번지 7호,204800.926763138,448355.122746319,127.05221834123553,37.53743561939723
825,의원,영업/정상,서울특별시 성동구 금호1가동 125번지 1호,201725.507829035,450286.306169786,127.01742582173786,37.554846083985915
826,의원,영업/정상,서울특별시 성동구 금호동1가 1763번지 2층,202213.47429704,449840.861215377,127.02294690826777,37.5508316587212
827,의원,영업/정상,서울특별시 송파구 마천동 35번지 1호,212877.140294641,444042.378453313,127.14352149724942,37.49850127193654
828,의원,영업/정상,서울특별시 은평구 응암동 595번지 1호,192526.779016383,453878.304268116,126.91328552886485,37.587180195956016
829,의원,영업/정상,서울특별시 은평구 응암동 577번지 45호 (3층),192608.366886719,454252.81341775,126.91420545858469,37.5905551280405
830,의원,영업/정상,서울특별시 은평구 신사동 335번지 2호 2층,192307.618833586,454468.833692455,126.91079793848066,37.59249895075978
831,의원,영업/정상,"서울특별시 은평구 응암동 697번지 2호 2층, 지하1층",192719.338862732,453647.408368663,126.9154680121112,37.5851014156556
832,의원,영업/정상,서울특별시 은평구 역촌동 54번지 6호 2층,192011.104009245,455923.137327006,126.90742455747596,37.60559942407449
833,의원,영업/정상,"서울특별시 송파구 잠실동 35번지 2호 트리지움 306호,307호",207553.918225133,445383.338011122,127.08333681744926,37.510641771957324
834,의원,영업/정상,서울특별시 송파구 마천2동 129번지 2호 2층,213166.526601096,443910.297322281,127.14679170228321,37.49730716714397
835,의원,영업/정상,"서울특별시 송파구 잠실2동 22번지 6호 리센츠상가 3층 27-2,28호",207624.424720682,445533.439634339,127.08413582130426,37.51199360708194
836,의원,영업/정상,서울특별시 중구 을지로6가 18번지 95호 4층,200653.453828451,451718.128484063,127.0052943724196,37.56774795842162
837,의원,영업/정상,서울특별시 중구 태평로2가 340-6 대한일보빌딩,197836.402101893,451263.716163965,126.97340925179819,37.563651249855205
838,의원,영업/정상,서울특별시 영등포구 영등포동3가 9번지 2호 5층,191635.200808772,446197.262501671,126.9032792537602,37.51796709416195
839,의원,영업/정상,서울특별시 영등포구 대림동 775번지 6호 화성빌딩,190866.649417019,444141.052355187,126.89461144417055,37.49943338755103
840,의원,영업/정상,서울특별시 영등포구 대림동 775번지 6호 3층,190866.649417019,444141.052355187,126.89461144417055,37.49943338755103
841,의원,영업/정상,서울특별시 송파구 잠실동 181번지 4호 제이타워 3층,207167.21,445474.534999999,127.07896384846296,37.51146650887063
842,의원,영업/정상,서울특별시 송파구 가락동 160번지 8호 신광빌딩 3층,211219.323655893,444320.206316455,127.1247780985081,37.50102599715137
843,의원,영업/정상,서울특별시 영등포구 신길동 501번지 순흥빌딩,192853.871582086,444167.863370371,126.91708422209011,37.49969260266288
844,의원,영업/정상,서울특별시 영등포구 여의도동 43번지 1호,193759.905718841,446582.556853679,126.92730969857818,37.52145553209233
845,의원,영업/정상,서울특별시 영등포구 영등포동3가 8번지 남서울빌딩 202호,191616.285409253,446238.776340506,126.90306481403607,37.51834095873996
846,의원,영업/정상,서울특별시 중구 서소문동 120번지 14호 부림빌딩 402호,197604.36730827,451110.547640244,126.97078348351842,37.56227062819841
847,의원,영업/정상,서울특별시 중구 봉래동1가 4번지 2호,197635.37563369,450808.604291139,126.97113544382555,37.559550233223085
848,의원,영업/정상,서울특별시 영등포구 영등포동4가 65번지 1호 3층,191519.662651905,446342.22205565,126.90197065188704,37.51927210972186
849,의원,영업/정상,"서울특별시 영등포구 여의도동 43번지 미원빌딩 218,219,220,221호",193798.948251805,446579.652565611,126.92775137631644,37.52142963044592
850,의원,영업/정상,서울특별시 중구 순화동 1번지 104호,197183.509668928,451343.139031862,126.96601918821771,37.564365031335065
851,의원,영업/정상,서울특별시 중구 충무로4가 126-1 일흥빌딩302호,199532.084458879,451067.194729829,126.99260194813922,37.561883152628695
852,의원,영업/정상,서울특별시 중구 봉래동1가 93번지 1호 보원빌딩601호,197573.375636306,450765.917101568,126.97043388128651,37.559165460649865
853,의원,영업/정상,서울특별시 중구 신당동 150번지 1호 신아빌딩 4층,201833.693283735,451444.461211304,127.01865296528456,37.565280737761555
854,의원,영업/정상,서울특별시 양천구 목동 613번지 6호 2층,187896.039584928,449631.367669118,126.86092665766117,37.548866358427205
855,의원,영업/정상,서울특별시 양천구 신월동 550번지 3호,185962.809546697,446176.170952681,126.83911613643093,37.51770784108361
856,의원,영업/정상,서울특별시 중구 필동1가 51번지 11호 2층,199363.129622048,451008.456459696,126.99068973681857,37.56135381403024
857,의원,영업/정상,서울특별시 영등포구 여의도동 43번지 1호 유성빌딩 4층,193759.905718841,446582.556853679,126.92730969857818,37.52145553209233
858,의원,영업/정상,서울특별시 영등포구 문래동3가 77번지 9호  메가벤처타워 304호,190161.737344082,446125.33590618,126.88661305040529,37.5173044099779
859,의원,영업/정상,서울특별시 영등포구 영등포동4가 144번지 1호,191392.003423859,446428.729185708,126.90052558083052,37.52005034362948
860,의원,영업/정상,서울특별시 송파구 가락동 166번지,211849.008022916,443964.772720397,127.13189350530966,37.49781573441322
861,의원,영업/정상,서울특별시 송파구 송파동 97번지 8호 5층,209728.221094055,444387.931441228,127.10791610476413,37.50165300153961
862,의원,영업/정상,서울특별시 영등포구 여의도동 27번지 3호,193017.878453154,446707.530845847,126.91891461620058,37.52257617453135
863,의원,영업/정상,서울특별시 영등포구 대림동 990번지 104호,191417.446510403,442974.733364799,126.90085397927699,37.48893019294733
864,의원,영업/정상,서울특별시 영등포구 문래동6가 19번지,189959.044020878,446192.884313355,126.88431936503142,37.51791082077571
865,의원,영업/정상,서울특별시 영등포구 여의도동 26번지 5호,193301.90534733,446718.740953009,126.92212750092409,37.522679301606125
866,의원,영업/정상,서울특별시 영등포구 대림동 710번지 10호,191039.739317388,443638.704942648,126.89657503633447,37.49490895589937
867,의원,영업/정상,서울특별시 중구 충무로1가 21번지 1호 성루중앙우체국 1층,198346.53682062,451039.714960122,126.97918372769665,37.56163411557298
868,의원,영업/정상,서울특별시 중구 을지로1가 32번지 효덕빌딩 5층 502호,198118.88012816,451614.362900051,126.97660554467416,37.56681117678755
869,의원,영업/정상,서울특별시 중구 남산동3가 13-31 LK빌딩,198735.068338007,450940.759928037,126.98358137612897,37.56074318359524
870,의원,영업/정상,서울특별시 중구 삼각동 115번지 경기빌딩 302~4호,198448.848428937,451658.304454683,126.98034034645109,37.567207722684074
871,의원,영업/정상,서울특별시 송파구 가락동 2-9 김해빌딩 304호,211046.297863378,444565.558982422,127.12282501148474,37.50323868895184
872,의원,영업/정상,서울특별시 송파구 가락동 167-3,211907.685267696,443924.875483069,127.13255641560293,37.497455511262345
873,의원,영업/정상,서울특별시 송파구 잠실2동 22번지 6호 잠실리센츠상가 5B 17호,207624.424720682,445533.439634339,127.08413582130426,37.51199360708194
874,의원,영업/정상,서울특별시 영등포구 도림동 156번지 4호 새마을금고 2층,191061.939866964,445166.452307842,126.89680739321962,37.508674130902655
875,의원,영업/정상,서울특별시 영등포구 여의도동 54번지 2호,193915.13139016,446295.859134763,126.92906802453454,37.51887344719345
876,의원,영업/정상,서울특별시 영등포구 대림동 688번지 송림빌딩,190940.424414584,444219.564937344,126.89544477505984,37.50014151539538
877,의원,영업/정상,서울특별시 송파구 잠실동 35번지 2호 트리지움상가 4층 401호,207553.918225133,445383.338011122,127.08333681744926,37.510641771957324
878,의원,영업/정상,서울특별시 송파구 거여동 27번지 1호 일동빌딩 5층,212740.515,443413.645,127.14196562849527,37.49283828949269
879,의원,영업/정상,서울특별시 송파구 잠실동 40번지 1호 갤러리아팰리스 A동 214호,208589.363343145,445455.90405262,127.09504902014581,37.51128661020394
880,의원,영업/정상,서울특별시 송파구 방이1동 89번지 올림픽선수촌중심상가 3층 28호,211986.297245596,446156.529775445,127.13348155904437,37.51756159684101
881,의원,영업/정상,서울특별시 송파구 가락동 108번지 삼광빌딩 5층,210913.547528719,443172.347521107,127.12130315923156,37.49068746168552
882,의원,영업/정상,서울특별시 송파구 장지동 841번지 2호 리더스프라자 2층 201호,211186.443985092,441726.692570639,127.12436708980242,37.47765888004467
883,의원,영업/정상,서울특별시 송파구 가락동 167호(3층 303호),211878.793979653,443937.413148924,127.1322299009745,37.49756884514266
884,의원,영업/정상,서울특별시 송파구 방이1동 135번지 5호 (2층),210398.86282613,445326.30116641,127.11551363769487,37.51010041557944
