,개방서비스명,영업상태명,소재지전체주소,좌표정보(x),좌표정보(y),경도,위도
0,체력단련장업,영업/정상,서울특별시 광진구 구의동 203-7번지,208072.486459225,449077.581030635,127.08924231458403,37.54392230839757
1,체력단련장업,영업/정상,서울특별시 광진구 자양동 663-21번지,207368.624495222,447632.296040333,127.08126340211159,37.53090624772537
2,체력단련장업,영업/정상,서울특별시 광진구 중곡동 79-9번지 5층,207728.881211899,450600.779786883,127.08537015574086,37.55764909531739
3,체력단련장업,영업/정상,서울특별시 광진구 구의동 214-6 강변리치타워 지하1층,208232.225102078,448435.883265128,127.09104269921076,37.53813926657715
4,체력단련장업,영업/정상,서울특별시 광진구 중곡동 164-1번지 3층,207198.940018082,451163.701831876,127.07937798496086,37.56272521258729
5,체력단련장업,영업/정상,서울특별시 금천구 시흥동 903-12번지,191320.048882076,438776.690084288,126.89980248945896,37.45110482263948
6,체력단련장업,영업/정상,서울특별시 금천구 독산동 297-1,190600.511302284,441271.030355361,126.89163863094839,37.47357182322334
7,체력단련장업,영업/정상,서울특별시 금천구 독산동 1031-9번지 림스빌딩 지하동 101호,190913.510945549,440415.261802396,126.89518767489118,37.465864482759734
8,체력단련장업,영업/정상,서울특별시 금천구 가산동 543-1번지,189055.138252216,441958.334400683,126.87415813155899,37.47974732559293
9,체력단련장업,영업/정상,서울특별시 금천구 시흥동 904-7번지 서우빌딩,191350.26844017,438593.516237885,126.90014617888446,37.44945470210503
10,체력단련장업,영업/정상,서울특별시 금천구 가산동 140-36번지 B201호,190183.613319646,441777.324472507,126.88691886606061,37.478129175946556
11,체력단련장업,영업/정상,서울특별시 광진구 중곡동 639-2번지,206765.266909796,450685.805654444,127.07446516373273,37.55842267701967
12,체력단련장업,영업/정상,서울특별시 광진구 자양동 680-72번지,207498.69141425,447828.759892068,127.0827369048154,37.53267533437616
13,체력단련장업,영업/정상,서울특별시 광진구 군자동 349-1번지,206074.888192014,449910.15184716,127.06664532317372,37.551438875974114
14,체력단련장업,영업/정상,서울특별시 광진구 구의동 222-1번지,207860.05037164,448800.805416287,127.08683555878761,37.54143040463109
15,체력단련장업,영업/정상,서울특별시 광진구 중곡동 173-7번지,207096.99419824,451624.20026307,127.07822854246785,37.56687503142613
16,체력단련장업,영업/정상,서울특별시 금천구 가산동 371-17,189522.336721798,441654.010373182,126.87944453472632,37.477010811625355
17,체력단련장업,영업/정상,서울특별시 광진구 자양동 851-19번지,205800.186223739,448390.088509972,127.06352475012842,37.53774498662951
18,체력단련장업,영업/정상,서울특별시 광진구 군자동 478-5번지 지하1층,206896.697217277,450515.575725945,127.07595106558156,37.55688795919746
19,체력단련장업,영업/정상,서울특별시 광진구 구의동 201-8 진넥스 베르디엠 지하1층,208318.216397053,448817.091466369,127.09201994095677,37.54157315453245
20,체력단련장업,영업/정상,서울특별시 광진구 구의동 199-18번지 삼성쉐르빌 101동 지하1층 114호(113호일부 포함),208310.372259506,448631.437594782,127.0919290992514,37.539900499415644
21,체력단련장업,영업/정상,서울특별시 광진구 구의동 200-15번지 지하1층,208298.14323945,448723.754453358,127.09179176421637,37.54073237560138
22,체력단련장업,영업/정상,서울특별시 광진구 화양동 10-1번지,206107.775163579,449029.342177779,127.0670102433251,37.54350264661167
23,체력단련장업,영업/정상,서울특별시 광진구 자양동 216-9 세화빌딩 5층동,207444.54897561,448263.89528182,127.08212871947022,37.5365963062418
24,체력단련장업,영업/정상,서울특별시 광진구 자양동 666-4번지,207259.900998516,447404.717192681,127.08003112801845,37.52885663183589
25,체력단련장업,영업/정상,서울특별시 광진구 자양동 227-7 지하1층 B100-1호,206349.675048285,448396.939704285,127.06974203287463,37.53780313525985
26,체력단련장업,영업/정상,서울특별시 광진구 광장동 244-28번지 석원빌딩,209056.405858415,449280.663820868,127.10037832634168,37.54574299720851
27,체력단련장업,영업/정상,서울특별시 광진구 광장동 445-5 대한제지(주) 사옥 지하2층,209023.362979212,449094.141118988,127.10000214554894,37.544062767018886
28,체력단련장업,영업/정상,서울특별시 금천구 시흥동 837-38번지,191636.908720079,438913.547879145,126.90338191423258,37.45234085789739
29,체력단련장업,영업/정상,서울특별시 금천구 독산동 178-28번지,191342.764679558,441076.295774221,126.90003201306278,37.47182456061857
30,체력단련장업,영업/정상,서울특별시 금천구 시흥동 993-3,191154.97129309,438979.341350672,126.89793441970924,37.45292914553329
31,체력단련장업,영업/정상,서울특별시 광진구 중곡동 82-2번지 동화빌딩  5층,207859.365742539,450548.737820935,127.08684636994647,37.557179108895475
32,체력단련장업,영업/정상,"서울특별시 광진구 중곡동 579-1번지 동방프라자 지하1층 101호, 102호",207092.481119161,452070.118445356,127.07818173173898,37.57089273212797
33,체력단련장업,영업/정상,서울특별시 광진구 중곡동 113-7번지 2층,207980.954669792,450103.555182118,127.0882176500359,37.553167025305406
34,체력단련장업,영업/정상,"서울특별시 광진구 구의동 54-3번지 5층,6층",207942.617936322,449864.683570555,127.08778123408474,37.55101514510339
35,체력단련장업,영업/정상,서울특별시 광진구 광장동 318번지,209343.001409181,449330.493519953,127.10362200188641,37.546189119076864
36,체력단련장업,영업/정상,서울특별시 광진구 중곡동 579-1번지 2층203호,207092.481119161,452070.118445356,127.07818173173898,37.57089273212797
37,체력단련장업,영업/정상,서울특별시 광진구 중곡동 93-2 (4층),207778.71422042,450256.437261231,127.08593052471969,37.55454619100132
38,체력단련장업,영업/정상,서울특별시 광진구 중곡동 78-3번지 2층,207724.594610866,450718.28191891,127.08532286834587,37.55870781199983
39,체력단련장업,영업/정상,서울특별시 금천구 시흥동 5-13,191919.01270594,440127.175851359,126.9065567588209,37.46327822129355
40,체력단련장업,영업/정상,서울특별시 금천구 독산동 1093-4 한신아파트,190023.426907798,439379.272866954,126.88514053355036,37.45652095759282
41,체력단련장업,영업/정상,서울특별시 금천구 시흥동 890-4 지하1층,191257.611843222,438879.425058325,126.89909563162162,37.4520298776181
42,체력단련장업,영업/정상,"서울특별시 금천구 독산동 1041-35번지 3,4층",191373.87073798,440333.277000272,126.90039241465242,37.46513023759388
43,체력단련장업,영업/정상,서울특별시 광진구 자양동 636-10,206977.90755825,447726.461035191,127.07684390257393,37.531757677955156
44,체력단련장업,영업/정상,서울특별시 광진구 구의동 243-66,207622.582505948,448374.803680361,127.08414419991423,37.53759414073451
45,체력단련장업,영업/정상,서울특별시 광진구 화양동 6-2번지 연한빌딩 6층,206131.315540787,448712.391439589,127.06727399467282,37.540646792348
46,체력단련장업,영업/정상,서울특별시 광진구 군자동 355번지,205976.633917423,449688.534404328,127.0655316312142,37.54944275930526
47,체력단련장업,영업/정상,서울특별시 광진구 화양동 21-2번지 이수브라운스톤2층,205988.468227018,449527.769210707,127.065664255006,37.547994203961004
48,체력단련장업,영업/정상,서울특별시 광진구 군자동 27-3번지 지하,206738.5345067,450123.409253788,127.07415750079733,37.55335573898379
49,체력단련장업,영업/정상,서울특별시 광진구 군자동 103,206299.7504918,450037.825730524,127.06919109089549,37.5525877118482
50,체력단련장업,영업/정상,서울특별시 광진구 자양동 845-12번지 2층,205747.928011011,448347.256811813,127.06293314002792,37.537359399705245
51,체력단련장업,영업/정상,서울특별시 광진구 군자동 65-3번지,206561.85897884,450204.965754906,127.07215880024933,37.55409181668983
52,체력단련장업,영업/정상,서울특별시 광진구 구의동 246-15번지,207359.077156309,448305.441351828,127.08116207113301,37.53697131287387
53,체력단련장업,영업/정상,서울특별시 광진구 중곡동 18-71번지,207619.069099222,451347.780303197,127.08413504096286,37.56438038972611
54,체력단련장업,영업/정상,서울특별시 금천구 독산동 962-47번지,191389.242624397,441740.622288466,126.9005496073012,37.47781058822625
55,체력단련장업,영업/정상,"서울특별시 광진구 중곡동 230-12 3, 4층",207066.550694407,451361.977710943,127.07788145075419,37.564512669997306
56,체력단련장업,영업/정상,서울특별시 광진구 자양동 606-14번지 지하1층,206893.84345075,447758.903010754,127.07589313193313,37.532050603927665
57,체력단련장업,영업/정상,서울특별시 광진구 화양동 527번지 KCC파크타운B1 비04~06호,206559.277117752,449368.957156903,127.07212218535878,37.546559478518496
58,체력단련장업,영업/정상,서울특별시 광진구 능동 256-3번지 지하1층,207756.217759831,450076.132747496,127.08567404077775,37.55292185426153
59,체력단련장업,영업/정상,서울특별시 금천구 가산동 60-19 SJ 테크노빌 B127호,189722.178532426,441920.972770099,126.88170007523915,37.47941840044647
60,체력단련장업,영업/정상,서울특별시 금천구 독산동 1037-57번지,191219.606828111,440445.718302559,126.8986473282947,37.46614187440312
61,체력단련장업,영업/정상,서울특별시 금천구 독산동 291-5번지 시티렉스 3층,190858.649482406,440808.541334678,126.894562625684,37.469407395653214
62,체력단련장업,영업/정상,서울특별시 금천구 독산동 951-4 현경빌딩,191389.027715691,441916.081648538,126.90054511164013,37.47939147627275
63,체력단련장업,영업/정상,서울특별시 광진구 군자동 346-23 지장빌딩5층,206172.221312682,449744.93841498,127.0677454315253,37.549949679333956
64,체력단련장업,영업/정상,서울특별시 광진구 구의동 244-15번지,207829.560547452,448477.131348394,127.08648714128182,37.53851438572862
65,체력단련장업,영업/정상,서울특별시 광진구 구의동 254-30번지,207374.479873781,448998.970907651,127.08134324630588,37.54321983452227
66,체력단련장업,영업/정상,서울특별시 광진구 화양동 225번지,206432.203835892,449440.652424753,127.07068485970748,37.547206332492706
67,체력단련장업,영업/정상,서울특별시 광진구 구의동,207650.154123032,448468.650826777,127.0844571289706,37.53843946964031
68,체력단련장업,영업/정상,서울특별시 광진구 자양동 652-33번지,207210.410261585,447676.098948209,127.0794738676145,37.53130214772593
69,체력단련장업,영업/정상,서울특별시 광진구 능동 283-15번지,206826.516479071,450178.536506659,127.07515369335724,37.553851788800976
70,체력단련장업,영업/정상,서울특별시 광진구 화양동 132-6번지,206161.393082977,449458.218401377,127.0676205139691,37.54736643050125
71,체력단련장업,영업/정상,서울특별시 광진구 화양동 113-1,206278.982112971,449425.131943862,127.06895087299733,37.54706753963607
72,체력단련장업,영업/정상,서울특별시 광진구 구의동 199-6번지,208385.614875431,448722.952514146,127.09278149706367,37.54072436525963
73,체력단련장업,영업/정상,서울특별시 광진구 광장동 250번지,209194.595129323,449413.151252613,127.10194369008043,37.546935338277365
74,체력단련장업,영업/정상,서울특별시 광진구 자양동 580-9,206568.236371191,447940.022480401,127.07221091486261,37.53368483017739
75,체력단련장업,영업/정상,서울특별시 광진구 구의동 245-26번지,208004.282144849,448440.329980219,127.08846366082508,37.53818132114983
76,체력단련장업,영업/정상,서울특별시 금천구 시흥동 912-20 에벤에설프라자 402호,191917.450107657,438699.77460936,126.9065548628625,37.45041726236733
77,체력단련장업,영업/정상,서울특별시 금천구 가산동 327-29번지,189637.456694404,441016.253713253,126.88075503356788,37.47126592455211
78,체력단련장업,영업/정상,서울특별시 금천구 가산동 543-1번지,189055.138252216,441958.334400683,126.87415813155899,37.47974732559293
79,체력단련장업,영업/정상,서울특별시 금천구 독산동 1012-15,190938.908460621,440702.35714639,126.89547120711057,37.46845146938966
80,체력단련장업,영업/정상,서울특별시 금천구 독산동 711-2번지 금천현대아파트,190232.47138241,440016.250106997,126.88749472453095,37.4622623884032
81,체력단련장업,영업/정상,서울특별시 광진구 자양동 553-376 원우상가,206011.728357801,447910.588323863,127.06591437481235,37.533423385512805
82,체력단련장업,영업/정상,서울특별시 광진구 구의동 200-20번지 3층,208324.939444793,448746.466638461,127.09209521882944,37.54093677083591
83,체력단련장업,영업/정상,서울특별시 광진구 구의동 593-15번지 5층,207995.95709474,448085.242458867,127.0883656324104,37.53498208242247
84,체력단련장업,영업/정상,서울특별시 광진구 군자동 373-8번지 3층,206369.212427896,449543.172023494,127.06997292993108,37.54813045739354
85,체력단련장업,영업/정상,서울특별시 금천구 독산동 901-7 지오프라자 6층동,191911.448935236,442043.878227727,126.90645006033823,37.48054767918924
86,체력단련장업,영업/정상,서울특별시 금천구 시흥동 896-15번지,191589.19755097,438843.804103137,126.90284349928794,37.45171202735269
87,체력단련장업,영업/정상,서울특별시 금천구 가산동 150-2 신평대일타운 6층,190498.32738704,441516.527946049,126.89048026849164,37.47578270750529
88,체력단련장업,영업/정상,서울특별시 금천구 시흥동 852-55,191529.779194993,439565.772452126,126.9021636246182,37.45821644768181
89,체력단련장업,영업/정상,서울특별시 광진구 구의동 219-5번지 (4층),208096.18382136,448575.80113761,127.08950497458746,37.53940110944812
90,체력단련장업,영업/정상,서울특별시 광진구 구의동 31-23번지,208185.254777532,450096.88445853,127.09052961698904,37.55310514600293
91,체력단련장업,영업/정상,서울특별시 광진구 군자동 466-18번지 (3층),206557.018731518,450697.895343093,127.07210838357538,37.55853309401919
92,체력단련장업,영업/정상,서울특별시 광진구 광장동 425-2번지 지층,208604.847723243,448881.571583897,127.09526396166501,37.5421515052438
93,체력단련장업,영업/정상,서울특별시 광진구 구의동 249-21번지 연이빌딩 2층 201호,207507.758720831,448816.731921435,127.08284950060153,37.54157681119283
94,체력단련장업,영업/정상,"서울특별시 광진구 광장동 484 지하1,2층",208644.819209521,448711.725750126,127.09571426354493,37.54062083838449
95,체력단련장업,영업/정상,서울특별시 광진구 자양동 44-2번지 2층,205663.081069121,448250.363358949,127.06197240065211,37.53648691573684
96,체력단련장업,영업/정상,서울특별시 광진구 중곡동 173-2번지,207176.529121066,451719.329086886,127.07912971749663,37.567731519903525
97,체력단련장업,영업/정상,서울특별시 광진구 군자동 64-1번지 2층,206506.185332504,450212.320413111,127.07152880449311,37.554158472069254
98,체력단련장업,영업/정상,서울특별시 광진구 자양동 680-68,207391.330183096,448120.785876892,127.08152515446271,37.535307325707535
99,체력단련장업,영업/정상,서울특별시 광진구 광장동 114 외2필지 지하1층,209637.078215509,449832.485937903,127.10695626822198,37.55070901361192
100,체력단련장업,영업/정상,서울특별시 광진구 중곡동 28-7번지,207588.020825128,451260.460692259,127.08378272306967,37.563593904534166
101,체력단련장업,영업/정상,서울특별시 광진구 자양동 610-9번지,206645.876190049,447900.666026431,127.07308897498818,37.53332968078094
102,체력단련장업,영업/정상,서울특별시 광진구 자양동 623-23번지,207086.894270771,447990.975919066,127.07807946841855,37.53414011511152
103,체력단련장업,영업/정상,서울특별시 금천구 가산동 151-30,190481.242450103,441556.382011728,126.89028660154999,37.47614161603553
104,체력단련장업,영업/정상,서울특별시 광진구 중곡동 341-5,207174.408882708,450519.518113255,127.07909409185986,37.55692137968643
105,체력단련장업,영업/정상,서울특별시 광진구 구의동 611 구의현대2단지 상가동 304호,208403.746065593,448490.239179557,127.09298400951184,37.538627474248706
106,체력단련장업,영업/정상,서울특별시 광진구 구의동 202-3번지 지층,208181.517388785,448984.848324887,127.0904750277149,37.543085842011386
107,체력단련장업,영업/정상,서울특별시 광진구 화양동 21-1번지 2층 202호,206010.268755156,449527.161783138,127.06591094724175,37.547988590791746
108,체력단련장업,영업/정상,서울특별시 광진구 구의동 76-1 3층 302호,207825.465863194,449902.401682584,127.08645587434633,37.55135597496074
109,체력단련장업,영업/정상,서울특별시 광진구 군자동 361-27번지,206293.664148482,449549.386757289,127.06911806859246,37.54818696498381
110,체력단련장업,영업/정상,서울특별시 광진구 화양동 21-22번지 지층,205992.536392711,449493.989066549,127.06571001808138,37.54768982182632
111,체력단련장업,영업/정상,서울특별시 광진구 구의동 596-5번지 지하2층,208006.504810197,447998.924380413,127.08848403763994,37.534204272397695
112,체력단련장업,영업/정상,서울특별시 광진구 구의동 202-27번지 6층,208214.895653032,448960.106855126,127.0908524402298,37.54286262924356
113,체력단련장업,영업/정상,서울특별시 강서구 마곡동 759-3번지 보타닉파크타워Ⅰ 12층,184555.689189052,451767.833497048,126.8230814280836,37.56806547706021
114,체력단련장업,영업/정상,서울특별시 서초구 서초동 1589-12번지 오영빌딩,201119.982045149,442629.209364724,127.01056200080457,37.48585686962428
115,체력단련장업,영업/정상,서울특별시 영등포구 영등포동7가 94-49번지 인따르시아사옥,191907.870668957,447090.531277914,126.90635366638017,37.5260178432878
116,체력단련장업,영업/정상,서울특별시 중랑구 신내동 644 엘리어트하우스,208269.433219878,457021.162035231,127.09155976943667,37.615491077733374
117,체력단련장업,영업/정상,서울특별시 강남구 개포동 13-3번지 대청타워,206970.919291372,443574.411625824,127.07672585112351,37.49434793392861
118,체력단련장업,영업/정상,서울특별시 중구 태평로2가 150번지 부영 태평빌딩,197728.372836574,451030.853936909,126.97218726582368,37.56155291923487
119,체력단련장업,영업/정상,서울특별시 양천구 목동 606-18번지 3층,187945.843696609,449821.719712552,126.86148710968087,37.55058206429335
120,체력단련장업,영업/정상,서울특별시 동대문구 신설동 101-5번지 지하1층,202081.864808843,452565.40876479,127.02146503502613,37.57537982954688
121,체력단련장업,영업/정상,서울특별시 강남구 대치동 983-1번지 해암빌딩,205677.522476464,444555.644453973,127.06210758974811,37.503197589047474
122,체력단련장업,영업/정상,서울특별시 중랑구 면목동 56-2 이안애,208342.686741707,453734.914814995,127.09235231539026,37.585881922547216
123,체력단련장업,영업/정상,서울특별시 송파구 삼전동 1-5,207929.421002766,444956.907132487,127.08757936856388,37.506796523335346
124,체력단련장업,영업/정상,서울특별시 광진구 자양동 670,207306.382464524,447374.008518853,127.08055668018571,37.528579585094406
125,체력단련장업,영업/정상,서울특별시 구로구 오류동 156-100 새마을금고회관 4층동,185867.982684839,443187.336998108,126.83810116641708,37.49077715758751
126,체력단련장업,영업/정상,서울특별시 강서구 마곡동 797-1 퀸즈파크나인,185371.298773738,450793.771245265,126.83233290390052,37.55930268673177
127,체력단련장업,영업/정상,서울특별시 성북구 보문동1가 120번지,201626.152243635,453756.581286658,127.01630878845589,37.58611301600965
128,체력단련장업,영업/정상,서울특별시 성북구 성북동1가 35-31번지,200401.243311814,454052.641858251,127.00244064741011,37.58878174067958
129,체력단련장업,영업/정상,서울특별시 중구 신당동 292-95번지,201164.071014288,450969.573176111,127.01107297954708,37.5610030908186
130,체력단련장업,영업/정상,서울특별시 송파구 문정동 106-8 형정빌딩 201호,211418.991100604,442722.574606283,127.12701149643541,37.48662894303911
131,체력단련장업,영업/정상,서울특별시 동작구 상도동 201-66 사랑빌딩,194740.973504376,444269.712483984,126.93842437398078,37.50062306352505
132,체력단련장업,영업/정상,서울특별시 동작구 노량진동 148-57번지,195084.775709548,445665.106836723,126.94230297450609,37.513197445520056
133,체력단련장업,영업/정상,서울특별시 구로구 구로동 182-13 대륭포스트타워2차,190845.231594802,442639.420821243,126.89438803802248,37.48590349848517
134,체력단련장업,영업/정상,서울특별시 마포구 동교동 199-1 현우빌딩,193145.160420669,450706.106921998,126.92031679573178,37.55860397427773
135,체력단련장업,영업/정상,서울특별시 노원구 공릉동 441-92 우은빌딩,206726.878344473,458309.493406226,127.0741000227892,37.62711114161913
136,체력단련장업,영업/정상,서울특별시 서초구 반포동 93-3 포레 933빌딩,199814.181959575,444174.321790304,126.99579713600447,37.499778899525325
137,체력단련장업,영업/정상,서울특별시 금천구 가산동 50-3번지 대륭포스트타워6차,189662.959175776,442139.514492212,126.88102747078133,37.48138679660878
138,체력단련장업,영업/정상,서울특별시 마포구 동교동 174-11 동우빌딩,193537.812453408,450644.919295783,126.92476126208848,37.55805554416789
139,체력단련장업,영업/정상,서울특별시 성동구 성수동2가 284-62,204607.548949327,449380.324793135,127.0500367063555,37.546673579836735
140,체력단련장업,영업/정상,서울특별시 서초구 양재동 376-2 유성빌딩,203916.155701646,441041.451580684,127.04216929840072,37.471543720019476
141,체력단련장업,영업/정상,서울특별시 용산구 한남동 790-3번지 1층,200182.74105199,449041.567341809,126.99996589424629,37.54363258548216
142,체력단련장업,영업/정상,서울특별시 영등포구 신길동 1136번지,193090.283635996,444927.586176205,126.91975056161255,37.50653950047689
143,체력단련장업,영업/정상,서울특별시 관악구 봉천동 851-3,195888.014021964,442308.732952529,126.95140733188066,37.48296054181061
144,체력단련장업,영업/정상,서울특별시 강서구 화곡동 898-1번지 화곡심포니타워 504호,186424.391650186,447580.544751681,126.84431126381378,37.53036806842359
145,체력단련장업,영업/정상,서울특별시 강서구 등촌동 628-7번지 아벨테크노 B107호,187142.520159168,450809.366186016,126.85237893363265,37.55946972611059
146,체력단련장업,영업/정상,서울특별시 강남구 논현동 240-12번지,203453.335574423,445989.904733263,127.03696009108555,37.516131070995925
147,체력단련장업,영업/정상,서울특별시 종로구 신문로1가 116번지 에스타워,197626.497681648,451938.484384565,126.97103120954618,37.569730301859565
148,체력단련장업,영업/정상,서울특별시 강남구 논현동 234-24,202991.532710332,445088.969441836,127.03173291404606,37.50801525285973
149,체력단련장업,영업/정상,서울특별시 강남구 역삼동 735-17번지 역삼 푸르지오 시티,202905.303175817,443996.984822547,127.03075343548494,37.49817676092688
150,체력단련장업,영업/정상,서울특별시 동대문구 청량리동 234-2번지 현대아파트 상가동 지하1호,204024.364989132,453631.24724885,127.0434603932133,37.58497658546758
151,체력단련장업,영업/정상,서울특별시 마포구 상암동 1615 PARK M,190591.913002866,452920.989704662,126.89139129331403,37.57853707051467
152,체력단련장업,영업/정상,서울특별시 성동구 행당동 32-6,203680.207588501,450527.658540573,127.03954864251494,37.55701505076453
153,체력단련장업,영업/정상,서울특별시 성동구 도선동 402 승우카센타,202619.718109742,451383.849786887,127.02754955677558,37.56473279160721
154,체력단련장업,영업/정상,서울특별시 영등포구 여의도동 17-3번지 삼환까뮤빌딩,192585.693382087,447295.194165729,126.91401964526662,37.527867584471814
155,체력단련장업,영업/정상,서울특별시 양천구 신정동 774-4번지 통연빌딩,185563.39173504,445562.576452316,126.83461022207337,37.51217321177971
156,체력단련장업,영업/정상,서울특별시 은평구 신사동 12-7번지 1층동,191779.346985955,455405.316699549,126.90480580971473,37.60093189791257
157,체력단련장업,영업/정상,서울특별시 용산구 효창동 5-121번지 지하2층,196542.935666666,448603.573333334,126.9587819359846,37.53967957868628
158,체력단련장업,영업/정상,서울특별시 송파구 삼전동 29-10번지 지하1층,207769.190707646,444593.026608349,127.08576337238178,37.50351932158633
159,체력단련장업,영업/정상,서울특별시 강서구 마곡동 796-3번지 마곡사이언스타워 505호,185259.185267583,450932.359772264,126.83106123198021,37.56054955558733
160,체력단련장업,영업/정상,서울특별시 은평구 대조동 191-15번지 1층동,193223.378098947,456990.730668888,126.92114337135371,37.61522804703414
161,체력단련장업,영업/정상,서울특별시 도봉구 쌍문동 96-4 우림빌딩,202871.080504567,460522.031748747,127.03042966746361,37.64706546642523
162,체력단련장업,영업/정상,서울특별시 금천구 가산동 685번지 디지털엠파이어빌딩 1501호,189978.050925581,440363.954453659,126.88461421224108,37.46539247411432
163,체력단련장업,영업/정상,서울특별시 노원구 월계동 46-13번지,205667.441809937,456975.436848678,127.06208841149899,37.615098629499016
164,체력단련장업,영업/정상,서울특별시 서대문구 홍제동 155-5번지,195199.663192644,453715.755854225,126.94354910538895,37.58573365882306
165,체력단련장업,영업/정상,서울특별시 강남구 역삼동 659-16,203055.810225602,444861.589885086,127.03245897320056,37.50596636267957
166,체력단련장업,영업/정상,서울특별시 관악구 봉천동 1659-4 동림오피스텔,196651.522369177,441647.080647041,126.96004285044076,37.47700217812832
167,체력단련장업,영업/정상,서울특별시 동작구 신대방동 607-5,191803.524952767,443132.741584701,126.9052176673057,37.49035737741711
168,체력단련장업,영업/정상,서울특별시 강서구 마곡동 797-14 힐스테이트에코마곡,185548.355240195,450828.796483554,126.83433609701004,37.559621064396886
169,체력단련장업,영업/정상,서울특별시 양천구 신정동 1026-4 준빌딩,187517.19988666,446609.178240389,126.85669123965297,37.52163164090298
170,체력단련장업,영업/정상,서울특별시 강남구 청담동 62,204251.602305854,446774.910837276,127.04599399660316,37.5232006648538
171,체력단련장업,영업/정상,서울특별시 마포구 노고산동 31-208,194443.843452748,450103.860176222,126.93501952914121,37.55318662709966
172,체력단련장업,영업/정상,서울특별시 강동구 천호동 22-5 동곡빌딩,212415.322011153,449821.32436925,127.13839607178394,37.55057542153568
173,체력단련장업,영업/정상,서울특별시 영등포구 여의도동 43-2,193819.575088866,446543.53387045,126.92798501584515,37.52110434266492
174,체력단련장업,영업/정상,서울특별시 영등포구 문래동3가 55-4 문래동메가트리움,190866.605827116,446211.615914248,126.8945850636292,37.51808907984428
175,체력단련장업,영업/정상,서울특별시 서초구 서초동 1640-12 동구빌딩,201603.086309253,443533.664493325,127.01602622421386,37.49400533470638
176,체력단련장업,영업/정상,서울특별시 서초구 서초동 1332-4 Cross 143,202161.886768738,443298.26937,127.02234445002614,37.49188332557652
177,체력단련장업,영업/정상,서울특별시 성동구 성수동1가 13-441,204173.590200483,449726.476712051,127.04512800405585,37.549794413362406
178,체력단련장업,영업/정상,서울특별시 동대문구 용두동 112-10,202698.421652205,452805.753356863,127.02844548090663,37.577543746418726
179,체력단련장업,영업/정상,서울특별시 성북구 안암동4가 41-19,202147.563445871,453152.39423341,127.0222104282998,37.580668344303135
180,체력단련장업,영업/정상,서울특별시 도봉구 방학동 736 신동아타워아파트 상가동 2층,202474.809554554,462204.722701223,127.02594502297552,37.66222721392767
181,체력단련장업,영업/정상,서울특별시 관악구 봉천동 869-10 관악센츄리타워,195588.796492288,442098.372819317,126.94802556753461,37.48106379422622
182,체력단련장업,영업/정상,서울특별시 종로구 명륜1가 83-5 새주빌딩,199658.55506796,453782.816291273,126.99403186638824,37.586350624019204
183,체력단련장업,영업/정상,서울특별시 중랑구 면목동 605-32,207525.405414575,453207.524884916,127.0830938215506,37.58113720243635
184,체력단련장업,영업/정상,서울특별시 영등포구 신길동 324-37 용성빌딩(JYS빌딩),191667.092318061,444856.298341376,126.9036553055783,37.50588535589912
185,체력단련장업,영업/정상,서울특별시 은평구 신사동 8-18,192031.10688002,455198.692747984,126.90765903413582,37.599072484659125
186,체력단련장업,영업/정상,서울특별시 영등포구 당산동5가 7-46 라임,190871.325209386,447756.959482693,126.89461912062451,37.532012570325065
187,체력단련장업,영업/정상,서울특별시 송파구 오금동 43 현대아파트,211144.632069249,444932.833553441,127.12394263639754,37.50654664331197
188,체력단련장업,영업/정상,서울특별시 강남구 신사동 665-8,203365.280632035,446970.807277881,127.03596847891782,37.5249692770163
189,체력단련장업,영업/정상,서울특별시 강남구 대치동 670 동부센트레빌,204860.005578246,443400.359236283,127.05285448016151,37.49279309087128
190,체력단련장업,영업/정상,서울특별시 강남구 청담동 48-7,204177.838361905,446821.69032636,127.04515981351709,37.523622477337895
191,체력단련장업,영업/정상,서울특별시 송파구 방이동 159-6,210496.168950006,445607.523577649,127.11661819429277,37.51263312168233
192,체력단련장업,영업/정상,서울특별시 성북구 보문동6가 42-1,201564.062681853,453326.667881762,127.01560493809448,37.582239660549426
193,체력단련장업,영업/정상,서울특별시 서초구 잠원동 63-34,200753.638703338,445706.12537466,127.00642273432034,37.51358019170627
194,체력단련장업,영업/정상,서울특별시 강서구 내발산동 750-6 발산신성프라자,184566.593011765,450029.718501657,126.82324155896299,37.55240550128143
195,체력단련장업,영업/정상,서울특별시 강남구 대치동 943-19 신안빌딩,205171.096196141,445006.428712237,127.05638336803311,37.50726208277514
196,체력단련장업,영업/정상,서울특별시 강남구 논현동 108 논현웰스톤,203292.307005445,446247.511537864,127.03513977915705,37.51845267486895
197,체력단련장업,영업/정상,서울특별시 강남구 논현동 39-20,202413.749980215,445761.483091564,127.02520029424473,37.51407623110683
198,체력단련장업,영업/정상,서울특별시 동작구 사당동 252-15,197513.718579653,442441.949746996,126.96978757353219,37.48416674224329
199,체력단련장업,영업/정상,서울특별시 은평구 불광동 272-51 한화빌딩,193674.822523911,456608.161655167,126.92625990073117,37.61178442101305
200,체력단련장업,영업/정상,서울특별시 양천구 신정동 895-46 화창빌딩,187844.152760981,447315.08869605,126.86037802800155,37.52799622605446
201,체력단련장업,영업/정상,서울특별시 송파구 삼전동 130 정한빌딩,208424.504605631,444927.607989336,127.09317837223601,37.506528190132165
202,체력단련장업,영업/정상,서울특별시 종로구 창성동 98-19 창성동복합건축물,197410.975271094,453114.780782469,126.9685873677311,37.58032798511746
203,체력단련장업,영업/정상,서울특별시 종로구 무악동 63-10,196143.256118357,452619.54362936,126.95423816120248,37.57586144082693
204,체력단련장업,영업/정상,서울특별시 강남구 역삼동 611-3,202728.489087662,444806.510043038,127.0287568474076,37.50547109673223
205,체력단련장업,영업/정상,서울특별시 서초구 반포동 735-30,201881.481622796,444882.103700668,127.01917763827683,37.50615424879148
206,체력단련장업,영업/정상,서울특별시 영등포구 영등포동8가 35-1 리마크빌 영등포,191536.037141169,447172.053366478,126.90214624938878,37.52674899077996
207,체력단련장업,영업/정상,서울특별시 송파구 송파동 98-3,209807.003938308,444459.489228146,127.10880801511396,37.502296907332656
208,체력단련장업,영업/정상,서울특별시 강남구 역삼동 825-2 메리츠타워,202476.461839188,443916.301646255,127.02590357846037,37.49745102556385
209,체력단련장업,영업/정상,서울특별시 양천구 목동 657-16,187774.076185179,449099.406847977,126.85955539743831,37.544071832906326
210,체력단련장업,영업/정상,서울특별시 노원구 상계동 456 파인트리학원,205804.628661561,462582.645814657,127.0636862617593,37.665617424845045
211,체력단련장업,영업/정상,서울특별시 강북구 번동 448-2 북한산드림캐슬,202104.349515713,459183.280207514,127.02173800424237,37.63500564464935
212,체력단련장업,영업/정상,서울특별시 은평구 역촌동 22-1 보광빌딩,192491.890784894,455935.859407801,126.91286925119401,37.60571812958094
213,체력단련장업,영업/정상,서울특별시 강동구 둔촌동 426-10 B01호,212414.122549835,447817.556100931,127.13834880600557,37.53252169145907
214,체력단련장업,영업/정상,서울특별시 성동구 하왕십리동 291-10 덕융빌딩,202326.598295857,451988.812476724,127.02423370271471,37.57018420074863
215,체력단련장업,영업/정상,서울특별시 노원구 상계동 603-2 하이웰빙상가,205390.285338416,461626.244911047,127.05898314256179,37.65700300290632
216,체력단련장업,영업/정상,서울특별시 영등포구 영등포동2가 28-109,192024.795806414,446531.90797661,126.90768252424725,37.520985706908974
217,체력단련장업,영업/정상,서울특별시 동작구 대방동 396-23 주영빌딩,193269.330822227,444203.515250843,126.92178224386853,37.50001697479227
218,체력단련장업,영업/정상,서울특별시 강서구 마곡동 784-13 아르디에,185739.051219741,451258.61973203,126.83648596962239,37.56349669344247
219,체력단련장업,영업/정상,서울특별시 강서구 등촌동 628-6,187096.002994697,450820.499671685,126.85185226424946,37.55956938406033
220,체력단련장업,영업/정상,서울특별시 중구 남대문로3가 110,198162.595385815,451097.082869101,126.97710169701843,37.56215063302284
221,체력단련장업,영업/정상,서울특별시 금천구 가산동 371-63,189590.415184668,441837.131445595,126.88021158450768,37.47866150662501
222,체력단련장업,영업/정상,서울특별시 양천구 신정동 1018-1,187546.051563766,446614.863102314,126.85701751588628,37.52168325282682
223,체력단련장업,영업/정상,서울특별시 강남구 역삼동 736-56 스타빌딩,203100.324671811,444136.938198175,127.03295943161777,37.49943711882864
224,체력단련장업,영업/정상,서울특별시 금천구 가산동 50-3 대륭포스트타워6차,189662.959175776,442139.514492212,126.88102747078133,37.48138679660878
225,체력단련장업,영업/정상,서울특별시 서대문구 홍은동 439-1 홍은동아더프라임,194698.568690324,454763.633699865,126.93786812902351,37.59517209055043
226,체력단련장업,영업/정상,서울특별시 마포구 서교동 411-3 홍대가자II,193102.439664801,449742.75031553,126.91984243200683,37.54992391033305
227,체력단련장업,영업/정상,서울특별시 금천구 독산동 333-1,190251.903279301,440875.384680866,126.88770293133872,37.47000341652368
228,체력단련장업,영업/정상,서울특별시 노원구 하계동 251-4 인정빌딩,206350.493353359,459768.681704353,127.06984884451553,37.64026075000998
229,체력단련장업,영업/정상,"서울특별시 강동구 고덕동 210-1 고덕센트럴푸르지오(2층, 214호)",214956.131343654,450617.923583608,127.16716520906887,37.55771514033252
230,체력단련장업,영업/정상,서울특별시 서초구 방배동 768-3 스퀘어 181,198664.344539741,443659.912634288,126.98279479067217,37.495143050608405
231,체력단련장업,영업/정상,서울특별시 강서구 화곡동 343-50 혜성오피아파트,186337.07184753,447729.353564344,126.84332059915266,37.531707527007065
232,체력단련장업,영업/정상,서울특별시 동대문구 용두동 102-172 홈-스타(home-star),202898.576710688,452784.253349601,127.03071127017827,37.57734944018788
233,체력단련장업,영업/정상,서울특별시 강남구 청담동 92-2,203735.688229105,446862.331747909,127.04015822328628,37.52399051907825
234,체력단련장업,영업/정상,서울특별시 동대문구 회기동 71-1,204730.604505819,454092.324597718,127.05145916652702,37.58912751585553
235,체력단련장업,영업/정상,서울특별시 강남구 역삼동 686-3,203548.559258889,445016.465030215,127.03803258385851,37.507360056442465
236,체력단련장업,영업/정상,서울특별시 강남구 역삼동 821 이즈타워,202397.200552337,444044.80313171,127.02500766067527,37.4986090261773
237,체력단련장업,영업/정상,서울특별시 송파구 가락동 377-68 삼원빌딩,210382.548375747,444094.977521855,127.1153118485732,37.49900641856642
238,체력단련장업,영업/정상,서울특별시 송파구 송파동 104-5,209923.35186644,444582.697612115,127.11012546732032,37.50340577621875
239,체력단련장업,영업/정상,서울특별시 구로구 궁동 283-1 성문빌딩,184805.54721931,443941.01285745,126.82607213047889,37.49755081056393
240,체력단련장업,영업/정상,서울특별시 강동구 둔촌동 602-4 지하 1층,213128.549900632,448205.384103032,127.14643854909889,37.536006146189884
241,체력단련장업,영업/정상,서울특별시 금천구 독산동 1023-17,191214.442885069,440516.896841323,126.89858810189989,37.46678314542853
242,체력단련장업,영업/정상,서울특별시 용산구 한강로3가 65-291,197265.936239635,446774.796916888,126.96696954929666,37.52320489369078
243,체력단련장업,영업/정상,서울특별시 은평구 녹번동 259,194058.088064518,455432.117304935,126.93061032528925,37.601191058232516
244,체력단련장업,영업/정상,서울특별시 관악구 신림동 1695 신림동부아파트,193671.349359142,442039.985895904,126.92634740059671,37.480526455421284
245,체력단련장업,영업/정상,서울특별시 도봉구 창동 1-28 씨드큐브 창동,204313.906829097,461347.878668101,127.04678331843142,37.65450060376776
246,체력단련장업,영업/정상,서울특별시 송파구 가락동 41-6 영민빌딩 3층,210760.092474763,444139.493595261,127.11958202701653,37.49940321294204
247,체력단련장업,영업/정상,서울특별시 송파구 잠실동 339-2 삼우빌딩 6층,207554.720928562,444580.158228698,127.08333771927047,37.503405141991834
248,체력단련장업,영업/정상,서울특별시 도봉구 방학동 707-6,203783.2123426,462550.457289488,127.04077547678595,37.66533782496759
249,체력단련장업,영업/정상,서울특별시 광진구 중곡동 115-12,207850.438647442,450066.522171427,127.08674022236217,37.55283447313598
250,체력단련장업,영업/정상,서울특별시 마포구 상암동 2-105 반석빌딩,190745.505879174,452817.693006009,126.89313138785899,37.57760794919687
251,체력단련장업,영업/정상,서울특별시 강남구 신사동 660-6,203257.555575215,447334.651098516,127.03475140522708,37.5282478688171
252,체력단련장업,영업/정상,서울특별시 강남구 삼성동 1-3,203648.072536572,446062.358088334,127.03916317263423,37.51678313746822
253,체력단련장업,영업/정상,서울특별시 송파구 가락동 180-10 가락동양씨빌딩,211904.88368033,443361.403941355,127.13251567103663,37.49237868487185
254,체력단련장업,영업/정상,서울특별시 구로구 구로동 237 지하이시티,190402.032127103,442203.137447127,126.88938262668307,37.4819680601025
255,체력단련장업,영업/정상,서울특별시 은평구 갈현동 395-5 서연빌딩,192852.904016036,457562.887057163,126.91694163691812,37.62038023030807
256,체력단련장업,영업/정상,서울특별시 강남구 도곡동 951-15,202993.285104476,442668.63848041,127.0317431029857,37.486208088048315
257,체력단련장업,영업/정상,서울특별시 서초구 서초동 1599-2 LG서초에클라트,201213.64069933,442739.647017252,127.01162114702677,37.486851802073815
258,체력단련장업,영업/정상,서울특별시 서대문구 북가좌동 279-11,192301.135452392,453354.065487403,126.91073633823197,37.58245501046027
259,체력단련장업,영업/정상,서울특별시 마포구 망원동 373-1 에스케이빌딩,191885.959676016,450530.961407757,126.90606748223195,37.55701562124606
260,체력단련장업,영업/정상,서울특별시 마포구 성산동 112-3 대신마포빌딩,192412.283805707,451198.479860139,126.9120171771097,37.56303440469479
261,체력단련장업,영업/정상,서울특별시 성동구 옥수동 191-3 강변벽산빌라트,201462.251313062,448744.038108098,127.01444357164944,37.54095081861692
262,체력단련장업,영업/정상,서울특별시 강서구 화곡동 1107 VIP빌딩,187052.323132425,450291.97922408,126.85136727374527,37.55480686826298
263,체력단련장업,영업/정상,서울특별시 은평구 응암동 110-9 메트로럭스주상복합APT 202호,192874.914883743,455280.772090857,126.91721337095125,37.59981898277234
264,체력단련장업,영업/정상,서울특별시 송파구 잠실동 183-12 NS파인트리,207325.511224847,445415.042869266,127.08075374125796,37.510929255823314
265,체력단련장업,영업/정상,서울특별시 관악구 봉천동 1659-5 경동제약빌딩,196668.226137898,441640.722371723,126.96023172255927,37.47694495144346
266,체력단련장업,영업/정상,서울특별시 서대문구 남가좌동 331-21,193189.81117791,452434.666594838,126.92080594070299,37.57417841837606
267,체력단련장업,영업/정상,서울특별시 강남구 도곡동 412-5,203738.395356966,442556.038839045,127.04016734549455,37.485190902743824
268,체력단련장업,영업/정상,서울특별시 동대문구 신설동 72-8,202180.141420844,452791.639863183,127.02257820442232,37.57741792175974
269,체력단련장업,영업/정상,서울특별시 서초구 서초동 1443-11 해평빌딩,201720.013354313,442622.752253012,127.01734638302814,37.48579781084158
270,체력단련장업,영업/정상,서울특별시 강서구 공항동 1375 로얄스퀘어호텔서울,183171.101582153,450946.909086171,126.80742805724925,37.56064473870727
271,체력단련장업,영업/정상,서울특별시 강동구 길동 322-1 (지하 1층),212667.220099231,449163.915676543,127.14123538578276,37.5446488352127
272,체력단련장업,영업/정상,서울특별시 중구 신당동 226-3번지,200893.119043422,451354.677273034,127.00800675740173,37.564473120167825
273,체력단련장업,영업/정상,서울특별시 중랑구 신내동 243-23,209517.454768149,457295.548272915,127.10569880399605,37.61795126347663
274,체력단련장업,영업/정상,서울특별시 도봉구 쌍문동 192-4,202978.715323418,461768.035208019,127.0316542619578,37.658291312748354
275,체력단련장업,영업/정상,서울특별시 마포구 도화동 560번지 마포 태영 데시앙,195322.033365468,448969.110547126,126.94496524236293,37.54296757088209
276,체력단련장업,영업/정상,서울특별시 서대문구 북가좌동 487 성공타워1,192209.323632506,452067.039429636,126.90971069633201,37.57085830916987
277,체력단련장업,영업/정상,서울특별시 광진구 능동 282-6 한성빌딩 지하 101호,206851.974145395,450247.135087876,127.07544243190922,37.5544696678477
278,체력단련장업,영업/정상,서울특별시 서초구 서초동 1583-10 서초아트자이,200953.239716326,442613.337649681,127.00867666979575,37.485714040740035
279,체력단련장업,영업/정상,서울특별시 영등포구 당산동6가 311-1 동화빌딩,191308.21419306,448106.7377888,126.89955777618188,37.5351682950468
280,체력단련장업,영업/정상,서울특별시 강동구 천호동 333-46 호진빌딩,210970.367147465,449058.554810617,127.12203294154054,37.54372117047101
281,체력단련장업,영업/정상,서울특별시 서대문구 남가좌동 369-10,192922.795142276,452984.652487654,126.91777794437316,37.57913168341421
282,체력단련장업,영업/정상,서울특별시 성동구 성수동2가 289-8,205001.330561095,449340.301134739,127.05449243537116,37.54631094626117
283,체력단련장업,영업/정상,서울특별시 광진구 군자동 242번지,206725.477514837,450076.99365524,127.0740093147061,37.552937633585834
284,체력단련장업,영업/정상,서울특별시 서초구 서초동 1689-2번지 서흥빌딩,201512.509249379,443670.576933767,127.01500225122543,37.49523906159147
285,체력단련장업,영업/정상,서울특별시 중랑구 면목동 359-2,207709.270930577,453910.467739777,127.08518271682374,37.58746910295009
286,체력단련장업,영업/정상,서울특별시 도봉구 방학동 720-33번지 도봉월드상가 207호,204083.769271308,462849.020752258,127.04418360372395,37.66802653449439
287,체력단련장업,영업/정상,서울특별시 강남구 논현동 135-17,202426.533779071,445543.540181496,127.02534419174816,37.51211254015749
288,체력단련장업,영업/정상,서울특별시 송파구 석촌동 1번지 그랜드빌딩,208551.947559076,444890.678006917,127.09461930556867,37.506194289835996
289,체력단련장업,영업/정상,서울특별시 송파구 방이동 159-15번지,210482.876133293,445580.642832588,127.1164674617752,37.512391077609195
290,체력단련장업,영업/정상,서울특별시 강동구 천호동 234-6번지 일주빌딩,211853.659176909,449388.465849174,127.13203307764684,37.54668276653123
291,체력단련장업,영업/정상,서울특별시 서대문구 홍제동 305-2번지,194975.948400893,454111.957435702,126.9410134953009,37.589302165992514
292,체력단련장업,영업/정상,서울특별시 용산구 한남동 707-36번지 한남프라자 4층,200506.187313451,448146.173245501,127.00362529816906,37.535565052112815
293,체력단련장업,영업/정상,서울특별시 영등포구 대림동 605-28번지,190829.669548548,444711.08722969,126.89418609431989,37.50456901531066
294,체력단련장업,영업/정상,서울특별시 양천구 목동 405-171번지 더빌딩,188590.494710205,446929.520544817,126.8688274614074,37.524531867740215
295,체력단련장업,영업/정상,서울특별시 영등포구 여의도동 23번지 서울 국제금융 센터,193326.931018911,446973.914570276,126.9224082596647,37.524978584310034
296,체력단련장업,영업/정상,서울특별시 강동구 명일동 312-216번지 프라임빌딩,212629.979839061,450062.070217207,127.1408293620405,37.552741612712204
297,체력단련장업,영업/정상,서울특별시 송파구 방이동 210,210769.190920536,445359.948409671,127.11970267494658,37.51039935687123
298,체력단련장업,영업/정상,서울특별시 서초구 양재동 13-11 행복빌딩,203128.494210973,442316.546418164,127.0332704190669,37.48303529677361
299,체력단련장업,영업/정상,서울특별시 중구 정동 25-2번지,197220.244951952,451701.578492985,126.96643359008647,37.56759464363487
300,체력단련장업,영업/정상,서울특별시 관악구 봉천동 1658-4번지 벽천빌딩,196742.900141418,441605.790320829,126.96107609897945,37.47663048420479
301,체력단련장업,영업/정상,서울특별시 강서구 화곡동 1066-8 월드빌딩 2층,185557.800051443,448772.375749389,126.83448362616518,37.54109312409801
302,체력단련장업,영업/정상,"서울특별시 동작구 신대방동 395-65 파크스퀘어,보라매현대APT",193167.049947274,443326.060408639,126.92063378503548,37.49211036173452
303,체력단련장업,영업/정상,서울특별시 강남구 삼성동 157-14,204989.946811679,445154.320314656,127.05433556582503,37.50859556578785
304,체력단련장업,영업/정상,서울특별시 금천구 시흥동 830-22번지,191970.182049624,438773.647952075,126.90714999652315,37.451083327709014
305,체력단련장업,영업/정상,서울특별시 중구 신당동 288-17번지,201267.806155823,450937.698445741,127.01224701027058,37.560715773299464
306,체력단련장업,영업/정상,서울특별시 동대문구 장안동 365-9 케이타워,206129.858095688,451891.533842401,127.06728377494241,37.56929054683598
307,체력단련장업,영업/정상,서울특별시 강남구 도곡동 411-17번지,203899.748134841,442621.420007439,127.04199204293062,37.48577933206385
308,체력단련장업,영업/정상,서울특별시 송파구 송파동 59-8 청양빌딩,209651.7746643,445422.988281706,127.10706505210172,37.51097962095428
309,체력단련장업,영업/정상,서울특별시 양천구 목동 602-2 클래리티 타워,188272.472592178,449639.484816091,126.86518632477208,37.54894438350834
310,체력단련장업,영업/정상,서울특별시 서초구 서초동 1674-4번지 하림인터내셔날빌딩,201398.119442145,443554.420930428,127.01370850342732,37.49419266874664
311,체력단련장업,영업/정상,서울특별시 강북구 미아동 65-5번지,202459.009043553,457172.529954085,127.02574946504978,37.61688834589612
312,체력단련장업,영업/정상,서울특별시 서초구 반포동 91-7번지 백림제2빌딩,199804.878923089,443969.153782917,126.9956920018017,37.49793033539881
313,체력단련장업,영업/정상,서울특별시 서초구 잠원동 56-3번지 잠원연합상가,200883.46902532,445971.21278915,127.00789152980514,37.51596851393217
314,체력단련장업,영업/정상,서울특별시 동작구 노량진동 215-135번지,195323.893672784,445066.925255943,126.9450114582457,37.507809107626734
315,체력단련장업,영업/정상,서울특별시 관악구 신림동 1522-6 청송빌딩,194190.006578512,440835.694592811,126.9322209014563,37.469679208512176
316,체력단련장업,영업/정상,서울특별시 강서구 등촌동 73-1 금부빌딩 지하1층,186966.036176588,451047.287263879,126.85037727375695,37.561610871742545
317,체력단련장업,영업/정상,서울특별시 노원구 상계동 617 화랑빌딩 가동,205430.356783465,461479.613299751,127.05943618025661,37.65568165670161
318,체력단련장업,영업/정상,서울특별시 강동구 둔촌동 59-9번지,212705.488431864,447969.820946473,127.14164786466978,37.53388963804381
319,체력단련장업,영업/정상,서울특별시 강남구 대치동 623번지 남서울종합상가,205209.747122636,443490.817333221,127.05680991222943,37.49360623635136
320,체력단련장업,영업/정상,서울특별시 도봉구 창동 45번지 삼성아파트,204214.210632572,460746.553675666,127.04565011989376,37.64908327091504
321,체력단련장업,영업/정상,서울특별시 영등포구 당산동6가 338-1번지 한경빌딩,191096.383033041,448115.64140501,126.89716097572429,37.53524648113616
322,체력단련장업,영업/정상,서울특별시 중구 신당동 417-6,200745.062779775,450563.196366584,127.00633023241983,37.55734208239882
323,체력단련장업,영업/정상,서울특별시 송파구 송파동 131-1,209884.921018147,445102.270854563,127.10969777381372,37.50808752083989
324,체력단련장업,영업/정상,서울특별시 노원구 중계동 506-1번지 건영옴니백화점,205645.891969072,459609.012509743,127.06186442920179,37.63882671623933
325,체력단련장업,영업/정상,서울특별시 양천구 신정동 1022-9번지,187523.574256064,446408.633352149,126.85676676785548,37.51982483258905
326,체력단련장업,영업/정상,서울특별시 강동구 명일동 312-76,212608.141729557,449916.876103636,127.14057974353491,37.55143372850606
327,체력단련장업,영업/정상,서울특별시 광진구 화양동 45-76번지 지하1층,205790.314656369,448880.151579594,127.06341687786833,37.54216047728535
328,체력단련장업,영업/정상,서울특별시 영등포구 당산동1가 254-20번지,190737.84902102,446674.278542881,126.89312275187395,37.52225635101038
329,체력단련장업,영업/정상,서울특별시 강남구 역삼동 832-21번지 태양21,202684.076430732,443445.258127654,127.02824970856786,37.49320636105
330,체력단련장업,영업/정상,서울특별시 강서구 마곡동 795-5번지 마곡사이언스파크뷰 305호,185517.645986644,450898.354432814,126.8339871560693,37.56024728750955
331,체력단련장업,영업/정상,서울특별시 서초구 서초동 1341-17,202485.040184622,442892.76766647,127.02599722120324,37.488228964375885
332,체력단련장업,영업/정상,서울특별시 양천구 목동 799-8,188372.109543389,447864.750349991,126.86634209124435,37.532955471783595
333,체력단련장업,영업/정상,서울특별시 마포구 아현동 330-4번지,195954.228177552,450532.979367453,126.9521099942242,37.55706091838834
334,체력단련장업,영업/정상,서울특별시 동대문구 답십리동 250-1 3층,204974.829709532,452169.781296696,127.05421148848914,37.57180440038132
335,체력단련장업,영업/정상,서울특별시 노원구 상계동 683번지,205665.271141022,462427.962749735,127.0621056050097,37.6642246329053
336,체력단련장업,영업/정상,서울특별시 관악구 신림동 1421-23번지 프라임빌,193844.960230375,442560.77824654,126.9283058351282,37.48521998245065
337,체력단련장업,영업/정상,서울특별시 강남구 대치동 942-19번지,205096.785,444894.645,127.05554214675425,37.50625532248001
338,체력단련장업,영업/정상,서울특별시 강남구 역삼동 720-22번지 엠코스퀘어720,203638.057223375,444348.300284306,127.03904155873364,37.5013395642759
339,체력단련장업,영업/정상,서울특별시 강남구 개포동 1258-6 유림빌딩,204186.02603407,441875.546752218,127.04522473436361,37.479057772914445
340,체력단련장업,영업/정상,서울특별시 성북구 정릉동 403-9,200829.156091202,456231.922957041,127.00728787420383,37.60841644988915
341,체력단련장업,영업/정상,서울특별시 동작구 사당동 147-29 이수자이,198202.472533419,442471.241038085,126.9775748840838,37.484432301094294
342,체력단련장업,영업/정상,서울특별시 송파구 방이동 206-8 에벤에셀빌딩 지하1층,211015.043196014,445263.409696985,127.12248192868721,37.509526664962294
343,체력단련장업,영업/정상,서울특별시 강남구 논현동 111-37,203488.605002796,446293.679464989,127.03736044879189,37.518867938655255
344,체력단련장업,영업/정상,서울특별시 강남구 삼성동 27-28,204172.856160336,445875.091007593,127.04509816343258,37.51509368227049
345,체력단련장업,영업/정상,서울특별시 영등포구 도림동 269-4 삼영빌딩,190690.263823507,445152.316872463,126.89260385800598,37.50854307317264
346,체력단련장업,영업/정상,서울특별시 노원구 상계동 963-2,204814.166728862,463160.287502488,127.05246418102499,37.670827474345565
347,체력단련장업,영업/정상,서울특별시 서초구 서초동 1332-2 대한무지개종합상가,202216.049985624,443352.024569293,127.02295706559245,37.49236753532716
348,체력단련장업,영업/정상,서울특별시 동대문구 장안동 374-11 진성빌딩,206007.127922129,451838.889985179,127.06589412510125,37.56881703190707
349,체력단련장업,영업/정상,서울특별시 강동구 성내동 381-24 그린빌딩(B1층),211921.382260601,447878.64919626,127.1327750527487,37.533078598422634
350,체력단련장업,영업/정상,서울특별시 강동구 명일동 47-12 고덕복합빌딩(지하 1층) 53호,213607.080568254,450119.168256979,127.15188806515988,37.55324222496603
351,체력단련장업,영업/정상,서울특별시 중랑구 상봉동 118-16,207088.508452371,454739.360770068,127.07816234178074,37.59494223966301
352,체력단련장업,영업/정상,서울특별시 도봉구 쌍문동 723 신원주상복합2차아파트,203089.442773514,461770.488758803,127.03290912784925,37.65831306066863
353,체력단련장업,영업/정상,서울특별시 송파구 문정동 150 올림픽훼밀리타운,210045.748264305,442930.687284628,127.11148729232252,37.48851988731596
354,체력단련장업,영업/정상,서울특별시 송파구 송파동 24-7,209462.513525733,445061.006620464,127.10491978814647,37.50772012705431
355,체력단련장업,영업/정상,서울특별시 성동구 하왕십리동 959-2,202689.659481846,451231.738578721,127.02834065416634,37.56336209009378
356,체력단련장업,영업/정상,서울특별시 영등포구 문래동6가 12,190012.97392274,446472.128374376,126.88492557850685,37.52042738178635
357,체력단련장업,영업/정상,서울특별시 송파구 가락동 167 원일빌딩,211878.793979653,443937.413148924,127.1322299009745,37.49756884514266
358,체력단련장업,영업/정상,서울특별시 강남구 신사동 582-1 한익빌딩,202391.565,447005.45,127.02495329736357,37.52528437497832
359,체력단련장업,영업/정상,서울특별시 동작구 상도동 488 지층23호,195821.72598572,443860.596515691,126.95064891830013,37.49694253026255
360,체력단련장업,영업/정상,서울특별시 광진구 군자동 49-17,206619.115791211,450332.401386036,127.0728079152839,37.555239593214814
361,체력단련장업,영업/정상,서울특별시 마포구 공덕동 30-3,196452.878522319,449795.863515872,126.95775708844899,37.55042166480947
362,체력단련장업,영업/정상,서울특별시 금천구 독산동 159-23 영진빌딩,190977.311600226,441050.381486049,126.89590102937326,37.47158755340169
363,체력단련장업,영업/정상,서울특별시 강남구 역삼동 696-18,204147.750420672,444820.386234652,127.04480833405472,37.505590936457345
364,체력단련장업,영업/정상,서울특별시 강서구 내발산동 657 우장산힐스테이트,185813.15048215,450434.088151226,126.8373406691134,37.55606892852075
365,체력단련장업,영업/정상,서울특별시 관악구 신림동 668-11 큰믿음유신교회,192801.169043857,440080.722096024,126.91652851608177,37.46286701876946
366,체력단련장업,영업/정상,서울특별시 노원구 하계동 273 장미아파트,205920.87114808,459040.420031177,127.06497535298182,37.63370211678761
367,체력단련장업,영업/정상,서울특별시 종로구 내수동 95 경희궁 파크팰리스 103호,197329.898847331,452432.501606302,126.96767204582927,37.57418050305862
368,체력단련장업,영업/정상,서울특별시 강남구 논현동 242-17,203529.888841836,445973.273093836,127.03782592979734,37.515980936392744
369,체력단련장업,영업/정상,서울특별시 송파구 석촌동 296-19,209565.754258618,444358.646160107,127.10607837299833,37.50139082748982
370,체력단련장업,영업/정상,서울특별시 중랑구 신내동 565-1,208416.034548762,455911.383454322,127.09320756132087,37.605490869259874
371,체력단련장업,영업/정상,서울특별시 강남구 삼성동 109 NSC빌딩,205540.444788723,445910.439198885,127.06056741577306,37.5154050694614
372,체력단련장업,영업/정상,서울특별시 성동구 도선동 257,202831.929485459,451207.501854738,127.02995083711359,37.563143303698105
373,체력단련장업,영업/정상,서울특별시 마포구 공덕동 254-8 별정우체국연합회빌딩지하1층,195775.018463291,449299.521405982,126.95008899845307,37.545946762823824
374,체력단련장업,영업/정상,서울특별시 금천구 독산동 143-0012번지,190933.601554233,441662.481512797,126.89539932194418,37.47710215148945
375,체력단련장업,영업/정상,서울특별시 은평구 응암동 111-1 송원하이본  2층,192763.260384541,455242.859775175,126.91594937909548,37.59947652054639
376,체력단련장업,영업/정상,"서울특별시 은평구 응암동 88-11번지 빛터룩스 빌딩, 4층",193055.119702533,455445.92391997,126.91925242044718,37.60130836164044
377,체력단련장업,영업/정상,서울특별시 금천구 시흥동 1031번지,190718.377249788,439322.42742435,126.89299579120848,37.45601605884438
378,체력단련장업,영업/정상,서울특별시 노원구 중계동 423-40번지 태인빌딩,206324.595951422,461091.913391026,127.06956676099834,37.65218292132242
379,체력단련장업,영업/정상,서울특별시 광진구 구의동 611 강변상가 지하1층,208403.746065593,448490.239179557,127.09298400951184,37.538627474248706
380,체력단련장업,영업/정상,"서울특별시 강서구 화곡동 982-17번지 크라운뷰, 크라운타워 15층 일부호",186456.187657133,449645.45192818,126.84463273017434,37.54897313182392
381,체력단련장업,영업/정상,서울특별시 송파구 장지동 881-5 에스비트램스퀘어,212569.252309346,442123.304850852,127.14000712177928,37.48121468368919
382,체력단련장업,영업/정상,서울특별시 강남구 역삼동 773-6 아폴로빌딩,203902.605,443874.3,127.04203087600042,37.497067766813345
383,체력단련장업,영업/정상,서울특별시 송파구 석촌동 240-6번지,208977.297090718,444133.372859489,127.09942074610386,37.49936698652503
384,체력단련장업,영업/정상,"서울특별시 강서구 마곡동 776 마곡파크뷰대방디엠시티오피스텔 209~211, 213~223호",185740.216641551,451837.646781936,126.83648785394399,37.568713658059764
385,체력단련장업,영업/정상,서울특별시 동대문구 장안동 370-3,206151.125680328,452213.555840243,127.06752718220665,37.572191783737956
386,체력단련장업,영업/정상,서울특별시 강남구 청담동 53번지 우산빌딩,204616.689378124,446928.436357824,127.05012494626042,37.52458219327982
387,체력단련장업,영업/정상,서울특별시 강남구 논현동 17-5 극동빌딩,201733.702293954,445858.012764071,127.01750849861897,37.51494744003105
388,체력단련장업,영업/정상,서울특별시 송파구 가락동 49번지,210627.769729264,443992.014053375,127.11808350475707,37.49807594924388
389,체력단련장업,영업/정상,서울특별시 송파구 문정동 150-32번지 청기와빌딩,210152.595873327,443206.48469995,127.11269920933566,37.49100365788389
390,체력단련장업,영업/정상,서울특별시 구로구 구로동 8-16번지,190146.813085852,444800.352870029,126.88646209979413,37.505366215450856
391,체력단련장업,영업/정상,서울특별시 관악구 봉천동 1679-7번지,196387.83963757,441884.686807457,126.95706062573393,37.479142003160426
392,체력단련장업,영업/정상,서울특별시 강동구 길동 137-2,212965.785141433,448321.785705448,127.14459902906597,37.53705720375484
393,체력단련장업,영업/정상,서울특별시 영등포구 문래동6가 56-1번지 미주프라자아파트,190089.042392341,446237.835338274,126.88578923831474,37.51831724075485
394,체력단련장업,영업/정상,서울특별시 마포구 망원동 386-3번지,192063.09469755,450271.962687109,126.90807502537218,37.55468362566686
395,체력단련장업,영업/정상,서울특별시 영등포구 문래동3가 82-12번지,190370.584558484,446420.19757582,126.88897152996664,37.51996331314473
396,체력단련장업,영업/정상,서울특별시 용산구 한남동 736-8번지 3층,199766.158165623,448048.145770696,126.9952524717322,37.53468188861009
397,체력단련장업,영업/정상,서울특별시 중랑구 면목동 17-34 광진빌딩,208508.02689248,454127.818163908,127.09422879622582,37.58942041797646
398,체력단련장업,영업/정상,서울특별시 중랑구 신내동 613-8,208500.41409861,456116.213868842,127.09416550340869,37.60733558310961
399,체력단련장업,영업/정상,서울특별시 송파구 잠실동 316-6 202호,207396.416849098,444682.105012443,127.08154841534069,37.504324949905254
400,체력단련장업,영업/정상,서울특별시 강남구 논현동 58-3 삼익악기 빌딩,202510.175626955,445767.512366594,127.0262909840786,37.51413030426923
401,체력단련장업,영업/정상,서울특별시 강북구 미아동 860-241,202668.268339767,456688.202197667,127.02811792727866,37.612524076331184
402,체력단련장업,영업/정상,서울특별시 성동구 성수동1가 656-75,203835.001061826,449508.116206891,127.04129527739838,37.54782845147794
403,체력단련장업,영업/정상,서울특별시 마포구 아현동 618-19번지 마포 센텀 슬로우스퀘어,195829.955210361,449860.57540675,126.95070741605514,37.55100206264158
404,체력단련장업,영업/정상,서울특별시 서초구 서초동 1640-8 맥스빌딩,201637.516510302,443495.624138964,127.01641547846874,37.49366253325804
405,체력단련장업,영업/정상,서울특별시 은평구 불광동 554-1 불광동라비앙프라자 지층,193936.125681025,456673.805557751,126.92921880944685,37.61237763764338
406,체력단련장업,영업/정상,서울특별시 용산구 한남동 261-6번지 4층 402호,200648.866223783,447953.839063087,127.00523944838113,37.53383205443301
407,체력단련장업,영업/정상,서울특별시 광진구 구의동 206-12 B1층,208245.744308586,448758.725769257,127.09119925960712,37.54104793035809
408,체력단련장업,영업/정상,서울특별시 종로구 내수동 95번지 경희궁 파크팰리스,197329.898847331,452432.501606302,126.96767204582927,37.57418050305862
409,체력단련장업,영업/정상,서울특별시 송파구 오금동 23-3번지,211354.564021281,445041.385740452,127.12631859697547,37.507522151077886
410,체력단련장업,영업/정상,서울특별시 마포구 서교동 394-25 동양한강트레벨,192402.468624287,449701.62502855,126.91192171180538,37.54954782504409
411,체력단련장업,영업/정상,서울특별시 마포구 합정동 362-1,192665.897224163,449510.335753547,126.91490468671401,37.54782647848239
412,체력단련장업,영업/정상,서울특별시 노원구 상계동 1139-2번지,204639.661195599,464003.782684071,127.05049149536579,37.678428011988366
413,체력단련장업,영업/정상,서울특별시 강북구 수유동 48-1 제네스타워,201947.420117151,459116.426726053,127.01995993228844,37.63440364427743
414,체력단련장업,영업/정상,서울특별시 서대문구 창천동 5-1 에스프리,194652.790139971,450729.504638327,126.93737954367818,37.558824868838364
415,체력단련장업,영업/정상,서울특별시 동대문구 회기동 60-22번지,204592.075929666,454316.093085917,127.04989208207975,37.59114432690505
416,체력단련장업,영업/정상,서울특별시 영등포구 문래동5가 19-12번지 전일빌딩,189842.356352967,445953.232331931,126.8830027780138,37.51575028539584
417,체력단련장업,영업/정상,서울특별시 중랑구 상봉동 500 상봉 프레미어스 엠코,207923.745922676,455090.718335439,127.08762368028492,37.598101159737865
418,체력단련장업,영업/정상,서울특별시 서초구 서초동 1573-14 웅진타워,201068.542900042,443409.058378452,127.00998145541007,37.49288336952007
419,체력단련장업,영업/정상,서울특별시 양천구 목동 406-22번지 메이동,188851.726337894,446963.292684463,126.87178214041367,37.52483936285995
420,체력단련장업,영업/정상,서울특별시 양천구 목동 752-10번지 청우빌딩,188665.968505021,448405.568239105,126.8696583665078,37.537831869331434
421,체력단련장업,영업/정상,서울특별시 강남구 논현동 235-9번지,203024.74019025,445079.736467472,127.0321084560658,37.507931958148546
422,체력단련장업,영업/정상,서울특별시 용산구 남영동 17-1번지 참빛빌딩 지하1층,197504.647924839,449160.021904876,126.96966163436086,37.54469630673081
423,체력단련장업,영업/정상,서울특별시 서대문구 연희동 188-69 삼원빌딩,193761.529828367,451630.094981301,126.92728474907082,37.5669334199264
424,체력단련장업,영업/정상,서울특별시 강남구 대치동 931-26 우석빌딩,205221.007465512,444223.176205281,127.05694237360025,37.50020471810112
425,체력단련장업,영업/정상,서울특별시 송파구 방이동 226-5번지 우성빌딩,210632.254327228,444930.651701901,127.11814769848317,37.50653299004587
426,체력단련장업,영업/정상,서울특별시 광진구 중곡동 80-9,207738.692885355,450504.538638137,127.0854801936155,37.556781891576804
427,체력단련장업,영업/정상,서울특별시 강남구 청담동 85-2번지 유리빌딩,203476.17471816,447004.189243058,127.03722313826339,37.52526964348148
428,체력단련장업,영업/정상,서울특별시 영등포구 문래동3가 55-20번지 에이스하이테크시티,190996.357288859,445841.377603245,126.8960573231874,37.514754535692916
429,체력단련장업,영업/정상,서울특별시 송파구 거여동 21-3번지 거여정형외과,212563.446985938,443552.636333976,127.13996574627939,37.494093009506265
430,체력단련장업,영업/정상,서울특별시 강남구 논현동 111-27번지,203525.599581745,446221.432922059,127.03777858083176,37.51821686243777
431,체력단련장업,영업/정상,서울특별시 송파구 잠실동 205-1,207301.494494407,445260.354411786,127.08048057797222,37.50953570710824
432,체력단련장업,영업/정상,서울특별시 성북구 정릉동 408-3,200820.449805299,456114.852392023,127.00718915235228,37.60736167217503
433,체력단련장업,영업/정상,서울특별시 강서구 가양동 1480-6번지 탐라영재관 지하1층,186920.98482785,451175.097220108,126.84986508689593,37.56276178038378
434,체력단련장업,영업/정상,서울특별시 강남구 역삼동 705-25 APEXTOWER,204201.673896874,444786.125869275,127.04541800028755,37.50528201139083
435,체력단련장업,영업/정상,서울특별시 강남구 논현동 164 영동빌딩,201962.838798283,445158.311972517,127.02009848424079,37.50864271494025
436,체력단련장업,영업/정상,서울특별시 강남구 대치동 1021-4번지 미즈메디병원,205228.619831148,444001.871806806,127.05702690823948,37.49821072642456
437,체력단련장업,영업/정상,서울특별시 강서구 화곡동 1076-14 힐탑빌딩,185925.07322188,448730.220138329,126.83864014396123,37.54071900971295
438,체력단련장업,영업/정상,서울특별시 송파구 문정동 75-9 지하1층,211132.533390588,442002.841604704,127.12376175346968,37.48014762950426
439,체력단련장업,영업/정상,서울특별시 영등포구 영등포동2가 94-212 명화오피스텔,192078.928295627,446561.226671922,126.90829455372948,37.52125033659026
440,체력단련장업,영업/정상,서울특별시 강남구 도곡동 538-1,204593.143677064,443737.546544287,127.04983893898631,37.495832492619776
441,체력단련장업,영업/정상,서울특별시 강서구 마곡동 743-4 마곡엠밸리7단지,184333.032124285,451471.100985376,126.82056751466146,37.565388190159695
442,체력단련장업,영업/정상,서울특별시 은평구 대조동 185-11 우리은행연신내지점,193009.632639549,457285.361095322,126.91871958857836,37.617880993694044
443,체력단련장업,영업/정상,서울특별시 중구 회현동1가 100-38,198189.170003087,450479.972509334,126.97740405241771,37.556590587532845
444,체력단련장업,영업/정상,서울특별시 강서구 등촌동 641-3,187333.403225993,450493.44980781,126.85454479336171,37.55662601688813
445,체력단련장업,영업/정상,서울특별시 구로구 신도림동 435-10 신도림3차푸르지오아파트 213호,189681.453330502,444964.854981166,126.88119671951627,37.506843258415046
446,체력단련장업,영업/정상,서울특별시 은평구 대조동 201-18 지하1층동,192925.044821539,457155.332469379,126.91776275749586,37.61670880938882
447,체력단련장업,영업/정상,서울특별시 은평구 진관동 72 드림스퀘어 지층,192812.253774617,459266.981388393,126.91646428992037,37.63573342767347
448,체력단련장업,영업/정상,서울특별시 은평구 진관동 72 드림스퀘어 3층,192812.253774617,459266.981388393,126.91646428992037,37.63573342767347
449,체력단련장업,영업/정상,서울특별시 은평구 갈현동 498-4번지 구산빌딩 5층,192166.504347874,456841.083566889,126.90917453425475,37.61387128992126
450,체력단련장업,영업/정상,"서울특별시 은평구 대조동 14-19 지층,1층,2층",193697.548096273,456437.101098654,126.9265187732525,37.61024335552769
451,체력단련장업,영업/정상,서울특별시 은평구 갈현동 527-3 2층,192038.762729659,456899.702259402,126.90772708003803,37.61439832711421
452,체력단련장업,영업/정상,서울특별시 은평구 역촌동 85-41 리더스파크 지층,192453.775146373,455222.314775578,126.91244501394245,37.59928890677924
453,체력단련장업,영업/정상,서울특별시 은평구 신사동 35-20 동현빌딩 3층,192318.383820956,454552.507165347,126.91091894397017,37.59325292549152
454,체력단련장업,영업/정상,서울특별시 은평구 진관동 79-15번지 4층,192694.92374224,459461.236119623,126.91513305312583,37.6374826845283
455,체력단련장업,영업/정상,서울특별시 은평구 응암동 600-2 2.3층,192576.600496455,454123.137809564,126.91384710744231,37.58938651388184
456,체력단련장업,영업/정상,서울특별시 은평구 불광동 248 미성아파트 상가 지층,193600.888431741,456957.233580498,126.92541945760102,37.61492897479722
457,체력단련장업,영업/정상,서울특별시 은평구 대조동 198-10 대조동아트캐슬주상복합 지층,192879.28604388,457277.268887329,126.91724327286575,37.61780707559145
458,체력단련장업,영업/정상,서울특별시 은평구 대조동 172-56 삼두빌딩 3,192878.231077703,456390.096030337,126.91724003521675,37.609813814459066
459,체력단련장업,영업/정상,서울특별시 은평구 응암동 119-29 마이유아파트 상가동,192676.151253818,454770.723478469,126.91496772692217,37.595221958604114
460,체력단련장업,영업/정상,서울특별시 은평구 응암동 107-12번지 성림빌딩,192870.501728417,454964.617583552,126.9171665020427,37.596970450889344
461,체력단련장업,영업/정상,"서울특별시 은평구 역촌동 1-40 대지빌딩 지하1층 외 1개소(은평로 147, 미주빌딩 3층)",192624.880996241,456445.22780372,126.91437016775986,37.610308527569394
462,체력단련장업,영업/정상,서울특별시 은평구 증산동 223-13번지 지층,191157.444317911,452924.117735363,126.89779347612448,37.578570895574174
463,체력단련장업,영업/정상,서울특별시 은평구 진관동 72 드림스퀘어,192812.253774617,459266.981388393,126.91646428992037,37.63573342767347
464,체력단련장업,영업/정상,서울특별시 은평구 응암동 96-1 상현빌딩 5층,193475.567133743,455434.54525995,126.92401374361062,37.60120894786156
465,체력단련장업,영업/정상,서울특별시 은평구 갈현동 508-10번지 부성빌딩 2층,192073.261950682,456906.775318115,126.90811774637938,37.61446235428448
466,체력단련장업,영업/정상,서울특별시 은평구 응암동 427-126번지 2동,192738.381117433,454678.898500315,126.91567328969585,37.59439512829487
467,체력단련장업,영업/정상,서울특별시 은평구 대조동 3-51번지,193531.796024493,456579.190669557,126.92464027478371,37.61152239355487
468,체력단련장업,영업/정상,서울특별시 은평구 역촌동 55-35,192044.761304931,455888.07011424,126.90780610448715,37.60528376894397
469,체력단련장업,영업/정상,서울특별시 은평구 역촌동 85-47번지 6층,192410.57309614,455199.275141542,126.91195604044985,37.599080965494906
470,체력단련장업,영업/정상,서울특별시 은평구 응암동 74-6번지 3층,193780.199552365,455421.910310391,126.92746355893115,37.60109723957188
471,체력단련장업,영업/정상,서울특별시 은평구 응암동 98-50 2층,193177.15490721,455343.762343579,126.92063532935644,37.600388825109036
472,체력단련장업,영업/정상,서울특별시 은평구 응암동 117-33 4층,192787.942440993,454899.965319994,126.91623228281958,37.59638729612332
473,체력단련장업,영업/정상,서울특별시 은평구 역촌동 63-1 2층,192457.564419102,455746.317317115,126.9124824798147,37.60401010712905
474,체력단련장업,영업/정상,서울특별시 은평구 갈현동 456-28번지 성보빌딩,192799.615219713,457260.536260331,126.91634103337786,37.61765569223148
475,체력단련장업,영업/정상,서울특별시 은평구 응암동 81-208번지 왕자빌딩,193623.626700871,455443.220023231,126.92569031780573,37.60128815397731
476,체력단련장업,영업/정상,서울특별시 은평구 불광동 311-13번지 메트로타워 6층,192998.202204135,457479.99522553,126.9185882398322,37.61963451975199
477,체력단련장업,영업/정상,서울특별시 은평구 대조동 3-81번지 3층,193558.140551069,456609.467466936,126.9249383765065,37.61179536837191
478,체력단련장업,영업/정상,서울특별시 은평구 불광동 494-4,192920.307362469,458173.797484836,126.91769915262469,37.625884930390534
479,체력단련장업,영업/정상,서울특별시 은평구 신사동 342-16번지 3층,192032.688797464,454157.26727102,126.90768836595404,37.58968943106932
480,체력단련장업,영업/정상,서울특별시 은평구 응암동 산 6-46 은평청소년수련관,193296.575447024,454661.150941475,126.92199395944222,37.594239498493934
481,체력단련장업,영업/정상,서울특별시 은평구 대조동 14-1번지,193687.83561561,456469.658454439,126.92640849061189,37.61053662387221
482,체력단련장업,영업/정상,서울특별시 은평구 불광동 105-114번지,193614.057037,457947.618710253,126.92555987663658,37.62385223565974
483,체력단련장업,영업/정상,서울특별시 은평구 역촌동 30-29 효성빌딩 2층,192747.460555813,455697.044769414,126.91576592521332,37.603568520955406
484,체력단련장업,영업/정상,서울특별시 은평구 응암동 402-5번지 합도빌딩 4층,192923.135768384,454548.951047943,126.91776655687084,37.593225774998906
485,체력단련장업,영업/정상,서울특별시 은평구 갈현동 451-1번지,192533.245686036,457523.059641315,126.91332125595135,37.62001883164231
486,체력단련장업,영업/정상,서울특별시 은평구 응암동 107-2번지 선주빌딩,192911.094860983,455017.903987896,126.91762563866214,37.59745086861402
487,체력단련장업,영업/정상,서울특별시 은평구 갈현동 505-22,192371.83474486,457163.845813163,126.91149672927885,37.616781052918455
488,체력단련장업,영업/정상,서울특별시 은평구 응암동 577-16 명남더블레스아파트2차 204호,192604.061969651,454327.478887735,126.91415595568802,37.59122781694374
489,체력단련장업,영업/정상,서울특별시 은평구 신사동 40-1번지 5층,191923.49703773,454863.018813635,126.90644420932124,37.596047175581724
490,체력단련장업,영업/정상,서울특별시 구로구 오류동 41-1번지 상임빌딩,186007.312716503,443745.761118258,126.83966596958105,37.49581066809499
491,체력단련장업,영업/정상,서울특별시 성동구 옥수동 218-1,201084.709621627,448714.038805333,127.01017162613448,37.54068102201031
492,체력단련장업,영업/정상,서울특별시 동대문구 장안동 216-32번지,205491.791728329,451545.108125857,127.06005872749337,37.56617327222837
493,체력단련장업,영업/정상,서울특별시 강남구 청담동 131-14번지,204922.831255787,446760.802619735,127.05358709126874,37.52307026142879
494,체력단련장업,영업/정상,서울특별시 송파구 장지동 881번지 아이온스퀘어,212524.306739955,442109.564102077,127.13949873453768,37.48109148660835
495,체력단련장업,영업/정상,서울특별시 도봉구 창동 581-71번지,203383.359766028,459756.215388608,127.03623089123177,37.64016393380761
496,체력단련장업,영업/정상,서울특별시 강남구 논현동 81-2번지,202633.810139788,445952.688573092,127.02769006110252,37.51579839934978
497,체력단련장업,영업/정상,서울특별시 서대문구 남가좌동 347-2번지 우리은행,193094.388980958,452781.177093201,126.91972246113411,37.577299713301365
498,체력단련장업,영업/정상,서울특별시 강남구 역삼동 790-12번지,203349.373157466,443652.51869756,127.03577370506906,37.49507165190009
499,체력단련장업,영업/정상,서울특별시 양천구 목동 810-1 타운빌딩,187948.252898047,447246.938313599,126.86155684279156,37.52738356926982
500,체력단련장업,영업/정상,서울특별시 관악구 봉천동 1686-14번지 남정빌,196664.276957944,441702.736700471,126.96018678936498,37.4775036873005
501,체력단련장업,영업/정상,서울특별시 송파구 잠실동 181-3 효창타워,207153.675,445475.165,127.07881076570992,37.51147228916074
502,체력단련장업,영업/정상,서울특별시 중구 신당동 855번지 신당 파인힐 하나유보라,202131.747052459,451330.482879118,127.02202623427223,37.56425318547292
503,체력단련장업,영업/정상,서울특별시 영등포구 문래동3가 77-58번지,190143.292606048,446232.458856558,126.8864029682106,37.51826938358398
504,체력단련장업,영업/정상,서울특별시 강남구 삼성동 29번지,203942.211798097,445791.280595921,127.04248886989839,37.5143395511542
505,체력단련장업,영업/정상,서울특별시 종로구 공평동 5-1,198493.358663851,452139.024770523,126.98084312900197,37.571539032224905
506,체력단련장업,영업/정상,서울특별시 관악구 봉천동 876-1번지 그린피아오피스텔,195531.953701324,442060.794689435,126.94738313348513,37.48072493782464
507,체력단련장업,영업/정상,서울특별시 마포구 서교동 392-1 송원빌딩,192537.71833041,449940.982366261,126.91344978926985,37.551705524502935
508,체력단련장업,영업/정상,서울특별시 강북구 미아동 682-11번지 젬스톤프라자,201839.42546198,457342.214452314,127.01873213349637,37.618418574339984
509,체력단련장업,영업/정상,서울특별시 광진구 중곡동 166-7 2층,207328.590556027,451452.694742265,127.08084827429936,37.56532799135791
510,체력단련장업,영업/정상,서울특별시 양천구 목동 907번지 현대월드타워,189151.208015925,448200.067716589,126.87515168762695,37.535986196178
511,체력단련장업,영업/정상,서울특별시 강서구 공항동 53-41 3층 좌측호,183166.343309141,450992.871859483,126.80737314479306,37.561058768869685
512,체력단련장업,영업/정상,서울특별시 강서구 화곡동 105-68 더와이즈황병원,186055.847417953,448886.827025747,126.84011686350321,37.54213201569619
513,체력단련장업,영업/정상,서울특별시 마포구 상암동 1648 S-PLEX CENTER,190217.044298752,452599.632380465,126.88715182747188,37.57563775749889
514,체력단련장업,영업/정상,서울특별시 동대문구 전농동 32-4번지 전농동하우스토리,205102.874915953,452765.708982856,127.05566501804425,37.57717293933177
515,체력단련장업,영업/정상,서울특별시 강남구 청담동 1-10번지,203478.068514665,446692.797090357,127.03724311615531,37.52246400907622
516,체력단련장업,영업/정상,서울특별시 송파구 잠실동 19-9번지 잠실파인애플상가,207373.50021477,445545.656024061,127.08129781896768,37.51210569660913
517,체력단련장업,영업/정상,서울특별시 관악구 봉천동 196-11 스카이빌,196751.039984113,441401.929194321,126.96116903935024,37.47479371999162
518,체력단련장업,영업/정상,서울특별시 동대문구 장안동 369-2번지,206199.354351212,452193.577797234,127.06807295247633,37.57201146430216
519,체력단련장업,영업/정상,서울특별시 송파구 가락동 77-4번지 송파KCC웰츠타워,210732.145627948,443731.087627262,127.11926006394336,37.49572380990707
520,체력단련장업,영업/정상,서울특별시 성동구 옥수동 563,201174.525137191,449381.829890148,127.01118889909492,37.546697662713996
521,체력단련장업,영업/정상,서울특별시 중구 흥인동 91번지 흥화브라운 오피스텔,201432.508538399,451502.723372591,127.0141121719421,37.565806356041186
522,체력단련장업,영업/정상,"서울특별시 관악구 신림동 1515-5 신림빌딩 지하1층, 2~3층",194289.280781099,440925.014818541,126.93334242637475,37.470484611478504
523,체력단련장업,영업/정상,서울특별시 관악구 신림동 1421-63,193761.462122181,442552.376302214,126.92736182452798,37.4851437152728
524,체력단련장업,영업/정상,서울특별시 강남구 신사동 628-38번지,202739.392534402,446641.84237763,127.02888683736393,37.522007345866996
525,체력단련장업,영업/정상,서울특별시 광진구 자양동 65-1번지 2층,205877.28221374,447919.248318372,127.06439333207909,37.53350226828237
526,체력단련장업,영업/정상,서울특별시 동대문구 청량리동 235-4번지 미주상가,204089.817117361,453314.135663101,127.04419968161378,37.58211917187196
527,체력단련장업,영업/정상,서울특별시 노원구 상계동 746-5번지 상계주공2단지아파트,205341.384982763,460838.369137318,127.0584232810842,37.649904723876986
528,체력단련장업,영업/정상,서울특별시 강남구 도곡동 419-1 성일빌딩,203970.951080957,442600.64512751,127.04279700475315,37.48559185202459
529,체력단련장업,영업/정상,서울특별시 강남구 논현동 262번지,203190.428796333,445533.744911971,127.03398433428961,37.51202201490774
530,체력단련장업,영업/정상,서울특별시 마포구 합정동 372-22 무림빌딩,192296.161867119,449554.516819348,126.91072026509798,37.5482215051142
531,체력단련장업,영업/정상,서울특별시 은평구 불광동 281-44 3층,193834.170862258,456581.908046674,126.92806486614916,37.61154897389367
532,체력단련장업,영업/정상,서울특별시 구로구 개봉동 182-1번지,187532.10017459,443629.732466344,126.85691054763787,37.494787194887984
533,체력단련장업,영업/정상,서울특별시 강남구 신사동 592-4번지 이가빌딩,202452.945,446665.43,127.02564656514747,37.522220654916666
534,체력단련장업,영업/정상,서울특별시 성동구 옥수동 284-14 동호빌딩,201202.208263001,449016.791086853,127.01150159357506,37.54340865924047
535,체력단련장업,영업/정상,서울특별시 동대문구 휘경동 278,205229.857207209,454099.756555333,127.05711192547672,37.589191811461646
536,체력단련장업,영업/정상,서울특별시 동대문구 휘경동 278,205229.857207209,454099.756555333,127.05711192547672,37.589191811461646
537,체력단련장업,영업/정상,서울특별시 양천구 목동 405-251번지 협성빌딩,188854.777756378,446887.247767162,126.87181781949353,37.52415424073513
538,체력단련장업,영업/정상,"서울특별시 강서구 등촌동 648-6 비원오피스텔 15층 1502,1503호",187999.32555627,449920.361168751,126.86209071467488,37.55147151362701
539,체력단련장업,영업/정상,서울특별시 강남구 신사동 662-13번지 신사동 S빌딩,203369.459868674,447208.050376621,127.03601682385629,37.52710680950853
540,체력단련장업,영업/정상,서울특별시 영등포구 여의도동 17-6번지,192574.919411037,447224.785909095,126.91389847611694,37.52723312326972
541,체력단련장업,영업/정상,서울특별시 영등포구 양평동3가 5-4 에이스 하이테크시티3,190325.849378028,447033.873479894,126.88845736249097,37.525492022707276
542,체력단련장업,영업/정상,서울특별시 양천구 목동 923번지 세신비젼프라자 509호,188494.598982992,447318.660520705,126.86773651161039,37.52803679193673
543,체력단련장업,영업/정상,서울특별시 동대문구 장안동 143-40,205949.712234311,452227.219417727,127.06524733817092,37.57231619932083
544,체력단련장업,영업/정상,서울특별시 서초구 반포동 95-8번지,199763.867107857,443979.670080782,126.99522821300665,37.49802507471634
545,체력단련장업,영업/정상,서울특별시 서초구 서초동 1633-4번지,201904.777194002,443230.687486859,127.01943697707031,37.49127496068218
546,체력단련장업,영업/정상,서울특별시 강서구 마곡동 760 마곡나루역보타닉푸르지오시티 지층 B-104~B-110호,184646.580818167,451684.726858384,126.824111986235,37.56731822465169
547,체력단련장업,영업/정상,서울특별시 마포구 대흥동 436-1번지 상수라이크,194965.128163652,449297.139445195,126.94092445685222,37.54592117905521
548,체력단련장업,영업/정상,서울특별시 중구 황학동 1596,201985.829607973,451869.587314453,127.02037606878598,37.5691107698977
549,체력단련장업,영업/정상,서울특별시 금천구 가산동 550-1 IT캐슬,189369.53962474,441629.361414684,126.87771746323192,37.476786969547604
550,체력단련장업,영업/정상,서울특별시 중구 남대문로5가 84-11번지 연세대학교 세브란스빌딩,197612.995083649,450539.857693464,126.97088304159847,37.55712879486949
551,체력단련장업,영업/정상,서울특별시 광진구 화양동 21-2번지 2층,205988.468227018,449527.769210707,127.065664255006,37.547994203961004
552,체력단련장업,영업/정상,서울특별시 광진구 광장동 463-3번지 6층,208808.837959863,448909.278896127,127.097572485397,37.542399234273695
553,체력단련장업,영업/정상,서울특별시 관악구 봉천동 853-4 오선빌딩,195817.34218676,442059.746521611,126.95060973053901,37.480716849016424
554,체력단련장업,영업/정상,서울특별시 강서구 가양동 1498 강서한강자이타워,186501.233192961,451485.251875922,126.84510847408976,37.56555014784176
555,체력단련장업,영업/정상,서울특별시 강서구 등촌동 699-2 보고시티프라자,186334.465,450856.325,126.8432326393159,37.55988113682821
556,체력단련장업,영업/정상,서울특별시 성북구 하월곡동 35-5 우성빌딩,203607.427311405,455469.002756202,127.03874883339685,37.60153617069067
557,체력단련장업,영업/정상,서울특별시 강북구 수유동 95-7 수유동 이테크밸리 오피스텔,201942.872328818,459046.125539538,127.01990822886361,37.63377025529885
558,체력단련장업,영업/정상,서울특별시 광진구 중곡동 88-35,207991.17997472,450479.894025307,127.08833743290415,37.55655770993944
559,체력단련장업,영업/정상,서울특별시 성북구 동소문동6가 221 서울빌딩,201334.10755596,454688.693523135,127.0130039074287,37.594511654927786
560,체력단련장업,영업/정상,서울특별시 강남구 논현동 221-13,202856.865,445289.275,127.03021057213009,37.509820417482125
561,체력단련장업,영업/정상,서울특별시 강동구 천호동 51-7 남해빌딩,212376.206725401,448791.071403727,127.13793615108287,37.54129347808925
562,체력단련장업,영업/정상,서울특별시 강남구 청담동 85-7,203480.768879528,446892.111759277,127.03727458965267,37.52425981423349
563,체력단련장업,영업/정상,서울특별시 강서구 마곡동 747 마곡엠밸리10단지,183968.906835987,450822.830988735,126.81646031462711,37.559541090222716
564,체력단련장업,영업/정상,서울특별시 강남구 신사동 582-8,202411.772269906,446961.607227637,127.0251817558272,37.524889302699506
565,체력단련장업,영업/정상,서울특별시 서대문구 북가좌동 333-4,192265.483982512,453388.302420115,126.91033235236603,37.58276317887735
566,체력단련장업,영업/정상,서울특별시 영등포구 신길동 2363 메트하임,192558.271784626,444233.81892942,126.9137406669999,37.500284506184805
567,체력단련장업,영업/정상,서울특별시 강남구 역삼동 723-31 역삼동제이빌딩,203599.729036396,444220.516917222,127.038607488742,37.5001883856306
568,체력단련장업,영업/정상,서울특별시 광진구 자양동 681-15,207529.873230795,447780.304781214,127.08308919704089,37.53223850554502
569,체력단련장업,영업/정상,서울특별시 동대문구 용두동 119-1,202672.572284882,452819.875924154,127.02815290117564,37.57767106241875
570,체력단련장업,영업/정상,서울특별시 서대문구 남가좌동 325-2,193286.753535499,452988.305540655,126.92189821672899,37.57916734682775
571,체력단련장업,영업/정상,서울특별시 송파구 방이동 149-1 금복빌딩,209978.655449734,445545.759644926,127.1107638938627,37.51208233338426
572,체력단련장업,영업/정상,서울특별시 관악구 신림동 1444-5,193298.614436816,443046.676737015,126.92212404005907,37.48959408937209
573,체력단련장업,영업/정상,서울특별시 마포구 염리동 161-5,195136.236973618,449205.036746034,126.94286130764448,37.54509227196589
574,체력단련장업,영업/정상,서울특별시 영등포구 당산동3가 395-4,190671.21492202,447183.141872461,126.8923624706198,37.526840500356265
575,체력단련장업,영업/정상,서울특별시 광진구 화양동 132-6,206161.393082977,449458.218401377,127.0676205139691,37.54736643050125
576,체력단련장업,영업/정상,서울특별시 마포구 상암동 1293 태림펜트윈,190827.143446737,452750.404281321,126.89405642002203,37.57700250990185
577,체력단련장업,영업/정상,서울특별시 노원구 공릉동 221-2 반야빌딩 5층,206997.322869606,458108.989277753,127.07716174209527,37.625302643360676
578,체력단련장업,영업/정상,서울특별시 중구 초동 72-10,199128.553284601,451340.595494209,126.98803434608071,37.56434614210716
579,체력단련장업,영업/정상,서울특별시 강남구 도곡동 417-7,203898.458853513,442525.776567355,127.04197696747791,37.484917589286646
580,체력단련장업,영업/정상,서울특별시 강남구 청담동 120,204176.439679621,446972.572904212,127.04514483503854,37.52498192765824
581,체력단련장업,영업/정상,서울특별시 강남구 역삼동 754-2 도곡프라자,204170.278135097,444036.656041328,127.04505874319135,37.498529441968905
582,체력단련장업,영업/정상,서울특별시 성동구 성수동2가 317-4 청운재,204993.190198642,449015.529617758,127.0543981404294,37.54338482619668
583,체력단련장업,영업/정상,서울특별시 용산구 이태원동 183-1 동호프라자.외환은행,199041.320145125,448036.15029742,126.98705159506387,37.53457329111409
584,체력단련장업,영업/정상,서울특별시 강동구 암사동 502-4 암사동정웅빌딩,211141.800285217,449846.756759437,127.12398467473623,37.550820743149835
585,체력단련장업,영업/정상,서울특별시 강서구 마곡동 798-17,184517.238084937,450700.675002247,126.82266881008978,37.55844989406908
586,체력단련장업,영업/정상,서울특별시 동작구 사당동 708-435,198247.5751802,442681.816492266,126.97808431877655,37.486329677676025
587,체력단련장업,영업/정상,서울특별시 종로구 당주동 171,197697.555520377,452045.21198934,126.9718351974044,37.57069208989085
588,체력단련장업,영업/정상,서울특별시 서초구 방배동 438-14,198367.956597525,442294.805432186,126.97944633977357,37.482842932661036
589,체력단련장업,영업/정상,서울특별시 은평구 응암동 81-173 더 위일,193684.982626349,455429.652749579,126.92638524117955,37.60116634254366
590,체력단련장업,영업/정상,서울특별시 마포구 서교동 383-3 JH빌딩,192211.903864106,450034.504464953,126.90976165596024,37.55254543170752
591,체력단련장업,영업/정상,서울특별시 송파구 잠실동 252-12 세형빌딩 지하1층,207847.020434571,444944.59788655,127.0866472976267,37.50668631550331
592,체력단련장업,영업/정상,서울특별시 성동구 옥수동 323-17 조을빌딩,201326.843664417,449086.230738437,127.01291201526529,37.54403414279012
593,체력단련장업,영업/정상,서울특별시 강동구 명일동 329-10 한성빌딩,213069.569100458,449660.193512334,127.14579698578422,37.54911465625303
594,체력단련장업,영업/정상,서울특별시 광진구 자양동 227-20 모아빌딩,206584.373766593,448455.143869758,127.07239806398209,37.53832592134188
595,체력단련장업,영업/정상,서울특별시 광진구 광장동 145-8 한수상가,209345.941766315,449811.718207794,127.10366135771271,37.550524875009046
596,체력단련장업,영업/정상,서울특별시 노원구 공릉동 439-2 우림고시원,206671.438652086,458506.896374504,127.07347378024467,37.62889009955749
597,체력단련장업,영업/정상,서울특별시 노원구 월계동 942 월계역신도브래뉴,205110.016574465,458522.043285647,127.05578552854367,37.62903646322468
598,체력단련장업,영업/정상,서울특별시 노원구 월계동 402-7,205129.120699118,457638.727453242,127.05599583149173,37.62107786726413
599,체력단련장업,영업/정상,서울특별시 강남구 청담동 80-17,203885.449211632,447108.067649495,127.04185366990075,37.5262039785681
600,체력단련장업,영업/정상,서울특별시 강남구 신사동 571-4,202233.894796407,446925.21078817,127.02316938724044,37.52456180790638
601,체력단련장업,영업/정상,서울특별시 강서구 등촌동 684-3 대룡드림타워-1,185920.208549725,451605.394433274,126.83852969772221,37.5666238800807
602,체력단련장업,영업/정상,서울특별시 송파구 잠실동 314-10 대양빌딩 지하1층,207422.191120518,444760.045141344,127.0818406891216,37.50502698324843
603,체력단련장업,영업/정상,서울특별시 강서구 마곡동 800 나인스퀘어,184935.418840025,450748.571373163,126.8274006441896,37.55888839155283
604,체력단련장업,영업/정상,서울특별시 도봉구 창동 731-34,203535.830883056,461558.996025522,127.03796696589559,37.65640598700252
605,체력단련장업,영업/정상,서울특별시 서초구 서초동 1303-7 아멜리아,201986.662546069,444588.281276705,127.0203664456373,37.5035067018153
606,체력단련장업,영업/정상,서울특별시 서초구 서초동 1337 강남미래타워,202463.85950988,443356.365859457,127.0257592400849,37.49240604004778
607,체력단련장업,영업/정상,서울특별시 금천구 독산동 1077-24 BK 힐타운 b동 108호,191043.409853209,439603.337106736,126.89666594735779,37.458550292056074
608,체력단련장업,영업/정상,서울특별시 서초구 양재동 82-9 가온 빌딩,203597.679438591,441946.630444596,127.03857339872636,37.47970067416016
609,체력단련장업,영업/정상,서울특별시 동작구 대방동 404-4,193351.43932243,444105.885035378,126.92271168808985,37.49913792881443
610,체력단련장업,영업/정상,서울특별시 서대문구 남가좌동 50-3 명지대학교,193139.52394401,453106.002592232,126.9202303449462,37.58022668527122
611,체력단련장업,영업/정상,서울특별시 관악구 봉천동 955-57,194439.931616284,442693.219351089,126.93503194782409,37.48641708936569
612,체력단련장업,영업/정상,서울특별시 양천구 목동 798-8 MD 798 BUILDING,188245.684685035,447845.144728631,126.86491205937068,37.53277721611065
613,체력단련장업,영업/정상,서울특별시 서초구 반포동 719-3,201678.328757085,445096.491280807,127.01688049070202,37.50808625316015
614,체력단련장업,영업/정상,서울특별시 서초구 서초동 1698-8,201178.992301232,443772.014195227,127.01123094440233,37.49615347328016
615,체력단련장업,영업/정상,서울특별시 강서구 공항동 18-5,183282.035334219,451326.263791811,126.80867492465457,37.56406469096622
616,체력단련장업,영업/정상,서울특별시 마포구 염리동 155-13,195031.531622668,449353.830603339,126.94167547638463,37.54643232617484
617,체력단련장업,영업/정상,서울특별시 도봉구 창동 33-3,204569.769384803,460720.689890064,127.04967895015345,37.64884857005605
618,체력단련장업,영업/정상,서울특별시 강북구 번동 309 덕수빌딩,203452.54250506,458496.347795039,127.0370088990908,37.62881255304365
619,체력단련장업,영업/정상,서울특별시 광진구 자양동 851-19 재화빌딩,205800.186223739,448390.088509972,127.06352475012842,37.53774498662951
620,체력단련장업,영업/정상,서울특별시 서초구 방배동 924-13 근복제2빌딩,199540.273530981,442416.709711393,126.99270080117608,37.48394269982356
621,체력단련장업,영업/정상,서울특별시 구로구 구로동 191-7 에이스테크노타워8차 208호,190688.747501289,442618.785745098,126.89261897796666,37.48571600242966
622,체력단련장업,영업/정상,서울특별시 성북구 동소문동1가 97 김희정치과의원,200671.331388141,454159.74990157,127.00549875119793,37.58974662976476
623,체력단련장업,영업/정상,서울특별시 강남구 신사동 564-18 여암(如巖)빌딩,202320.594839169,446585.027174677,127.02414914398608,37.52149656222272
624,체력단련장업,영업/정상,서울특별시 동작구 대방동 394-11 대방주상복합빌딩,193512.026389803,444198.183414991,126.92452690226298,37.49997068839388
625,체력단련장업,영업/정상,서울특별시 강동구 길동 416-15 강동투웨니퍼스트,211923.798191239,448280.02970006,127.1328088650644,37.536694969403705
626,체력단련장업,영업/정상,서울특별시 강남구 대치동 899-3,204507.450484068,444500.834512348,127.04887450780515,37.502710122130935
627,체력단련장업,영업/정상,서울특별시 강서구 화곡동 1068-23 동인빌딩,185357.389827025,448704.542168164,126.83221733757289,37.540478777612314
628,체력단련장업,영업/정상,서울특별시 동대문구 회기동 13-1,204653.767790155,454442.49904661,127.05059138870185,37.59228291934786
629,체력단련장업,영업/정상,서울특별시 광진구 구의동 66-61,207766.896500711,449210.982079029,127.08578581424997,37.545126842375545
630,체력단련장업,영업/정상,서울특별시 동작구 상도동 492-19,195820.883027373,443708.638935013,126.95064026176352,37.49557339009916
631,체력단련장업,영업/정상,서울특별시 송파구 신천동 7 장미아파트 비상가 2동 403호,208707.089897534,446299.352775446,127.0963904851533,37.51888494791349
632,체력단련장업,영업/정상,서울특별시 중랑구 상봉동 136-1,206474.047423329,454540.70965568,127.07120293104197,37.59315690869505
633,체력단련장업,영업/정상,서울특별시 금천구 독산동 292-2,190806.513953607,440642.112947498,126.89397536330961,37.46790735203835
634,체력단련장업,영업/정상,서울특별시 강남구 역삼동 817-19,202419.233527701,444230.786144508,127.02525741916341,37.50028467490458
635,체력단련장업,영업/정상,서울특별시 강남구 논현동 90-7 디와이빌딩,202995.512655196,445922.672107279,127.03178124980901,37.51552687464133
636,체력단련장업,영업/정상,서울특별시 강남구 개포동 13-3 대청타워,206970.919291372,443574.411625824,127.07672585112351,37.49434793392861
637,체력단련장업,영업/정상,서울특별시 양천구 목동 405-282 보성빌딩,188705.447403067,446934.246266594,126.87012779566412,37.52457586805362
638,체력단련장업,영업/정상,서울특별시 강동구 성내동 542-1 집앤사베니아파트,211201.534716873,447327.161535856,127.12462245870034,37.52811870900122
639,체력단련장업,영업/정상,서울특별시 금천구 시흥동 1010 벽산아파트,192754.34619252,438827.143732711,126.91601168944952,37.451571854042655
640,체력단련장업,영업/정상,서울특별시 동대문구 장안동 433-2,205791.158620462,451252.386694413,127.06344493419165,37.56353407495895
641,체력단련장업,영업/정상,서울특별시 노원구 하계동 251-7 서울온천,206406.483118126,459684.700181354,127.07048248476646,37.63950371156915
642,체력단련장업,영업/정상,서울특별시 송파구 송파동 135-5 3층 301호,209847.234828452,445283.854612629,127.10927395512203,37.5097239827456
643,체력단련장업,영업/정상,서울특별시 동대문구 장안동 93-5,206170.769726292,453042.665228566,127.06775645300775,37.57966181697016
644,체력단련장업,영업/정상,서울특별시 강남구 삼성동 65 삼성빌딩,204470.875734996,446131.709100554,127.04847064326806,37.51740442658369
645,체력단련장업,영업/정상,서울특별시 강서구 화곡동 1070-1,185300.543275716,448627.739755483,126.83157566642612,37.53978588843748
646,체력단련장업,영업/정상,서울특별시 강서구 방화동 168-38 한림리첸빌,183861.648795384,452327.871674126,126.81521314638613,37.573099385214974
647,체력단련장업,영업/정상,서울특별시 영등포구 영등포동7가 203 아크로타워 스퀘어,191687.492947271,446910.540802457,126.90386263269166,37.52439416658211
648,체력단련장업,영업/정상,서울특별시 송파구 방이동 207 MIK TOWER,211050.348471002,445216.912830336,127.122880546895,37.509107311068334
649,체력단련장업,영업/정상,서울특별시 송파구 거여동 40 301호,212786.253037106,443493.348702417,127.14248420030157,37.49355578885437
650,체력단련장업,영업/정상,서울특별시 송파구 방이동 145-35 산수빌딩 지하1층,210046.514040733,445490.442371807,127.1115306693784,37.51158319629971
651,체력단련장업,영업/정상,서울특별시 강남구 개포동 158-9,205419.269996972,442276.453942081,127.05917034551005,37.48266363049757
652,체력단련장업,영업/정상,서울특별시 중구 신당동 857 약수역 더시티,200873.825289992,450103.32103304,127.00778699889179,37.55319854641625
653,체력단련장업,영업/정상,서울특별시 관악구 신림동 848,193947.132120165,441850.437234715,126.92946695406205,37.47882048578198
654,체력단련장업,영업/정상,서울특별시 서초구 반포동 32-1 반포트라이엄프메딕스빌딩,200982.169900218,444468.719796887,127.00900608840804,37.502430999286105
655,체력단련장업,영업/정상,서울특별시 서초구 서초동 1697-6 백석빌딩,201199.759422173,443825.34064898,127.01146586728682,37.496633918963994
656,체력단련장업,영업/정상,서울특별시 성동구 하왕십리동 966-14,202864.365698903,451121.94725953,127.03031763686073,37.56237236825919
657,체력단련장업,영업/정상,서울특별시 강동구 성내동 164-1 씨제이나인파크 306호,211532.353686299,448182.588454494,127.12837839221288,37.53582198161284
658,체력단련장업,영업/정상,서울특별시 양천구 목동 406-218 아이스빌딩,188648.314215462,447039.019944785,126.86947984644549,37.52551916620185
659,체력단련장업,영업/정상,서울특별시 강동구 암사동 504-21 자하빌딩 3층 301호,211287.540876122,450163.92794132,127.12563879965796,37.553676656796895
660,체력단련장업,영업/정상,서울특별시 동대문구 장안동 339-19 축제빌딩,206298.623733242,451731.390448846,127.06919272768263,37.5678465484903
661,체력단련장업,영업/정상,서울특별시 은평구 증산동 164-1번지 2층,192093.019112121,453717.323283293,126.9083762364358,37.58572612983502
662,체력단련장업,영업/정상,서울특별시 은평구 대조동 187-38 성보빌딩,193162.627608025,457121.59928757,126.92045405957727,37.616406693447296
663,체력단련장업,영업/정상,서울특별시 은평구 역촌동 31-6 아그네스 풍림아이원,192773.974598512,455630.884111772,126.91606684268345,37.6029726358113
664,체력단련장업,영업/정상,서울특별시 은평구 불광동 311-13 메트로타워 6층,192998.202204135,457479.99522553,126.9185882398322,37.61963451975199
665,체력단련장업,영업/정상,서울특별시 은평구 응암동 591-10번지 2층,192385.505701225,454079.80702161,126.9116839161568,37.58899453660723
666,체력단련장업,영업/정상,서울특별시 은평구 불광동 486-17 베로니스 201호,192953.133572075,457539.087118661,126.9180771751375,37.62016657819242
667,체력단련장업,영업/정상,서울특별시 은평구 구산동 1-1 5층,192584.639355994,456538.922729473,126.91391345204742,37.61115237452547
668,체력단련장업,영업/정상,서울특별시 은평구 불광동 631-1 대호프라자아파트 지층,194002.701726955,456937.542510222,126.92997065564725,37.61475429755955
669,체력단련장업,영업/정상,서울특별시 은평구 구산동 14-40 CN 휘트니스 3층,192069.689255643,456481.794657666,126.90808192376883,37.61063333121202
670,체력단련장업,영업/정상,"서울특별시 은평구 역촌동 85-12 센타폴리스, 지하1층",192471.660518408,455317.295369423,126.91264656078474,37.600144812909754
671,체력단련장업,영업/정상,서울특별시 은평구 신사동 7-4,192026.412014375,455494.559012821,126.90760262280052,37.6017381459264
672,체력단련장업,영업/정상,"서울특별시 은평구 불광동 430-7번지 파란채빌딩 2,3층",193442.310039617,457752.469675129,126.92361616281411,37.62209276303864
673,체력단련장업,영업/정상,서울특별시 성북구 하월곡동 70-204 3층,203163.159640229,455969.662558726,127.03371996775341,37.60604863142775
674,체력단련장업,영업/정상,서울특별시 성북구 보문동4가 16번지,201764.474501927,453435.674303164,127.01787411267006,37.58322144505789
675,체력단련장업,영업/정상,서울특별시 중구 흥인동 8,201374.79637073,451714.618337112,127.01345931736365,37.567715589096956
676,체력단련장업,영업/정상,서울특별시 중구 중림동 398-1번지,196655.581895878,450746.19907568,126.96004656361968,37.558984866111814
677,체력단련장업,영업/정상,서울특별시 중구 인현동1가 102-5번지,199345.537896557,451328.888559506,126.99049031726348,37.5642408587482
678,체력단련장업,영업/정상,서울특별시 중구 흥인동 13-1번지,201442.039019479,451619.845549151,127.01422026558141,37.56686159922389
679,체력단련장업,영업/정상,서울특별시 중구 충무로3가 49번지 엘크루 메트로시티,199279.677406441,451120.517700578,126.98974509337185,37.562363406467725
680,체력단련장업,영업/정상,서울특별시 중구 만리동1가 62-7번지 서울역 디오빌,197034.02843741,450305.644873169,126.96433155601945,37.555016839413476
681,체력단련장업,영업/정상,서울특별시 중구 충무로2가 50-6번지,199023.967503662,451105.474557896,126.98685091604939,37.562227616168656
682,체력단련장업,영업/정상,서울특별시 중구 명동2가 31-1번지,198619.38819773,451135.740279961,126.98227171919721,37.56249976149007
683,체력단련장업,영업/정상,서울특별시 성동구 행당동 17,203684.127182478,450698.570810848,127.0395938454017,37.558554937258144
684,체력단련장업,영업/정상,서울특별시 성동구 금호동1가 481-5,201772.807083568,450250.366445197,127.01796103094509,37.5545221841223
685,체력단련장업,영업/정상,"서울특별시 성북구 안암동5가 101-27번지 청평빌딩 3,4층",202532.446743573,453873.457421989,127.02657014258568,37.587164070128914
686,체력단련장업,영업/정상,서울특별시 성북구 하월곡동 27-5번지 월곡송림건강랜드,203457.014588706,455741.213733384,127.03704678796747,37.60398931135029
687,체력단련장업,영업/정상,서울특별시 성북구 장위동 66-9번지,204746.21261151,456616.565104138,127.05165202346049,37.61187041276841
688,체력단련장업,영업/정상,서울특별시 성북구 성북동 184-90번지 3층,200364.099704191,454164.609439171,127.00202014253749,37.58979056465201
689,체력단련장업,영업/정상,서울특별시 성북구 하월곡동 29-91번지 그린빌딩 B1층,203541.443258939,455577.514836396,127.03800213078637,37.602514097560864
690,체력단련장업,영업/정상,서울특별시 성북구 동선동1가 47 3통,201457.375034638,454266.813589715,127.01439888230365,37.59071040393673
691,체력단련장업,영업/정상,서울특별시 성북구 동소문동4가 75 흥화브라운 동소문빌딩 지하1층 101호,200820.261137542,454256.676715286,127.00718509849855,37.59061981552932
692,체력단련장업,영업/정상,서울특별시 성북구 종암동 3-1342 청한상가 2층,202819.871767584,455458.024657239,127.02983034057685,37.60143995437425
693,체력단련장업,영업/정상,서울특별시 송파구 송파동 103-2 3.4층,210017.471837145,444627.454230899,127.11119050958109,37.503808022357624
694,체력단련장업,영업/정상,서울특별시 송파구 오금동 45-0번지,211130.032647967,444588.852095099,127.12377234626692,37.503447559622884
695,체력단련장업,영업/정상,"서울특별시 송파구 문정동 29-24번지 3,4층",210878.515429098,443075.872998689,127.12090561895947,37.489818638579656
696,체력단련장업,영업/정상,"서울특별시 성북구 종암동 23-59번지 3층,4층",203076.939418852,454483.543109637,127.0327374195747,37.592659229187845
697,체력단련장업,영업/정상,서울특별시 성북구 길음동 1080 (지하2층),202114.162481174,455887.588103927,127.02183994607796,37.60531208911084
698,체력단련장업,영업/정상,서울특별시 성북구 정릉동 465-1번지 정릉빌딩 5층,200934.454826725,455771.666452689,127.00847986334608,37.60426952630171
699,체력단련장업,영업/정상,서울특별시 성북구 석관동 133-45번지,205669.62299598,456735.513827881,127.0621112787091,37.61293695613068
700,체력단련장업,영업/정상,서울특별시 성북구 정릉동 779-2,200217.631104755,457188.764822854,127.00036239231463,37.617037722220594
701,체력단련장업,영업/정상,서울특별시 성북구 동선동2가 120 패션빌딩,201646.590942309,454251.101589104,127.01654126065812,37.59056853554749
702,체력단련장업,영업/정상,서울특별시 성북구 석관동 173-1번지 2층,205288.239440116,456677.726693477,127.05779133776163,37.61241854944919
703,체력단련장업,영업/정상,서울특별시 성북구 정릉동 192-256번지 3층,201272.583484748,456250.696637212,127.01230983735846,37.60858512212998
704,체력단련장업,영업/정상,서울특별시 성북구 석관동 220-1번지 5층,205232.638999928,456639.798445525,127.0571613468714,37.6120771371182
705,체력단련장업,영업/정상,서울특별시 중구 신당동 368-3 현대빌딩,200802.727701072,450100.127638921,127.00698239113565,37.55316983390401
706,체력단련장업,영업/정상,서울특별시 중구 황학동 2545번지 롯데베네치아 메가홀 지하2층 2002,201823.908977364,452076.818664092,127.01854373612623,37.57097822274755
707,체력단련장업,영업/정상,서울특별시 성북구 길음동 1283-4번지 길음뉴타운 래미안6단지 상가동 4층,201964.531844396,455825.760930114,127.02014524972421,37.604755358134945
708,체력단련장업,영업/정상,"서울특별시 성북구 하월곡동 227번지 206~211호, 217~221호",203649.811269449,455662.299341418,127.03922974497262,37.603277575549214
709,체력단련장업,영업/정상,서울특별시 성북구 동소문동2가 11번지,200571.630906043,454038.382078893,127.0043698150294,37.58865318413478
710,체력단련장업,영업/정상,서울특별시 중구 명동1가 7-12번지 태흥빌딩 14층,198636.142124311,451325.229841133,126.98246097641606,37.564207067669706
711,체력단련장업,영업/정상,서울특별시 중구 수하동 67번지,198620.934275413,451681.95803574,126.98228814336122,37.56742112434122
712,체력단련장업,영업/정상,서울특별시 송파구 송파동 122-5 송파빌딩 2층,210006.751881404,444675.92227283,127.11106992795315,37.50424483314128
713,체력단련장업,영업/정상,서울특별시 중구 신당동 152-6번지,201855.607887599,451348.230836171,127.01890077583482,37.56441367058964
714,체력단련장업,영업/정상,서울특별시 중구 신당동,201384.456643466,451334.342960082,127.01356797871807,37.56428933757179
715,체력단련장업,영업/정상,서울특별시 중구 회현동2가 88,198420.986981388,450877.874923561,126.98002673040399,37.560176089849755
716,체력단련장업,영업/정상,서울특별시 송파구 거여동 293-1 세신거여훼미리타운,212631.968657493,443089.54324724,127.14073268091406,37.48991962406015
717,체력단련장업,영업/정상,서울특별시 중구 예장동 2-19 지하2층,199159.933187356,450864.449621814,126.98839010933412,37.560056150651754
718,체력단련장업,영업/정상,서울특별시 중구 정동 34-5번지 배재정동빌딩 1층 A동,197481.848548378,451269.851755861,126.96939622186144,37.56370560551424
719,체력단련장업,영업/정상,서울특별시 중구 충무로3가 51-7번지 3층,199259.517238723,451068.226824754,126.98951697213006,37.56189225393967
720,체력단련장업,영업/정상,서울특별시 은평구 녹번동 109-22번지 2동,193793.677318014,455981.444027088,126.92761139109541,37.60613863020389
721,체력단련장업,영업/정상,"서울특별시 송파구 가락동 108 지상3,4층",210913.547528719,443172.347521107,127.12130315923156,37.49068746168552
722,체력단련장업,영업/정상,서울특별시 송파구 방이동 88-2번지,211073.35603022,446095.113429039,127.12315391223456,37.51701957748816
723,체력단련장업,영업/정상,서울특별시 송파구 방이동 226-7번지,210632.391175015,444908.653893049,127.11814893023869,37.50633478913811
724,체력단련장업,영업/정상,서울특별시 중구 남대문로4가 17-7번지,197847.754499522,451011.231861517,126.97353850655092,37.56137642129801
725,체력단련장업,영업/정상,서울특별시 송파구 송파동 15번지,209213.596479932,445106.870506248,127.1021051026613,37.5081358584501
726,체력단련장업,영업/정상,서울특별시 송파구 방이동 110-3번지,209945.436745099,445478.456701177,127.11038726388229,37.51147629312753
727,체력단련장업,영업/정상,서울특별시 송파구 석촌동 217-3 (주)크레송,208508.423515763,444190.394069336,127.09411902207621,37.49988515109211
728,체력단련장업,영업/정상,서울특별시 송파구 신천동 29,209074.900840074,445657.80932984,127.10054319254533,37.51310115736578
729,체력단련장업,영업/정상,서울특별시 중구 신당동 52-299,201411.562664901,451280.030092226,127.0138746806821,37.56379994545053
730,체력단련장업,영업/정상,서울특별시 중구 을지로2가 205,198877.134150639,451578.377236664,126.98518825132875,37.56648823904931
731,체력단련장업,영업/정상,서울특별시 송파구 석촌동 273-5번지,209357.956006173,444284.283207535,127.10372743078744,37.50072293348916
732,체력단련장업,영업/정상,서울특별시 송파구 삼전동 111-3번지 5층,208312.220404996,444948.902590642,127.09190869459299,37.50672106335297
733,체력단련장업,영업/정상,서울특별시 송파구 풍납동 163번지 대아아파트 상가,210378.825036871,447916.043934269,127.11532333599851,37.53343405545063
734,체력단련장업,영업/정상,서울특별시 중구 남창동 1-2번지,198079.694295498,450952.174489406,126.9761637932031,37.56084484933519
735,체력단련장업,영업/정상,서울특별시 중구 무교동 19 대한체육회 체육회관,198123.904576393,451671.110698942,126.97666226608182,37.567322478453725
736,체력단련장업,영업/정상,서울특별시 중구 회현동1가 181-6번지,198099.980632873,450699.941748513,126.97639407042932,37.558572302268196
737,체력단련장업,영업/정상,서울특별시 송파구 가락동 189-13번지,211859.098333302,443429.624997271,127.13199903739553,37.49299394042929
738,체력단련장업,영업/정상,서울특별시 송파구 잠실동 294-1,206990.437277713,444913.818922754,127.07695916569905,37.50641581914138
739,체력단련장업,영업/정상,서울특별시 송파구 신천동 7 장미아파트 비상가,208707.089897534,446299.352775446,127.0963904851533,37.51888494791349
740,체력단련장업,영업/정상,서울특별시 송파구 방이동 211-6 수미르빌 지하1층,210649.721920915,445350.548395234,127.11835129577436,37.51031604041553
741,체력단련장업,영업/정상,서울특별시 송파구 문정동 70-12,211050.862419345,442310.735820214,127.12284298557822,37.482922729118
742,체력단련장업,영업/정상,서울특별시 송파구 거여동 42-3,212775.796583888,443563.976192796,127.14236717962847,37.494192284262155
743,체력단련장업,영업/정상,서울특별시 송파구 석촌동 1번지 그랜드빌딩 3층,208551.947559076,444890.678006917,127.09461930556867,37.506194289835996
744,체력단련장업,영업/정상,서울특별시 송파구 오금동 46-2번지,211177.763719291,444681.422629345,127.1243135524008,37.50428104338722
745,체력단련장업,영업/정상,서울특별시 송파구 문정동 42-2 지하1층 1호,210846.37710983,443062.097766108,127.12054201931376,37.48969489950151
746,체력단련장업,영업/정상,"서울특별시 송파구 문정동 620번지 송파 푸르지오시티상가 220,221호",210654.50616628,442070.575741668,127.11835822164561,37.48076351384687
747,체력단련장업,영업/정상,서울특별시 송파구 송파동 58 대성빌딩,209460.214680761,445475.016473373,127.1048990761142,37.511450361667336
748,체력단련장업,영업/정상,서울특별시 송파구 송파동 16-1번지 덕원빌딩,209451.108678086,445017.285492021,127.10479024131025,37.50732631739261
749,체력단련장업,영업/정상,서울특별시 송파구 신천동 7-17번지,208730.633457015,445905.025545443,127.09665215573816,37.515331859222975
750,체력단련장업,영업/정상,서울특별시 송파구 오금동 11,211358.758041198,445248.724359252,127.12636921440597,37.50939021089791
751,체력단련장업,영업/정상,서울특별시 송파구 석촌동 235-17번지 지하1층,208675.812751826,444446.053485778,127.09601499124226,37.50218709032996
752,체력단련장업,영업/정상,"서울특별시 송파구 송파동 142-8 3,4층 가동",210206.122519499,445056.388029908,127.11332995223844,37.507670646983385
753,체력단련장업,영업/정상,서울특별시 송파구 삼전동 1-3 아카데미빌딩,207968.193015362,444982.601705591,127.08801815148595,37.50702769956608
754,체력단련장업,영업/정상,서울특별시 성동구 하왕십리동 700,202372.912023599,451536.680876573,127.02475652676303,37.5661104335459
755,체력단련장업,영업/정상,서울특별시 성동구 성수동1가 13-155,204219.253396534,449539.516830912,127.04564368838143,37.548109717154105
756,체력단련장업,영업/정상,서울특별시 성동구 금호동4가 544,201939.3500876,449482.978412921,127.01984385544618,37.547607764514275
757,체력단련장업,영업/정상,서울특별시 성동구 성수동1가 13-135,204205.084178091,449596.443563868,127.04548366869209,37.54862268564366
758,체력단련장업,영업/정상,"서울특별시 성동구 금호동4가 56-1 힐스테이트 금호 B1층 20-8호, 20-9호 상가동",202277.937068105,449393.800969153,127.02367505630941,37.54680353286664
759,체력단련장업,영업/정상,서울특별시 송파구 삼전동 111번지 삼전동썬프라자,208265.829073588,444957.463368081,127.09138411011857,37.506798608804544
760,체력단련장업,영업/정상,서울특별시 송파구 삼전동 131-5번지 서울빌딩,208496.260053809,444695.959466977,127.09398726020291,37.504440392279676
761,체력단련장업,영업/정상,서울특별시 송파구 잠실동 176-4번지,206949.842815831,445370.245992523,127.07650432123346,37.51052851526166
762,체력단련장업,영업/정상,서울특별시 성동구 옥수동 244-11 4층,201059.703833592,448944.218160194,127.00988899727244,37.54275494766661
763,체력단련장업,영업/정상,서울특별시 성동구 성수동1가 13-436,204235.838240342,449596.823422643,127.04583169021556,37.54862596953399
764,체력단련장업,영업/정상,"서울특별시 중구 태평로2가 366-1번지 팰리스빌딩 3,4층",197838.506308443,451380.770303032,126.97343271306339,37.564705899621245
765,체력단련장업,영업/정상,서울특별시 중구 명동2가 2-7번지,198660.385412631,451251.330448808,126.98273551715604,37.5635412796016
766,체력단련장업,영업/정상,서울특별시 중구 회현동1가 204번지 메사빌딩 13층,198129.435542814,450900.239718295,126.97672690452977,37.56037702833542
767,체력단련장업,영업/정상,서울특별시 중구 회현동1가 203번지,198296.228869176,450773.596976541,126.97861497461534,37.55923632558684
768,체력단련장업,영업/정상,서울특별시 중구 신당동 361-24,200799.425969999,450188.654390401,127.00694511441442,37.55396745417748
769,체력단련장업,영업/정상,서울특별시 중구 수표동 27-2번지,199096.572002403,451688.818194264,126.9876719036122,37.567483555924866
770,체력단련장업,영업/정상,서울특별시 중구 신당동 340-80번지,201009.880148149,450540.559161681,127.00932728174934,37.55713788992476
771,체력단련장업,영업/정상,서울특별시 성동구 홍익동 396-1번지 김원자산부인과 2층,202608.896570467,451498.515986848,127.02742746929256,37.565765950960255
772,체력단련장업,영업/정상,서울특별시 성동구 성수동1가 685-450번지,203520.351688406,449396.290427768,127.03773415077654,37.546822143784176
773,체력단련장업,영업/정상,서울특별시 송파구 석촌동 286-5번지 지하1층,209378.111028471,444712.163769183,127.10396077864496,37.50457792088908
774,체력단련장업,영업/정상,서울특별시 송파구 가락동 166-10번지 진넥스베르디엠,211724.525573665,443912.576699154,127.13048496728953,37.4973470294847
775,체력단련장업,영업/정상,서울특별시 송파구 문정동 111-9번지 MK빌딩,211619.645681626,442686.000741947,127.12927968900615,37.48629692606667
776,체력단련장업,영업/정상,서울특별시 송파구 잠실동 184-4번지,207363.396086384,445465.379464155,127.0811827377549,37.511382487911256
777,체력단련장업,영업/정상,서울특별시 송파구 방이동 108-10번지 성보빌딩,209876.828944913,445462.453117162,127.109611056345,37.51133283319916
778,체력단련장업,영업/정상,서울특별시 성동구 금호동4가 800 대우(아)상가 201호,201669.803556903,449301.451523245,127.0167932544852,37.54597273123498
779,체력단련장업,영업/정상,서울특별시 송파구 가락동 2-9 김해빌딩,211046.297863378,444565.558982422,127.12282501148474,37.50323868895184
780,체력단련장업,영업/정상,서울특별시 성동구 금호동1가 633,202326.470897024,449954.683065141,127.02422599004584,37.55185691282475
781,체력단련장업,영업/정상,서울특별시 송파구 잠실동 181-7번지 지하2층,207222.41008901,445471.965481522,127.07958816898086,37.51144293135002
782,체력단련장업,영업/정상,서울특별시 송파구 거여동 37-3 거여빌딩,212769.337053978,443460.333645388,127.14229234692907,37.493258556945904
783,체력단련장업,영업/정상,서울특별시 중구 봉래동1가 10,197614.692481764,450800.758274337,126.97090138094724,37.55947948669867
784,체력단련장업,영업/정상,서울특별시 중구 쌍림동 25-6번지,200299.795804491,451363.616679012,127.0012911667122,37.564554005660185
785,체력단련장업,영업/정상,서울특별시 송파구 송파동 84-7번지 영빌딩,209484.320725356,444751.41436612,127.10516246413717,37.504930490261394
786,체력단련장업,영업/정상,서울특별시 송파구 풍납동 402-4 4층,210393.799404072,447318.999887517,127.11548436222422,37.52805456772968
787,체력단련장업,영업/정상,서울특별시 송파구 오금동 10-3번지 2층,211463.435,445177.12,127.12755202836003,37.50874377292609
788,체력단련장업,영업/정상,서울특별시 송파구 송파동 32 지하1층,209299.474127668,445317.105828146,127.10307902488198,37.510029215260865
789,체력단련장업,영업/정상,서울특별시 송파구 삼전동 28-12번지 3층,207815.181028902,444601.691964731,127.08628358605304,37.50359701141805
790,체력단련장업,영업/정상,서울특별시 송파구 삼전동 27-4번지 지하1층,208151.243301303,444938.265645658,127.09008794759548,37.50662664844612
791,체력단련장업,영업/정상,서울특별시 성동구 행당동 128-22,203353.475522034,450634.47398884,127.03585133818302,37.55797867057286
792,체력단련장업,영업/정상,서울특별시 성동구 성수동2가 289-257번지,204939.155835935,449221.773516977,127.05378808823032,37.54524335345202
793,체력단련장업,영업/정상,서울특별시 성동구 옥수동 528,201157.877298502,449563.280012747,127.01100078368162,37.54833253266987
794,체력단련장업,영업/정상,서울특별시 중구 명동2가 31-1번지,198619.38819773,451135.740279961,126.98227171919721,37.56249976149007
795,체력단련장업,영업/정상,서울특별시 중구 남산동2가 6-1번지,198675.840407982,450901.237317642,126.98291110660733,37.56038700173303
796,체력단련장업,영업/정상,"서울특별시 중구 신당동 152-1번지 4층,5층",201792.505387093,451365.069314482,127.01818658359129,37.56456550386463
797,체력단련장업,영업/정상,서울특별시 송파구 문정동 72-3 건영아파트상가 2층,211049.287447183,442171.661862666,127.12282310455981,37.481669692326584
798,체력단련장업,영업/정상,서울특별시 송파구 석촌동 296-2번지 신우빌딩,209541.418807954,444357.068661528,127.10580314159715,37.50137686426997
799,체력단련장업,영업/정상,서울특별시 송파구 방이동 208-1,210888.579009374,445284.19361835,127.12105188893062,37.50971541811656
800,체력단련장업,영업/정상,서울특별시 송파구 방이동 89-11,211619.368009793,445963.384875409,127.12932800768446,37.515826038692644
801,체력단련장업,영업/정상,서울특별시 송파구 오금동 3-1번지,211497.311628565,445334.09743918,127.12793761815405,37.51015771308375
802,체력단련장업,영업/정상,서울특별시 송파구 송파동 143-3번지 306호,210177.289293975,444963.418268942,127.11300257037675,37.5068333094614
803,체력단련장업,영업/정상,서울특별시 송파구 오금동 18-4번지 2층,211194.005773786,445202.368567622,127.12450512217607,37.5089745477624
804,체력단련장업,영업/정상,서울특별시 송파구 문정동 150-26번지 훼미리샤르망 7층,210226.697751848,443267.228806217,127.11353795410238,37.49155014929301
805,체력단련장업,영업/정상,서울특별시 송파구 신천동 7번지 장미아파트 비상가,208707.089897534,446299.352775446,127.0963904851533,37.51888494791349
806,체력단련장업,영업/정상,서울특별시 송파구 송파동 18-11 굿피플오피스 송파 8층,209448.729118958,444914.983221275,127.10476202371639,37.506404602021874
807,체력단련장업,영업/정상,서울특별시 송파구 신천동 17-4 파크리오A상가 305호,209151.713940169,446519.612162961,127.10142266220869,37.52086520261506
808,체력단련장업,영업/정상,서울특별시 송파구 송파동 89-5번지,209580.01465922,444602.220407054,127.10624279435217,37.503585276896374
809,체력단련장업,영업/정상,서울특별시 송파구 가락동 99-7,210544.064382887,443492.364981682,127.11712980502098,37.49357507692891
810,체력단련장업,영업/정상,서울특별시 송파구 삼전동 33번지,207646.606681394,444539.684008229,127.08437647235233,37.503039720648424
811,체력단련장업,영업/정상,서울특별시 송파구 가락동 89 익수빌딩,210398.181580536,443850.873570618,127.11548521266076,37.49680687397542
812,체력단련장업,영업/정상,서울특별시 송파구 석촌동 14-7,208538.456869611,444516.687665716,127.09446242161279,37.5028247726073
813,체력단련장업,영업/정상,서울특별시 송파구 풍납동 401-4번지,210390.536347575,447238.729020712,127.11544631922489,37.5273313696334
814,체력단련장업,영업/정상,서울특별시 송파구 잠실동 22-6번지 리센츠상가 5층 03호,207624.424720682,445533.439634339,127.08413582130426,37.51199360708194
815,체력단련장업,영업/정상,"서울특별시 송파구 오금동 18-1 2, 3층",211207.172712867,445236.597008844,127.12465456130761,37.509282785594216
816,체력단련장업,영업/정상,서울특별시 중구 명동2가 31-1번지,198619.38819773,451135.740279961,126.98227171919721,37.56249976149007
817,체력단련장업,영업/정상,서울특별시 송파구 거여동 1-1번지 4층,212721.322451722,444090.327645873,127.14176023871036,37.49893544029417
818,체력단련장업,영업/정상,서울특별시 송파구 가락동 193-3번지 지하1층,211522.187830574,443693.193640948,127.12819342799199,37.49537292621834
819,체력단련장업,영업/정상,서울특별시 송파구 송파동 161 미성상가지하,210474.753103022,444865.156674134,127.11636545939545,37.50594467132622
820,체력단련장업,영업/정상,서울특별시 송파구 풍납동 399-1 402호,210246.507111088,447350.411760365,127.11381846772188,37.52833922329073
821,체력단련장업,영업/정상,서울특별시 송파구 삼전동 122-5번지 201호,208385.501219512,444625.866948612,127.0927338377573,37.50380986534078
822,체력단련장업,영업/정상,서울특별시 송파구 가락동 174-28번지 3.4층,211845.55713462,443720.750754332,127.1318505753458,37.495617148182696
823,체력단련장업,영업/정상,서울특별시 송파구 가락동 36-4,211034.861848231,444079.304796814,127.12268842930358,37.498857691594274
824,체력단련장업,영업/정상,서울특별시 송파구 문정동 289번지 가든파이브웍스 지하1층,210780.126180232,441730.920486073,127.11977353445201,37.47770177244371
825,체력단련장업,영업/정상,서울특별시 송파구 방이동 66-2번지 지하1층,209496.859211168,445600.046915876,127.10531515031742,37.51257650657038
826,체력단련장업,영업/정상,서울특별시 송파구 문정동 116-4번지,211591.053808857,442873.351740073,127.12895933949949,37.487985312660186
827,체력단련장업,영업/정상,서울특별시 송파구 잠실동 242,207708.69116279,445082.076290391,127.08508424053586,37.507926146626126
828,체력단련장업,영업/정상,서울특별시 중구 충무로3가 43번지,199273.815368546,451144.90452668,126.98967871884972,37.56258312411257
829,체력단련장업,영업/정상,서울특별시 송파구 신천동 11-8 더샵스타리버 B2층,209160.342515348,446201.867636819,127.10151633788945,37.51800225742525
830,체력단련장업,영업/정상,서울특별시 송파구 잠실동 195-10번지,206980.481155849,445300.930546602,127.07685020289549,37.50990375664751
831,체력단련장업,영업/정상,서울특별시 송파구 문정동 83-22번지,211132.387871178,442277.059092484,127.12376422830198,37.482618329437976
832,체력단련장업,영업/정상,서울특별시 송파구 삼전동 28-22번지,207801.420107817,444625.035727762,127.08612820374215,37.50380745343322
833,체력단련장업,영업/정상,서울특별시 은평구 불광동 13-9번지,194009.388758217,457402.805623038,126.93004254428247,37.618946269773645
834,체력단련장업,영업/정상,서울특별시 은평구 갈현동 430-12번지 4층,192604.275157665,457522.216118862,126.91412581614935,37.62001181054028
835,체력단련장업,영업/정상,서울특별시 은평구 불광동 272-2 불광초등학교,193834.541800601,456719.236926179,126.92806789833645,37.612786283252504
836,체력단련장업,영업/정상,서울특별시 중구 태평로2가 70-5번지 해남빌딩 2층,197876.042588141,451080.109295385,126.9738584696372,37.56199706712701
837,체력단련장업,영업/정상,"서울특별시 중구 을지로6가 18-35 헬로우APM, 8층",200649.776732085,451689.785216541,127.00525272836907,37.56749259122329
838,체력단련장업,영업/정상,서울특별시 중구 장충동2가 산 5-5번지,200193.232424569,449809.744684888,127.00008474363848,37.55055379679799
839,체력단련장업,영업/정상,서울특별시 송파구 석촌동 290-3번지 지하1층,209514.715489069,444577.245322555,127.10550397971487,37.503360922636226
840,체력단련장업,영업/정상,서울특별시 중구 남대문로4가 3-5번지,197962.180314282,450902.958064856,126.97483390406073,37.56040115405186
841,체력단련장업,영업/정상,서울특별시 중구 신당동 295-27번지,201114.378396275,450876.543087634,127.0105104212394,37.560164957494614
842,체력단련장업,영업/정상,서울특별시 송파구 잠실동 22-6번지 지층1-19,207624.424720682,445533.439634339,127.08413582130426,37.51199360708194
843,체력단련장업,영업/정상,서울특별시 중구 필동2가 98-1번지,199581.368046931,450732.918935016,126.99315997056709,37.558871390062784
844,체력단련장업,영업/정상,서울특별시 성동구 행당동 287-15 왕십리역이스타빌,202988.299644972,450991.695797571,127.0317198380725,37.56119843195402
845,체력단련장업,영업/정상,서울특별시 은평구 구산동 202-13번지,192043.812506334,456839.220080805,126.90778493747362,37.61385343879166
846,체력단련장업,영업/정상,서울특별시 중구 신당동 52-46번지,201566.851816484,451111.306977671,127.0156319764582,37.56227952864906
847,체력단련장업,영업/정상,서울특별시 중구 장충동1가 31-5번지,200526.453205298,451061.489091589,127.00385642568335,37.56183178347517
848,체력단련장업,영업/정상,서울특별시 중구 태평로1가 61-1번지 코리아나호텔 4층,197867.156641113,451779.880897566,126.97375580042208,37.56830190870935
849,체력단련장업,영업/정상,서울특별시 성동구 성수동2가 315-4번지 MG빌딩 B1층,204905.93839818,448974.447109195,127.05341057927416,37.543015138324854
850,체력단련장업,영업/정상,서울특별시 송파구 문정동 41-5번지,210888.077948907,443002.39456602,127.12101266527735,37.48915648716255
851,체력단련장업,영업/정상,서울특별시 은평구 갈현동 434-4번지 지하1층동,192563.153718835,457704.115314695,126.91365816808326,37.6216503499367
852,체력단련장업,영업/정상,서울특별시 송파구 거여동 36-4번지,212888.836152533,443453.900365339,127.14364350895868,37.49319894242757
853,체력단련장업,영업/정상,서울특별시 송파구 잠실동 209-5 4층,207611.893187956,445142.218743059,127.08399006727753,37.508468824208094
854,체력단련장업,영업/정상,서울특별시 송파구 잠실동 40-1,208589.363343145,445455.90405262,127.09504902014581,37.51128661020394
855,체력단련장업,영업/정상,서울특별시 송파구 잠실동 35-2 상가 B110호,207553.918225133,445383.338011122,127.08333681744926,37.510641771957324
856,체력단련장업,영업/정상,서울특별시 송파구 송파동 162번지 송파삼성래미안아파트상가 101동 208호,210423.60497199,444729.592842278,127.11578507852266,37.5047238216352
857,체력단련장업,영업/정상,서울특별시 송파구 신천동 11-4번지 B01호,209087.122362019,446139.152554604,127.10068733357093,37.51743791643554
858,체력단련장업,영업/정상,서울특별시 송파구 잠실동 101-1번지 우성상가지하1층,206397.34797252,444963.233863255,127.07025185246991,37.50686530367368
859,체력단련장업,영업/정상,서울특별시 송파구 방이동 88-2번지,211073.35603022,446095.113429039,127.12315391223456,37.51701957748816
860,체력단련장업,영업/정상,서울특별시 성동구 행당동 286-18,202878.711627512,451058.262245874,127.03047976396654,37.56179852954836
861,체력단련장업,영업/정상,서울특별시 중구 황학동 73-1번지,201637.855135326,451945.75542127,127.01643740130783,37.56979769525995
862,체력단련장업,영업/정상,서울특별시 중구 서소문동 58-9번지,197511.245797769,451114.28520546,126.96972949574088,37.56230404999291
863,체력단련장업,영업/정상,서울특별시 중구 장교동 1-0번지 장교빌딩1층,198744.433228989,451677.065126229,126.98368604352257,37.56737722498538
864,체력단련장업,영업/정상,서울특별시 중구 신당동 844-0번지 스포츠센타내204-1,200750.455125653,449638.824308081,127.00639039662721,37.54901357324881
865,체력단련장업,영업/정상,서울특별시 중구 을지로3가 315-4번지,199207.538777842,451529.342819592,126.98892812994904,37.56604681104948
866,체력단련장업,영업/정상,서울특별시 중구 남대문로5가 36-1번지,197692.601616889,450709.793991215,126.97178343901953,37.558660111757746
867,체력단련장업,영업/정상,서울특별시 중구 주교동 135-5번지,199729.851187123,451802.546064979,126.99483997939058,37.56850867833274
868,체력단련장업,영업/정상,"서울특별시 송파구 삼전동 130-5 인터불고 6,7층",208507.506303331,444876.425570827,127.09411652078285,37.50606628322292
869,체력단련장업,영업/정상,"서울특별시 송파구 문정동 150 올림픽훼밀리타운상가 1동2층 209, 210호",210045.748264305,442930.687284628,127.11148729232252,37.48851988731596
870,체력단련장업,영업/정상,서울특별시 송파구 송파동 8-2번지 신천빌딩 2층,209264.011160161,445226.164700364,127.10267678849073,37.50921019348102
871,체력단련장업,영업/정상,서울특별시 중구 의주로1가 25-10번지,197098.710590401,451445.394000661,126.96505896880521,37.5652860679939
872,체력단련장업,영업/정상,서울특별시 중구 을지로3가 315-4번지 을지빌딩 4층,199207.538777842,451529.342819592,126.98892812994904,37.56604681104948
873,체력단련장업,영업/정상,서울특별시 중구 회현동1가 204번지 메사빌딩 13층 1302호,198129.435542814,450900.239718295,126.97672690452977,37.56037702833542
874,체력단련장업,영업/정상,서울특별시 중구 의주로1가 202번지 지하1층,197249.283866944,451147.749970952,126.96676440916785,37.56260480094258
