,개방서비스명,영업상태명,소재지전체주소,좌표정보(x),좌표정보(y),경도,위도
0,유흥주점영업,영업/정상,서울특별시 중구 명동1가 45-1번지,198556.141608393,451362.77051901,126.98155540796063,37.5645451775195
1,유흥주점영업,영업/정상,서울특별시 동대문구 장안동 366-2,206231.420255296,452041.476809255,127.06843465123481,37.57064083989801
2,유흥주점영업,영업/정상,서울특별시 송파구 방이동 34-4 타임모텔 지하1층 102호,209542.74681331,445930.621574388,127.10583843371602,37.51555449795454
3,유흥주점영업,영업/정상,서울특별시 종로구 종로5가 115번지,199923.932150837,452161.024767411,126.99703675565023,37.57173857839628
4,유흥주점영업,영업/정상,서울특별시 강서구 마곡동 795-6 뉴골든타워,185554.299381324,450891.312361248,126.83440213559119,37.5601844171637
5,유흥주점영업,영업/정상,서울특별시 강서구 마곡동 795-6 뉴골든타워,185554.299381324,450891.312361248,126.83440213559119,37.5601844171637
6,유흥주점영업,영업/정상,서울특별시 강동구 천호동 416-5,211080.924701849,448665.20259174,127.12327804933314,37.54017579159654
7,유흥주점영업,영업/정상,서울특별시 강남구 논현동 118-17 세한빌딩 지하1층,203483.649399269,446102.236098458,127.03730350220597,37.517143060338604
8,유흥주점영업,영업/정상,서울특별시 영등포구 영등포동3가 15-4,191847.828354314,446267.566982893,126.90568361859984,37.51860245079263
9,유흥주점영업,영업/정상,서울특별시 종로구 종로3가 6 4층,199041.009248479,452032.239570663,126.98704250602414,37.57057768170662
10,유흥주점영업,영업/정상,서울특별시 강북구 수유동 191-29 피카소모텔 지하1층,202268.511236115,459679.768192028,127.02359933790459,37.639478511163276
11,유흥주점영업,영업/정상,서울특별시 관악구 신림동 538-1,192344.104165473,442239.730505715,126.9113395751414,37.48231602383009
12,유흥주점영업,영업/정상,서울특별시 구로구 오류동 55-14,186149.000717898,443754.961884834,126.84126803122673,37.49589571151773
13,유흥주점영업,영업/정상,서울특별시 영등포구 영등포동3가 9-23 지하1층,191690.8808747,446122.774558898,126.9039099306708,37.51729646839726
14,유흥주점영업,영업/정상,서울특별시 영등포구 여의도동 44-35번지 지하13호,193818.18014,446332.089777304,126.92797103241683,37.51919923260958
15,유흥주점영업,영업/정상,서울특별시 영등포구 영등포동3가 16-2 지하1층,191744.060478324,446293.067258591,126.90450954296143,37.51883127748179
16,유흥주점영업,영업/정상,서울특별시 은평구 갈현동 398-10번지 지층,192866.582388638,457369.941333341,126.91709847100044,37.61864193614404
17,유흥주점영업,영업/정상,서울특별시 은평구 불광동 281-92번지 (지하1층),193757.383292528,456499.068228056,126.92719590471218,37.61080207972497
18,유흥주점영업,영업/정상,서울특별시 영등포구 영등포동3가 8-1번지 지하1~2층,191650.262823467,446234.789725611,126.90344919930455,37.51830534986536
19,유흥주점영업,영업/정상,서울특별시 영등포구 여의도동 44-14,193870.812916718,446351.97420108,126.92856623417192,37.51937874492577
20,유흥주점영업,영업/정상,서울특별시 영등포구 영등포동3가 21-19번지 지하1층(일부),191767.527556188,446147.419212092,126.90477663880644,37.5175192074704
21,유흥주점영업,영업/정상,서울특별시 영등포구 영등포동3가 3-7,191904.860087032,446275.186382384,126.90632865772767,37.518671607032935
22,유흥주점영업,영업/정상,서울특별시 서초구 방배동 444-9,198341.208478761,441691.64555121,126.97914532867806,37.47740840205649
23,유흥주점영업,영업/정상,서울특별시 성북구 종암동 3-1235번지,202988.136368971,455286.462033212,127.03173511846704,37.59989368498184
24,유흥주점영업,영업/정상,서울특별시 성북구 동소문동6가 133-2번지 (지하1층),201363.138481996,454514.752552042,127.01333232081821,37.59294443356076
25,유흥주점영업,영업/정상,서울특별시 성북구 동선동4가 7 외 1필지,201394.713957557,454544.984917895,127.01368990225076,37.593216777391724
26,유흥주점영업,영업/정상,서울특별시 성북구 동소문동5가 85번지,201386.544353134,454412.772727911,127.01359715958226,37.592025577831706
27,유흥주점영업,영업/정상,서울특별시 성북구 동선동1가 2-12번지,201414.192716298,454407.004970482,127.01391020527679,37.59197357111476
28,유흥주점영업,영업/정상,서울특별시 성북구 보문동4가 77-2번지 브라운관광호텔 지하1층,201810.388914346,453337.054032254,127.01839369530406,37.58233280435258
29,유흥주점영업,영업/정상,서울특별시 송파구 방이동 24-0 지상3층,209443.501250283,445885.938643454,127.1047152776697,37.515152920586814
30,유흥주점영업,영업/정상,서울특별시 송파구 잠실동 182-0 지하1층,207203.878703999,445431.920595287,127.07937817948711,37.51108227193424
31,유흥주점영업,영업/정상,서울특별시 송파구 잠실동 183-9,207417.944862342,445410.851148168,127.08179917069582,37.51089075710252
32,유흥주점영업,영업/정상,서울특별시 은평구 불광동 281-172 (지하1층),193802.267465881,456419.663955141,126.92770492499733,37.61008696884816
33,유흥주점영업,영업/정상,서울특별시 서초구 서초동 1588-8 지하1층,201188.921252954,442592.594826449,127.01134142246079,37.48552689097469
34,유흥주점영업,영업/정상,서울특별시 서초구 서초동 1694-22번지,201168.748437129,443610.811016678,127.01111486196272,37.49470104583851
35,유흥주점영업,영업/정상,서울특별시 은평구 불광동 281-173,193808.696174757,456410.316668709,126.92777781328004,37.61000279529315
36,유흥주점영업,영업/정상,서울특별시 은평구 녹번동 117-112 지하1층,193903.333435372,456197.927159351,126.928851414817,37.60808984410172
37,유흥주점영업,영업/정상,서울특별시 은평구 대조동 15-194,193598.348172363,456279.824091706,126.9253966707199,37.60882562752621
38,유흥주점영업,영업/정상,서울특별시 은평구 갈현동 395-7 (지1층),192868.600973071,457522.57527646,126.91711983389513,37.62001715243479
39,유흥주점영업,영업/정상,서울특별시 은평구 갈현동 395-28,192841.292492687,457500.729994254,126.91681072610247,37.61982011689163
40,유흥주점영업,영업/정상,서울특별시 은평구 불광동 281-170번지,193808.036987489,456437.340539197,126.92777011667201,37.61024627078086
41,유흥주점영업,영업/정상,서울특별시 은평구 불광동 281-97번지,193790.930484735,456463.092885474,126.92757615569833,37.61047817806696
42,유흥주점영업,영업/정상,서울특별시 은평구 응암동 599-57 (지층),192475.587282827,454044.581279963,126.91270421235431,37.58867790511219
43,유흥주점영업,영업/정상,서울특별시 서초구 서초동 1308-22,202131.267220636,444271.985142087,127.02200094913607,37.50065656652084
44,유흥주점영업,영업/정상,서울특별시 송파구 방이동 24-0 지상2층,209443.501250283,445885.938643454,127.1047152776697,37.515152920586814
45,유흥주점영업,영업/정상,서울특별시 송파구 가락동 98-6 지하3층,210463.282485743,443549.893536475,127.11621714577784,37.49409432065788
46,유흥주점영업,영업/정상,서울특별시 송파구 가락동 99-2 지상2층,210456.932121326,443484.595603431,127.1161444143581,37.49350605913963
47,유흥주점영업,영업/정상,서울특별시 성북구 길음동 877-195번지,201865.41760815,455541.255496062,127.01902211022382,37.60219221239722
48,유흥주점영업,영업/정상,서울특별시 성북구 보문동4가 77-2번지 외3필지(76번지포함),201810.388914346,453337.054032254,127.01839369530406,37.58233280435258
49,유흥주점영업,영업/정상,서울특별시 송파구 가락동 99-2번지,210456.932121326,443484.595603431,127.1161444143581,37.49350605913963
50,유흥주점영업,영업/정상,서울특별시 송파구 가락동 98-6 지하1층,210463.282485743,443549.893536475,127.11621714577784,37.49409432065788
51,유흥주점영업,영업/정상,서울특별시 송파구 가락동 98-2번지 뉴훼미리1차 지상2층 201호,210403.825298326,443562.753075246,127.11554498708881,37.49421085208382
52,유흥주점영업,영업/정상,서울특별시 송파구 잠실동 178-5번지 지상3층,207045.010076729,445401.759799146,127.07758100466097,37.510811738966574
53,유흥주점영업,영업/정상,서울특별시 송파구 석촌동 158번지 호텔 레이크 지하3층,208851.639893799,444965.4232772,127.098009655136,37.50686493922469
54,유흥주점영업,영업/정상,서울특별시 은평구 응암동 96-14 (지층),193408.878643234,455423.633776301,126.92325865155414,37.601110157487746
55,유흥주점영업,영업/정상,서울특별시 은평구 녹번동 258-0번지,194056.657619738,455439.479589323,126.93059406630167,37.60125738179331
56,유흥주점영업,영업/정상,서울특별시 은평구 갈현동 396-9번지 지1층,192861.23125208,457489.938700907,126.91703667831109,37.61972304592881
57,유흥주점영업,영업/정상,서울특별시 은평구 대조동 14-18번지,193735.91191965,456421.405234256,126.92695339966075,37.61010220343161
58,유흥주점영업,영업/정상,서울특별시 은평구 대조동 11-11번지 (지하1층),193669.939993455,456523.999319881,126.92620533763669,37.61102610053571
59,유흥주점영업,영업/정상,서울특별시 은평구 불광동 281-171번지,193795.862608061,456429.032472611,126.92763230649408,37.61017133380694
60,유흥주점영업,영업/정상,서울특별시 은평구 불광동 281-176 지층,193827.717096922,456382.779340308,126.92799346928138,37.60975481828049
61,유흥주점영업,영업/정상,서울특별시 영등포구 양평동4가 27-4번지 지하1층,190937.193617946,448136.422727206,126.89535962116987,37.53543215802411
62,유흥주점영업,영업/정상,서울특별시 송파구 가락동 79-4 세화빌딩,210562.900849903,443555.864703206,127.11734371102054,37.49414699418486
63,유흥주점영업,영업/정상,"서울특별시 송파구 가락동 79-7번지 지상2층 3,4호",210658.051559152,443620.612078283,127.11842060349889,37.494729280467766
64,유흥주점영업,영업/정상,"서울특별시 송파구 가락동 79-7번지 2층 1호,2호",210658.051559152,443620.612078283,127.11842060349889,37.494729280467766
65,유흥주점영업,영업/정상,서울특별시 송파구 석촌동 1-7 지하2층,208554.799609279,444868.79542744,127.09465130913583,37.50599710232848
66,유흥주점영업,영업/정상,서울특별시 송파구 석촌동 1-7 지하3층,208554.799609279,444868.79542744,127.09465130913583,37.50599710232848
67,유흥주점영업,영업/정상,서울특별시 송파구 가락동 79-4 지하1층 101호,210562.900849903,443555.864703206,127.11734371102054,37.49414699418486
68,유흥주점영업,영업/정상,서울특별시 송파구 가락동 99-1 지상1층 104호 - 108호,210491.688890281,443508.221246366,127.11653777392455,37.49371853409091
69,유흥주점영업,영업/정상,서울특별시 영등포구 영등포동3가 25-1,191784.209891539,446243.957494011,126.90496425393883,37.518389162118
70,유흥주점영업,영업/정상,서울특별시 영등포구 영등포동3가 11-8번지 2층,191837.10919649,446128.686303529,126.90556392099111,37.51735104765022
71,유흥주점영업,영업/정상,서울특별시 영등포구 영등포동3가 5-6번지 외1필지,191659.323010093,446356.07965062,126.90355029820978,37.519398248067624
72,유흥주점영업,영업/정상,서울특별시 영등포구 영등포동3가 25번지 지하1층,191787.549016945,446256.030237989,126.90500188899397,37.51849796684483
73,유흥주점영업,영업/정상,서울특별시 영등포구 당산동5가 32-1,191157.184455732,448006.547069614,126.89785021609077,37.53426413892283
74,유흥주점영업,영업/정상,서울특별시 영등포구 당산동2가 60-0번지 지하1층,190384.83442657,446711.169916025,126.8891288916293,37.522585105457516
75,유흥주점영업,영업/정상,서울특별시 영등포구 영등포동3가 10-28 지하1층,191735.124577455,446104.438604642,126.90441059941845,37.517131662628515
76,유흥주점영업,영업/정상,서울특별시 영등포구 영등포동3가 10-28번지 지하1층,191735.124577455,446104.438604642,126.90441059941845,37.517131662628515
77,유흥주점영업,영업/정상,서울특별시 영등포구 영등포동3가 20-2번지,191715.903318352,446127.792608312,126.90419291417457,37.51734190738285
78,유흥주점영업,영업/정상,서울특별시 영등포구 영등포동3가 14-7,191876.865981245,446248.345378481,126.90601229644558,37.51842952314923
79,유흥주점영업,영업/정상,서울특별시 영등포구 영등포동3가 22-1 지상2층,191865.848064344,446163.064895019,126.90588861662133,37.517661052661026
80,유흥주점영업,영업/정상,"서울특별시 영등포구 여의도동 44-13 충무빌딩10호,11호(지하1층)",193861.272368256,446387.375846863,126.92845801486835,37.51969764794534
81,유흥주점영업,영업/정상,서울특별시 영등포구 영등포동5가 18-1번지 4층,191691.167905721,446411.007064006,126.90390989519017,37.519893430431395
82,유흥주점영업,영업/정상,서울특별시 영등포구 영등포동5가 24-0번지,191590.878296395,446489.41953806,126.90277452990686,37.52059900725232
83,유흥주점영업,영업/정상,서울특별시 영등포구 영등포동3가 13-10 지하1층,191932.387454686,446196.956086919,126.90664090345986,37.51796699907253
84,유흥주점영업,영업/정상,서울특별시 영등포구 영등포동3가 23-9 지하1층(전체),191885.679527589,446172.793327846,126.906112832407,37.51774888124427
85,유흥주점영업,영업/정상,"서울특별시 영등포구 여의도동 11-11 한서리버파크 지상1층 104호중일부,105호",193282.654266684,447611.552045596,126.92190148952596,37.530723333182806
86,유흥주점영업,영업/정상,서울특별시 송파구 가락동 98-7 지하1층 106-2호,210491.321883503,443569.763243482,127.1165344954868,37.49427303027304
87,유흥주점영업,영업/정상,서울특별시 송파구 가락동 79-7번지,210658.051559152,443620.612078283,127.11842060349889,37.494729280467766
88,유흥주점영업,영업/정상,서울특별시 송파구 가락동 98-7번지 지하1층 108호,210491.321883503,443569.763243482,127.1165344954868,37.49427303027304
89,유흥주점영업,영업/정상,서울특별시 영등포구 영등포동3가 15-3,191834.15768029,446271.754932867,126.90552893368398,37.518640062220754
90,유흥주점영업,영업/정상,서울특별시 영등포구 영등포동3가 13-11번지 지하1층,191922.325301718,446192.365391748,126.90652713558234,37.51792554845698
91,유흥주점영업,영업/정상,서울특별시 성동구 홍익동 125번지,203114.758597393,451504.766995539,127.03315324767601,37.56582073638384
92,유흥주점영업,영업/정상,서울특별시 성동구 도선동 289번지,202727.017018553,451267.516899022,127.02876361301202,37.56368434161908
93,유흥주점영업,영업/정상,서울특별시 송파구 가락동 99-1,210491.688890281,443508.221246366,127.11653777392455,37.49371853409091
94,유흥주점영업,영업/정상,서울특별시 송파구 가락동 79-4번지,210562.900849903,443555.864703206,127.11734371102054,37.49414699418486
95,유흥주점영업,영업/정상,서울특별시 송파구 가락동 79-4,210562.900849903,443555.864703206,127.11734371102054,37.49414699418486
96,유흥주점영업,영업/정상,서울특별시 영등포구 양평동4가 27-2 지하1층,190970.006584385,448119.321732582,126.89573108530938,37.53527840349522
97,유흥주점영업,영업/정상,서울특별시 영등포구 영등포동3가 21-2,191756.500366129,446137.781071007,126.90465201365976,37.51743226914733
98,유흥주점영업,영업/정상,서울특별시 영등포구 신길동 95-62 지하1층,192773.59563505,445737.876216987,126.9161608384652,37.513837737523595
99,유흥주점영업,영업/정상,서울특별시 영등포구 영등포동3가 23-5 지하1층,191907.330286112,446195.468440609,126.90635748414374,37.517953374393045
100,유흥주점영업,영업/정상,서울특별시 영등포구 영등포동3가 13-2,191947.93349686,446239.990332016,126.90681627853418,37.518354872187686
101,유흥주점영업,영업/정상,서울특별시 성동구 행당동 267-17번지,203104.707004094,450878.006168599,127.03303687849196,37.560173723991014
102,유흥주점영업,영업/정상,서울특별시 성동구 행당동 227-1번지,203194.269628402,450837.622653345,127.03405037211887,37.55980957306309
103,유흥주점영업,영업/정상,서울특별시 성동구 마장동 474-1번지,203229.312641564,452070.97336746,127.03445230617733,37.5709218020386
104,유흥주점영업,영업/정상,서울특별시 성동구 도선동 144번지,202974.450105989,451175.987245226,127.03156381833958,37.56285892160426
105,유흥주점영업,영업/정상,서울특별시 성동구 용답동 235-2 금풍빌딩 지1층104호,205837.640591417,450946.956111573,127.06396863528646,37.560781890144405
106,유흥주점영업,영업/정상,서울특별시 성동구 도선동 151-1번지,202941.700920402,451198.521514065,127.03119323954569,37.5630620556883
107,유흥주점영업,영업/정상,서울특별시 송파구 가락동 98-7,210491.321883503,443569.763243482,127.1165344954868,37.49427303027304
108,유흥주점영업,영업/정상,서울특별시 송파구 가락동 98-7,210491.321883503,443569.763243482,127.1165344954868,37.49427303027304
109,유흥주점영업,영업/정상,서울특별시 송파구 가락동 79-4 세화빌딩,210562.900849903,443555.864703206,127.11734371102054,37.49414699418486
110,유흥주점영업,영업/정상,서울특별시 송파구 가락동 79-4,210562.900849903,443555.864703206,127.11734371102054,37.49414699418486
111,유흥주점영업,영업/정상,서울특별시 영등포구 영등포동3가 3-11번지,191819.785141491,446297.413327528,126.90536606860906,37.51887111473651
112,유흥주점영업,영업/정상,서울특별시 영등포구 당산동5가 33-8 대영빌딩,191077.628316463,448051.810490716,126.89694956239714,37.53467118724977
113,유흥주점영업,영업/정상,서울특별시 성동구 송정동 66-196,205733.953454083,449576.204385395,127.0627845119484,37.54843220029225
114,유흥주점영업,영업/정상,서울특별시 성동구 송정동 66-259번지,205659.048354262,449568.452388645,127.06193681357925,37.5483628129931
115,유흥주점영업,영업/정상,서울특별시 성동구 용답동 233-6,205779.087396763,450956.847789636,127.06330600473353,37.5608713779321
116,유흥주점영업,영업/정상,서울특별시 성동구 도선동 65,202974.604621727,451142.757421406,127.03156543540497,37.56255952406651
117,유흥주점영업,영업/정상,서울특별시 성동구 도선동 29-0  동  호,203032.062295363,451134.858622557,127.03221572764393,37.56248817355426
118,유흥주점영업,영업/정상,서울특별시 성동구 도선동 253-12번지,202882.086955343,451171.810985376,127.03051840265313,37.56282158094385
119,유흥주점영업,영업/정상,서울특별시 성동구 도선동 149번지 (지하1층),202956.996976159,451185.403876184,127.03136631460889,37.56294381934625
120,유흥주점영업,영업/정상,서울특별시 은평구 대조동 15-224번지 보승빌딩 지층,193565.61927952,456299.07935882,126.92502583470244,37.60899888329224
121,유흥주점영업,영업/정상,서울특별시 은평구 응암동 599-37번지 지1층,192518.665395477,454025.223407109,126.91319215328204,37.58850384777448
122,유흥주점영업,영업/정상,서울특별시 은평구 응암동 599-36번지 지1층,192527.813740215,454024.474104038,126.91329574068408,37.588497171595
123,유흥주점영업,영업/정상,서울특별시 은평구 갈현동 456-24 2층,192775.441248036,457293.41165271,126.9160668956846,37.6179517015961
124,유흥주점영업,영업/정상,서울특별시 영등포구 신길동 116-1,192612.891612688,445497.308713023,126.9143455611989,37.511668951446836
125,유흥주점영업,영업/정상,서울특별시 영등포구 문래동1가 58-15번지,190612.596175497,445533.078371598,126.89172053373812,37.51197292580681
126,유흥주점영업,영업/정상,서울특별시 은평구 불광동 281-100 (지하1층),193784.756952473,456445.07450097,126.92750639152817,37.61031579371894
127,유흥주점영업,영업/정상,서울특별시 은평구 응암동 91-1번지 (지하1층),192754.063847027,455293.095287211,126.91584473699574,37.599929060705676
128,유흥주점영업,영업/정상,서울특별시 영등포구 당산동2가 147-1 지하1층,190385.854773739,446833.268898059,126.88913882655486,37.523685220080985
129,유흥주점영업,영업/정상,서울특별시 영등포구 대림동 990-6번지,191570.535564569,442939.536826715,126.90258539151378,37.48861449215726
130,유흥주점영업,영업/정상,"서울특별시 영등포구 여의도동 43번지 미원빌딩 316,317호",193798.948251805,446579.652565611,126.92775137631644,37.52142963044592
131,유흥주점영업,영업/정상,서울특별시 영등포구 여의도동 46-1 지하1층,193707.703181901,446349.960394983,126.92672118930497,37.5193594918555
132,유흥주점영업,영업/정상,"서울특별시 영등포구 영등포동3가 17-5 ,2층",191758.951500052,446252.770805581,126.9046784408306,37.51846834268794
133,유흥주점영업,영업/정상,서울특별시 영등포구 영등포동3가 16,191704.292078345,446296.259318186,126.90405965862455,37.518859678474335
134,유흥주점영업,영업/정상,서울특별시 서초구 방배동 768-1번지 지하1층,198632.4436136,443654.396110558,126.98243406134155,37.49509329787011
135,유흥주점영업,영업/정상,서울특별시 서초구 서초동 1309-6번지,202075.235090835,444393.012402995,127.02136761424129,37.50174714401428
136,유흥주점영업,영업/정상,서울특별시 송파구 방이동 36-8번지,209591.910117742,445864.5249267,127.1063936732622,37.51495846453161
137,유흥주점영업,영업/정상,서울특별시 송파구 잠실동 180-4번지 지하1층,207122.20022936,445436.345120895,127.07845439499953,37.51112276464968
138,유흥주점영업,영업/정상,"서울특별시 송파구 가락동 79-7번지 (지하1층12,13호)",210658.051559152,443620.612078283,127.11842060349889,37.494729280467766
139,유흥주점영업,영업/정상,서울특별시 송파구 방이동 39-12번지 지하1층,209689.045731883,445965.47506444,127.10749370575446,37.51586701252597
140,유흥주점영업,영업/정상,서울특별시 영등포구 영등포동3가 21-3번지 (지하1층),191757.520680269,446161.333099657,126.90466328887038,37.517644480888094
141,유흥주점영업,영업/정상,서울특별시 서초구 서초동 1600-3번지 (지하1층),201254.930785077,442705.794493677,127.01208795467196,37.48654673830037
142,유흥주점영업,영업/정상,서울특별시 서초구 서초동 1588-1 지하1층,201153.543582527,442643.280772,127.01094149312927,37.48598361418716
143,유흥주점영업,영업/정상,서울특별시 은평구 갈현동 396-8번지 3층,192891.647750154,457465.815060946,126.9173814414891,37.619505934598386
144,유흥주점영업,영업/정상,서울특별시 은평구 응암동 590-1번지 (지하1층),192565.042051109,454222.084119125,126.91371522574072,37.59027791016696
145,유흥주점영업,영업/정상,서울특별시 은평구 갈현동 456-24번지 (지하1층),192775.441248036,457293.41165271,126.9160668956846,37.6179517015961
146,유흥주점영업,영업/정상,서울특별시 은평구 대조동 14-14번지 (지하1층),193744.581016309,456409.224425749,126.92705168677607,37.60999251623427
147,유흥주점영업,영업/정상,서울특별시 은평구 대조동 12-12번지 (지상2층),193644.387745991,456494.757634643,126.92591619830766,37.610762460573554
148,유흥주점영업,영업/정상,서울특별시 은평구 응암동 577-45 (지하1층),192608.366886719,454252.81341775,126.91420545858469,37.5905551280405
149,유흥주점영업,영업/정상,서울특별시 은평구 응암동 590-2,192580.068968688,454214.615639225,126.91388544434078,37.590210742636636
150,유흥주점영업,영업/정상,서울특별시 은평구 대조동 15-38,193723.1564212,456369.530117768,126.9268093865407,37.60963473059481
151,유흥주점영업,영업/정상,서울특별시 은평구 응암동 590-3번지,192592.550833219,454204.382082142,126.91402687451556,37.59011864131023
152,유흥주점영업,영업/정상,서울특별시 은평구 응암동 590-6,192578.162771432,454189.705277869,126.91386411595761,37.58998628879607
153,유흥주점영업,영업/정상,서울특별시 은평구 응암동 590-4번지,192590.88736585,454194.693989828,126.91400813876159,37.59003133965764
154,유흥주점영업,영업/정상,서울특별시 송파구 방이동 38-13번지 (지상2층),209668.738418531,445897.913155571,127.10726312243231,37.51525849473742
155,유흥주점영업,영업/정상,"서울특별시 송파구 가락동 79-4번지 세화빌딩 지하1층 111호,112호,113호",210562.900849903,443555.864703206,127.11734371102054,37.49414699418486
156,유흥주점영업,영업/정상,서울특별시 송파구 방이동 34-4,209542.74681331,445930.621574388,127.10583843371602,37.51555449795454
157,유흥주점영업,영업/정상,서울특별시 송파구 가락동 99-2 3층,210456.932121326,443484.595603431,127.1161444143581,37.49350605913963
158,유흥주점영업,영업/정상,서울특별시 송파구 가락동 99-2,210456.932121326,443484.595603431,127.1161444143581,37.49350605913963
159,유흥주점영업,영업/정상,서울특별시 송파구 가락동 99-1 지하1층,210491.688890281,443508.221246366,127.11653777392455,37.49371853409091
160,유흥주점영업,영업/정상,서울특별시 서초구 서초동 1595-2 지하1층,201111.67582111,442775.671400797,127.0104682927992,37.4871765032154
161,유흥주점영업,영업/정상,서울특별시 송파구 가락동 98-6 지하2층,210463.282485743,443549.893536475,127.11621714577784,37.49409432065788
162,유흥주점영업,영업/정상,서울특별시 은평구 대조동 12-10번지 외1필지(지하1층),193609.40082919,456446.339287059,126.92552037712754,37.61032597566101
163,유흥주점영업,영업/정상,서울특별시 은평구 응암동 600-2 외2필지 지상4층,192576.600496455,454123.137809564,126.91384710744231,37.58938651388184
164,유흥주점영업,영업/정상,서울특별시 용산구 이태원동 34-69번지 (지하1층),199118.176847228,447688.4883026,126.98792160630164,37.53144096058422
165,유흥주점영업,영업/정상,서울특별시 용산구 동자동 43-172번지 (지상1층),197417.990726471,449729.163439693,126.96867900339427,37.549823978213794
166,유흥주점영업,영업/정상,서울특별시 서초구 방배동 836-3번지,199177.0452218,443168.320380936,126.98859307304447,37.49071443985604
167,유흥주점영업,영업/정상,서울특별시 서초구 서초동 1589-4 2층,201066.818606401,442553.417053589,127.00996079255617,37.48517403936006
168,유흥주점영업,영업/정상,서울특별시 서초구 서초동 1330-12,202471.53107914,443447.073749745,127.02584628465435,37.493223297976606
169,유흥주점영업,영업/정상,서울특별시 서초구 서초동 1308-10,202148.842329929,444308.829108781,127.02219980985122,37.500988490639
170,유흥주점영업,영업/정상,서울특별시 송파구 가락동 79-4 2층 202-A호,210562.900849903,443555.864703206,127.11734371102054,37.49414699418486
171,유흥주점영업,영업/정상,서울특별시 송파구 가락동 79-4번지 2층 202-B호,210562.900849903,443555.864703206,127.11734371102054,37.49414699418486
172,유흥주점영업,영업/정상,서울특별시 은평구 대조동 12-10번지 외1필지(지층),193609.40082919,456446.339287059,126.92552037712754,37.61032597566101
173,유흥주점영업,영업/정상,서울특별시 은평구 응암동 577-46번지 지층,192596.187206153,454258.336748523,126.91406749731013,37.59060479364747
174,유흥주점영업,영업/정상,서울특별시 용산구 이촌동 302-48,197228.842406661,446427.314850602,126.96655127033117,37.52007398344886
175,유흥주점영업,영업/정상,서울특별시 서초구 서초동 1303-36번지 (3층~5층),202086.133719824,444484.604437589,127.0214911199247,37.50257236295556
176,유흥주점영업,영업/정상,서울특별시 용산구 한남동 747-7 (지하2층),199737.097413554,448587.753314794,126.99492343489212,37.53954370523685
177,유흥주점영업,영업/정상,서울특별시 용산구 원효로2가 84-10번지 (지하1층),196549.89584221,448153.524398611,126.95886284250882,37.53562469698462
178,유흥주점영업,영업/정상,서울특별시 서초구 반포동 747-14 지하1층,201992.352353122,444691.911086814,127.02043106546039,37.5044403925655
179,유흥주점영업,영업/정상,서울특별시 서초구 잠원동 6-1 리버사이드호텔,201530.475526772,446268.294338007,127.01521059324945,37.51864440627309
180,유흥주점영업,영업/정상,서울특별시 서초구 잠원동 12-21,201601.185140592,446044.757176321,127.0160099708002,37.51663023035656
181,유흥주점영업,영업/정상,서울특별시 송파구 방이동 38-12번지 (지하1층),209663.873577586,445912.091354269,127.10720828054401,37.51538629016639
182,유흥주점영업,영업/정상,서울특별시 용산구 이태원동 116-1번지 해밀턴호텔 별관 2층,199357.143999617,448100.802302867,126.99062479184798,37.53515609758181
183,유흥주점영업,영업/정상,서울특별시 용산구 이태원동 116-1번지 해밀턴관광호텔 별관2층,199357.143999617,448100.802302867,126.99062479184798,37.53515609758181
184,유흥주점영업,영업/정상,서울특별시 용산구 이태원동 108-9번지 해밀튼호텔 지하2층,199387.896366941,448055.04886957,126.99097277169123,37.53474388524135
185,유흥주점영업,영업/정상,서울특별시 용산구 이태원동 22-76번지,199337.628628981,447413.487156381,126.99040467131172,37.52896341541847
186,유흥주점영업,영업/정상,서울특별시 용산구 한남동 737-25 지하1층,199774.471653899,448110.566487329,126.99534650677661,37.535244297786875
187,유흥주점영업,영업/정상,서울특별시 영등포구 영등포동8가 81-5번지 지하1층,191661.231485592,447367.933695144,126.90356031978796,37.528515007746854
188,유흥주점영업,영업/정상,서울특별시 영등포구 영등포동3가 21-13,191789.131092084,446166.215693674,126.90502079563156,37.5176887566998
189,유흥주점영업,영업/정상,서울특별시 영등포구 신길동 449-6 지하1층,193138.246186135,445635.766754155,126.92028634296224,37.51292054292933
190,유흥주점영업,영업/정상,서울특별시 영등포구 여의도동 43-3번지 홍우빌딩 2호,193844.169062846,446511.783285705,126.92826349262835,37.52081843759356
191,유흥주점영업,영업/정상,서울특별시 송파구 방이동 24-8 지하1층,209461.374758018,445891.715835952,127.1049175211866,37.51520479105249
192,유흥주점영업,영업/정상,서울특별시 송파구 가락동 79-4 세화빌딩,210562.900849903,443555.864703206,127.11734371102054,37.49414699418486
193,유흥주점영업,영업/정상,서울특별시 영등포구 신길동 449-22 신성빌딩,193084.355458397,445642.841119953,126.9196767281245,37.512983876856524
194,유흥주점영업,영업/정상,서울특별시 송파구 방이동 46-3번지,209868.08080913,445956.537234658,127.10951869595428,37.51578459937675
195,유흥주점영업,영업/정상,서울특별시 강북구 수유동 230-7 효성인텔리안오피스텔,201996.772638212,459341.412320599,127.02051965174044,37.636430612305894
196,유흥주점영업,영업/정상,서울특별시 영등포구 여의도동 44-23 하남빌딩 지하13호,193717.614335836,446460.363567554,126.92683234911563,37.52035428709407
197,유흥주점영업,영업/정상,서울특별시 강남구 역삼동 719-18 시티타워 6-10층,203557.912978466,444347.552820127,127.03813519832524,37.501333136223586
198,유흥주점영업,영업/정상,서울특별시 구로구 오류동 55-14번지 1호건물  지하1층 101호,186149.000717898,443754.961884834,126.84126803122673,37.49589571151773
199,유흥주점영업,영업/정상,서울특별시 강동구 길동 412-12번지,212215.378259229,448196.85466049,127.13610653632284,37.53594177577101
200,유흥주점영업,영업/정상,"서울특별시 강동구 길동 412-11번지 ,16",212211.012072968,448223.719322388,127.13605758030596,37.536183881358895
201,유흥주점영업,영업/정상,서울특별시 강동구 길동 389-3번지,212226.105202273,448338.725550578,127.13623025235721,37.537219877763654
202,유흥주점영업,영업/정상,서울특별시 강동구 길동 412-2번지,212212.69263868,448288.015400093,127.13607765792963,37.53676316083991
203,유흥주점영업,영업/정상,서울특별시 강남구 역삼동 826-41번지 지하1층,202581.453379878,443739.168275263,127.02709026798105,37.495854775265876
204,유흥주점영업,영업/정상,서울특별시 관악구 신림동 1425-9,193727.456510559,442715.01499032,126.92697593658863,37.48660885766665
205,유흥주점영업,영업/정상,서울특별시 강남구 신사동 502-11 영일빌딩,201684.704785227,446105.858997581,127.01695482777262,37.51718061258927
206,유흥주점영업,영업/정상,서울특별시 송파구 석촌동 1-7 로사나관광호텔,208554.799609279,444868.79542744,127.09465130913583,37.50599710232848
207,유흥주점영업,영업/정상,서울특별시 관악구 신림동 1639-33,193614.662018159,442323.099706138,126.9257040189484,37.48307691936641
208,유흥주점영업,영업/정상,서울특별시 송파구 석촌동 1-7 로사나관광호텔,208554.799609279,444868.79542744,127.09465130913583,37.50599710232848
209,유흥주점영업,영업/정상,서울특별시 송파구 방이동 28-7 지하1층,209509.255875997,445829.07823706,127.10545830702355,37.514639940888436
210,유흥주점영업,영업/정상,서울특별시 영등포구 영등포동3가 14-2 2층,191889.136916949,446255.565810867,126.90615102052375,37.51849468761434
211,유흥주점영업,영업/정상,서울특별시 영등포구 영등포동3가 13-7 지하1층,191962.060483751,446214.142437193,126.90697636252239,37.518122108102794
212,유흥주점영업,영업/정상,서울특별시 영등포구 여의도동 44-13번지 지하1층 12호,193861.272368256,446387.375846863,126.92845801486835,37.51969764794534
213,유흥주점영업,영업/정상,서울특별시 영등포구 영등포동1가 139-5번지,191943.16676686,446105.56264026,126.90676384372367,37.517143643690126
214,유흥주점영업,영업/정상,서울특별시 영등포구 여의도동 44-6번지 스타빌딩 4층,193769.295072608,446459.072185673,126.9274169691729,37.52034300569786
215,유흥주점영업,영업/정상,서울특별시 영등포구 영등포동3가 12-19,191944.588788427,446182.254487727,126.90677908199481,37.51783464582316
216,유흥주점영업,영업/정상,"서울특별시 영등포구 여의도동 44-32 에리트빌팅 지하101,102,103호",193745.64337296,446380.254633325,126.92715010014078,37.5196327019204
217,유흥주점영업,영업/정상,"서울특별시 영등포구 여의도동 45-15 서린빌딩, 지하1층 3호7호",193658.473981035,446413.91770955,126.92616376209659,37.51993540375239
218,유흥주점영업,영업/정상,서울특별시 영등포구 여의도동 44-16번지 외교빌딩 지하1층3호,193818.79109034,446395.886698317,126.92797740143153,37.519774043849935
219,유흥주점영업,영업/정상,서울특별시 영등포구 영등포동3가 17-11번지 지하1층,191700.45623901,446257.474078594,126.90401670993599,37.51851019080162
220,유흥주점영업,영업/정상,서울특별시 영등포구 여의도동 35-2 백상빌딩 지하13~15호,193437.233759373,446618.398688307,126.92365927865876,37.52177620483951
221,유흥주점영업,영업/정상,서울특별시 영등포구 영등포동3가 23-1 지하1층 전체,191895.338228361,446230.0372964,126.90622145117332,37.518264731939595
222,유흥주점영업,영업/정상,서울특별시 영등포구 영등포동3가 13 지하1층,191925.582929646,446245.80638739,126.90656339293078,37.51840707776245
223,유흥주점영업,영업/정상,서울특별시 영등포구 영등포동3가 3-4번지 지하1층,191864.36725295,446303.736780941,126.90587029766394,37.518928485802356
224,유흥주점영업,영업/정상,서울특별시 영등포구 영등포동3가 14-7 (2층),191876.865981245,446248.345378481,126.90601229644558,37.51842952314923
225,유흥주점영업,영업/정상,서울특별시 영등포구 여의도동 35-2번지 백상빌딩 008호,193437.233759373,446618.398688307,126.92365927865876,37.52177620483951
226,유흥주점영업,영업/정상,서울특별시 영등포구 여의도동 36-4 오륜빌딩 지하1층 101~104호,193500.284361195,446443.965496834,126.92437407364807,37.52020502146318
227,유흥주점영업,영업/정상,서울특별시 영등포구 영등포동3가 14-0번지 2층,191869.939594726,446260.700443296,126.90593380999654,37.518540780173254
228,유흥주점영업,영업/정상,서울특별시 영등포구 여의도동 14-11 대하빌딩 지하1층 B10~11호,192931.446800396,447446.454692463,126.91792970774466,37.52923316914281
229,유흥주점영업,영업/정상,서울특별시 영등포구 영등포동3가 4-7번지 외1필지 지하1층 일부,191769.314678876,446310.154682683,126.90479501803212,37.51898546152587
230,유흥주점영업,영업/정상,서울특별시 영등포구 영등포동3가 4-7번지,191769.314678876,446310.154682683,126.90479501803212,37.51898546152587
231,유흥주점영업,영업/정상,서울특별시 영등포구 양평동1가 9-28번지 지하2층,190268.75349914,446608.475784343,126.88781712268643,37.52165861323284
232,유흥주점영업,영업/정상,서울특별시 영등포구 여의도동 44-13 지하1층 003호,193861.272368256,446387.375846863,126.92845801486835,37.51969764794534
233,유흥주점영업,영업/정상,서울특별시 영등포구 영등포동3가 14-4번지 지하1층(전부),191904.773466907,446246.7863161,126.90632799306138,37.51841572317138
234,유흥주점영업,영업/정상,서울특별시 영등포구 영등포동3가 10-34번지,191763.034796552,446101.318343724,126.90472633939544,37.51710380062677
235,유흥주점영업,영업/정상,서울특별시 영등포구 대림동 909-18번지 지하1층,191771.834401612,443839.613121566,126.90485136757799,37.49672599565697
236,유흥주점영업,영업/정상,서울특별시 영등포구 여의도동 53-0번지 우정빌딩204호,193989.272586157,446346.562230998,126.92990626928103,37.51933077053099
237,유흥주점영업,영업/정상,서울특별시 영등포구 당산동1가 85-0 지하1,191141.65399723,446522.091108078,126.89769252564605,37.520889143175914
238,유흥주점영업,영업/정상,서울특별시 영등포구 영등포동3가 10-37,191768.633245167,446118.013777464,126.90478947753898,37.51725427595465
239,유흥주점영업,영업/정상,서울특별시 영등포구 영등포동3가 10-24번지,191712.056535788,446096.710224844,126.90414975444547,37.51706182190951
240,유흥주점영업,영업/정상,서울특별시 영등포구 영등포동3가 5-10번지,191661.036153797,446332.013360808,126.90356995196497,37.519181427710166
241,유흥주점영업,영업/정상,서울특별시 영등포구 영등포동3가 15-7번지,191824.466418229,446269.439620215,126.90541933529687,37.5186191149245
242,유흥주점영업,영업/정상,서울특별시 영등포구 영등포동3가 3-13번지 지하,191793.504251274,446300.474789196,126.90506875257,37.51889846325137
243,유흥주점영업,영업/정상,서울특별시 영등포구 영등포동3가 23-8,191900.889667597,446178.426311868,126.90628481987345,37.517799768765336
244,유흥주점영업,영업/정상,서울특별시 영등포구 영등포동3가 15-5번지,191845.509465163,446258.939522216,126.90565748454343,37.51852469718734
245,유흥주점영업,영업/정상,서울특별시 영등포구 영등포동5가 2-0 지하1층,191787.017660972,446380.898157896,126.90499447280563,37.51962301529603
246,유흥주점영업,영업/정상,서울특별시 영등포구 영등포동3가 3-8 지하1층,191885.636256487,446280.074174681,126.90611114968796,37.51871547566525
247,유흥주점영업,영업/정상,서울특별시 영등포구 영등포동4가 145-1,191385.692918266,446421.855413305,126.90045427829322,37.519988352021876
248,유흥주점영업,영업/정상,서울특별시 영등포구 영등포동3가 7-52,191663.825936485,446313.27612521,126.90360172335569,37.5190126316287
249,유흥주점영업,영업/정상,서울특별시 영등포구 양평동4가 27-3 지하1층,190955.646830706,448129.217408313,126.89556849383538,37.53536742106395
250,유흥주점영업,영업/정상,서울특별시 영등포구 영등포동3가 14-2번지 지하1층,191889.136916949,446255.565810867,126.90615102052375,37.51849468761434
251,유흥주점영업,영업/정상,서울특별시 영등포구 영등포동3가 23-1 2층,191895.338228361,446230.0372964,126.90622145117332,37.518264731939595
252,유흥주점영업,영업/정상,서울특별시 영등포구 영등포동3가 13-3번지 지하1층,191960.636097566,446236.343841501,126.90696000577455,37.51832212909405
253,유흥주점영업,영업/정상,서울특별시 영등포구 영등포동3가 17-4번지,191760.968092577,446263.27620361,126.90470113317016,37.5185630139056
254,유흥주점영업,영업/정상,서울특별시 영등포구 당산동5가 33-9번지 지하1층,191064.320214148,448060.122566707,126.89679889157327,37.53474594866243
255,유흥주점영업,영업/정상,서울특별시 영등포구 여의도동 45-15 서린빌딩 지하1층6호,193658.473981035,446413.91770955,126.92616376209659,37.51993540375239
256,유흥주점영업,영업/정상,서울특별시 영등포구 영등포동3가 7-25번지 델리타운 B01호,191636.053345951,446315.067198453,126.9032875469761,37.51902851595139
257,유흥주점영업,영업/정상,서울특별시 영등포구 영등포동3가 13-13번지,191923.852141333,446217.529962367,126.90654412793172,37.51815229339391
258,유흥주점영업,영업/정상,서울특별시 영등포구 영등포동3가 15-4번지,191847.828354314,446267.566982893,126.90568361859984,37.51860245079263
259,유흥주점영업,영업/정상,서울특별시 영등포구 여의도동 45-15 (서린빌딩 지하105호),193658.473981035,446413.91770955,126.92616376209659,37.51993540375239
260,유흥주점영업,영업/정상,서울특별시 영등포구 영등포동3가 23-8,191900.889667597,446178.426311868,126.90628481987345,37.517799768765336
261,유흥주점영업,영업/정상,서울특별시 영등포구 영등포동3가 14-5번지,191894.445369995,446243.916773864,126.90621119729464,37.518389777400685
262,유흥주점영업,영업/정상,서울특별시 영등포구 영등포동3가 11-13,191867.349232032,446143.448045228,126.905905815783,37.51748431918454
263,유흥주점영업,영업/정상,서울특별시 영등포구 영등포동3가 14-3번지 2층,191896.825557641,446253.726636685,126.90623801213191,37.51847818480924
264,유흥주점영업,영업/정상,서울특별시 영등포구 영등포동3가 13-1번지,191937.587868566,446243.448143929,126.90669921445289,37.518385935873944
265,유흥주점영업,영업/정상,서울특별시 영등포구 신길동 69-6번지 지하1층,193075.404316221,445703.184334653,126.91957490998233,37.51352749900188
266,유흥주점영업,영업/정상,"서울특별시 영등포구 여의도동 35-5 331,332호",193306.330043669,446582.782311218,126.92217880412527,37.5214543540683
267,유흥주점영업,영업/정상,서울특별시 영등포구 여의도동 35-2 백상빌딩,193437.233759373,446618.398688307,126.92365927865876,37.52177620483951
268,유흥주점영업,영업/정상,서울특별시 영등포구 당산동6가 233-0 2층,191387.41656572,447916.266558824,126.90045613402788,37.53345291254343
269,유흥주점영업,영업/정상,서울특별시 영등포구 영등포동3가 22-1 2층,191865.848064344,446163.064895019,126.90588861662133,37.517661052661026
270,유흥주점영업,영업/정상,서울특별시 영등포구 영등포동3가 17-9 스카이모텔,191722.228677905,446262.797865221,126.90426293168777,37.518558354840984
271,유흥주점영업,영업/정상,서울특별시 영등포구 당산동6가 338-4 (지1층),191061.809013235,448120.365307305,126.89676974142958,37.53528870638928
272,유흥주점영업,영업/정상,"서울특별시 영등포구 여의도동 45-20 동북빌딩 205,206호",193657.079889411,446371.108165276,126.9261483653705,37.519549682230384
273,유흥주점영업,영업/정상,서울특별시 영등포구 영등포동3가 17-6,191756.486672265,446243.56479259,126.90465066359707,37.51838537482095
274,유흥주점영업,영업/정상,"서울특별시 영등포구 여의도동 44-13번지 충무빌딩 지하4,5호",193861.272368256,446387.375846863,126.92845801486835,37.51969764794534
275,유흥주점영업,영업/정상,서울특별시 중구 을지로4가 316-1,199500.419899982,451531.491822476,126.99224320480617,37.56606639913844
276,유흥주점영업,영업/정상,서울특별시 중구 중림동 69-8 지하1층,197192.810434102,450712.225514523,126.9661269290086,37.55868059804223
277,유흥주점영업,영업/정상,서울특별시 중구 충무로4가 149-3번지,199420.586341522,451122.443782217,126.9913399397885,37.56238086947071
278,유흥주점영업,영업/정상,서울특별시 중구 북창동 42-3번지 (2~3층),197968.205037015,451266.007618073,126.97490105456619,37.56367220481483
279,유흥주점영업,영업/정상,서울특별시 중구 충무로2가 51-1번지,199046.794937764,451066.038144539,126.98710933778318,37.561872323832304
280,유흥주점영업,영업/정상,서울특별시 중구 광희동1가 187-1,200512.247061327,451433.39095799,127.00369586453243,37.565182585368454
281,유흥주점영업,영업/정상,서울특별시 중구 무학동 11-2 지하1층,201325.384172725,451418.218643841,127.01289950635255,37.565045130790516
282,유흥주점영업,영업/정상,서울특별시 종로구 종로5가 77-0번지,200133.902213499,452123.576028329,126.99941355191642,37.571401177963196
283,유흥주점영업,영업/정상,서울특별시 종로구 숭인동 316-2번지,201342.2760174,452159.201741248,127.01309199077639,37.57172127795168
284,유흥주점영업,영업/정상,서울특별시 중구 광희동1가 187-2번지,200511.769995529,451411.725370173,127.00369045155172,37.56498738109102
285,유흥주점영업,영업/정상,서울특별시 종로구 관철동 18-13번지 (지상3층),198651.119766996,451931.50837289,126.98262933370242,37.569669590178194
286,유흥주점영업,영업/정상,서울특별시 중구 태평로1가 31-19번지,198035.464976705,451682.908121502,126.97566118218553,37.56742858136688
287,유흥주점영업,영업/정상,서울특별시 중구 저동2가 76-6,199025.825275946,451419.170289805,126.9868714987011,37.56505398215535
288,유흥주점영업,영업/정상,"서울특별시 종로구 종로5가 503-15번지 16,27,28",200282.967785071,451960.666217832,127.00110087453587,37.56993335701417
289,유흥주점영업,영업/정상,서울특별시 종로구 낙원동 225-0번지 지하1층,198939.59376248,452197.789326773,126.98589427624285,37.572069146523695
290,유흥주점영업,영업/정상,서울특별시 종로구 종로2가 8-4번지,198572.839145325,452022.373156033,126.98174305966566,37.57048814751726
291,유흥주점영업,영업/정상,서울특별시 종로구 낙원동 179 (지하1층),199006.837233012,452085.964430524,126.98665561731836,37.57106169757283
292,유흥주점영업,영업/정상,서울특별시 서대문구 창천동 503-13 (지하1층),193658.392546336,450660.696125699,126.92612580506861,37.558198537512304
293,유흥주점영업,영업/정상,서울특별시 서대문구 창천동 29-70번지,194417.469371215,450445.414812564,126.93471842867096,37.55626383826806
294,유흥주점영업,영업/정상,서울특별시 서대문구 홍제동 305-3,194985.06271041,454102.074307278,126.94111675931909,37.58921317085412
295,유흥주점영업,영업/정상,서울특별시 서대문구 연희동 353-94 지하1층,193524.840100995,451063.572722905,126.92461071478094,37.561827472600974
296,유흥주점영업,영업/정상,서울특별시 서대문구 남가좌동 102-6번지 지하1층,192530.895871279,451930.688664514,126.9133521536782,37.56963249192694
297,유흥주점영업,영업/정상,서울특별시 서대문구 창천동 29-45 29-109,194423.819762252,450494.912747696,126.93478991790985,37.55670984834252
298,유흥주점영업,영업/정상,서울특별시 서대문구 창천동 29-30 용성빌딩,194441.065804256,450526.865252968,126.9349848539076,37.556997842403625
299,유흥주점영업,영업/정상,서울특별시 서대문구 창천동 20-108번지,194669.645482841,450494.823263864,126.93757203336585,37.556710513447236
300,유흥주점영업,영업/정상,서울특별시 서대문구 홍은동 201-1번지,194211.997213753,454098.970268002,126.93236386858618,37.58918061490747
301,유흥주점영업,영업/정상,서울특별시 서대문구 창천동 29-30번지 용성빌딩 3층 전체 외 1필지(29-111),194441.065804256,450526.865252968,126.9349848539076,37.556997842403625
302,유흥주점영업,영업/정상,"서울특별시 서대문구 창천동 18-84 외 1필지, 2층",194385.617023805,450421.016025094,126.93435813298481,37.55604381208494
303,유흥주점영업,영업/정상,서울특별시 중구 태평로2가 330-2번지,197821.05708266,451248.775422975,126.97323561514294,37.56351659821426
304,유흥주점영업,영업/정상,서울특별시 중구 남창동 169-4번지 지하1층,197913.814120986,450584.547549642,126.97428742906733,37.55753219682264
305,유흥주점영업,영업/정상,서울특별시 서대문구 영천동 325,196567.532335528,451997.819618332,126.95904407238368,37.57026149467718
306,유흥주점영업,영업/정상,서울특별시 서대문구 창천동 18-13,194389.78102061,450507.178053947,126.93440459209526,37.55682014855836
307,유흥주점영업,영업/정상,서울특별시 서대문구 영천동 320,196547.056142384,452018.498894012,126.95881219331399,37.570447734472204
308,유흥주점영업,영업/정상,서울특별시 서대문구 창천동 18-72 지하1층,194400.075357345,450538.993774951,126.93452085211496,37.55710686814883
309,유흥주점영업,영업/정상,서울특별시 중구 신당동 247-14번지,201204.11466592,451408.586453892,127.01152687883406,37.56495850377296
310,유흥주점영업,영업/정상,서울특별시 중구 을지로3가 348-7 2층,199046.136217827,451509.637277001,126.98710126649782,37.565869102131515
311,유흥주점영업,영업/정상,서울특별시 중구 주교동 122-4 2층,199778.462124606,451792.729933373,126.9953902210779,37.56842025251579
312,유흥주점영업,영업/정상,서울특별시 종로구 낙원동 93번지,198921.316372634,452310.256279189,126.98568720529052,37.57308243729341
313,유흥주점영업,영업/정상,서울특별시 양천구 목동 923 세신비젼프라자 3층 306~309호,188494.598982992,447318.660520705,126.86773651161039,37.52803679193673
314,유흥주점영업,영업/정상,서울특별시 서대문구 대현동 101-17번지 지하1층 나호,194929.750810335,450514.690947083,126.94051561776602,37.55689100463613
315,유흥주점영업,영업/정상,서울특별시 서대문구 남가좌동 102-19,192533.061638415,451909.13104572,126.91337689017577,37.56943827827834
316,유흥주점영업,영업/정상,서울특별시 송파구 방이동 24 지하1층,209443.501250283,445885.938643454,127.1047152776697,37.515152920586814
317,유흥주점영업,영업/정상,서울특별시 송파구 잠실동 183-1번지 지하1층,207300.028556978,445429.459850149,127.0804656611627,37.51105935229929
318,유흥주점영업,영업/정상,서울특별시 용산구 남영동 62-9 (지하1층),197544.959757797,449011.990006643,126.97011829547574,37.54336266236546
319,유흥주점영업,영업/정상,서울특별시 용산구 원효로2가 90-1번지 (지하1층),196506.975091736,448157.36945739,126.95837720802353,37.53565917619339
320,유흥주점영업,영업/정상,서울특별시 용산구 한강로2가 115-1번지 (지하1층),197285.380806162,447648.148742781,126.9671862112654,37.53107380386994
321,유흥주점영업,영업/정상,서울특별시 송파구 풍납동 481-1번지,210729.459633931,448202.431833539,127.11929453520426,37.53601039956478
322,유흥주점영업,영업/정상,서울특별시 송파구 가락동 98-7 지하1층 106-1,210491.321883503,443569.763243482,127.1165344954868,37.49427303027304
323,유흥주점영업,영업/정상,서울특별시 송파구 잠실동 175-14 지하1층,207075.556776024,445478.752385726,127.07792723668098,37.511505207818
324,유흥주점영업,영업/정상,서울특별시 서초구 서초동 1588-12,201167.259660233,442566.366817199,127.01109646230425,37.48529060245713
325,유흥주점영업,영업/정상,서울특별시 서초구 서초동 1600-1번지,201225.908974795,442688.68702998,127.01175978266468,37.48639263684445
326,유흥주점영업,영업/정상,서울특별시 서초구 서초동 1574-7,201118.842719966,443334.370303665,127.01055012859537,37.49221037401275
327,유흥주점영업,영업/정상,서울특별시 송파구 방이동 37-7번지 지하1층,209635.83513501,445921.564437691,127.1068912561994,37.51547193325817
328,유흥주점영업,영업/정상,서울특별시 송파구 방이동 37-10 지하1층,209623.156821482,445904.495796319,127.10674762760104,37.515318277035156
329,유흥주점영업,영업/정상,서울특별시 송파구 잠실동 178-5 지하1층,207045.010076729,445401.759799146,127.07758100466097,37.510811738966574
330,유흥주점영업,영업/정상,서울특별시 송파구 방이동 36 지상 2층,209563.395932094,445948.756207391,127.1060722342123,37.515717677832946
331,유흥주점영업,영업/정상,서울특별시 송파구 방이동 37-2 지하 1층,209630.559399332,445882.78614088,127.10683107696237,37.515122597489515
332,유흥주점영업,영업/정상,서울특별시 종로구 관훈동 198-8번지 지하1층,198500.44755914,452243.433654936,126.9809231503295,37.57247975542995
333,유흥주점영업,영업/정상,서울특별시 서초구 방배동 811-16,199197.96726261,443239.653970188,126.98882956446744,37.49135717543441
334,유흥주점영업,영업/정상,서울특별시 은평구 응암동 600-10번지 지층,192560.870966262,454140.711393204,126.91366883195727,37.58954472100935
335,유흥주점영업,영업/정상,서울특별시 은평구 응암동 599-5 지하1층,192551.752382961,454079.025280103,126.9135662202616,37.58898886463629
336,유흥주점영업,영업/정상,서울특별시 은평구 응암동 600-3번지 1층,192533.901889235,454107.506056695,126.91336381878429,37.58924532607308
337,유흥주점영업,영업/정상,서울특별시 은평구 응암동 599-6번지 지하 1층,192569.755146918,454075.055042729,126.91377009369256,37.58895324013668
338,유흥주점영업,영업/정상,서울특별시 은평구 응암동 577-43 지층,192610.005257787,454275.262168702,126.9142237807142,37.590757400919756
339,유흥주점영업,영업/정상,서울특별시 은평구 대조동 185-50번지 외3필지(1층),192930.262964075,457339.381252662,126.91782006632,37.618367092168256
340,유흥주점영업,영업/정상,서울특별시 은평구 응암동 599-3,192527.138055477,454091.38165504,126.91328740218496,37.589099992448396
341,유흥주점영업,영업/정상,서울특별시 송파구 잠실동 177-4번지 지하1층,207004.830567831,445374.574610776,127.07712629819521,37.510567104297515
342,유흥주점영업,영업/정상,서울특별시 송파구 가락동 98-2 지하2층,210403.825298326,443562.753075246,127.11554498708881,37.49421085208382
343,유흥주점영업,영업/정상,서울특별시 종로구 종로5가 231-16번지,200299.39890015,452034.832060594,127.00128688922248,37.5706015782834
344,유흥주점영업,영업/정상,서울특별시 종로구 숭인동 201-25번지 (지하1층),201778.696535379,452392.642161476,127.01803268792689,37.57382383845699
345,유흥주점영업,영업/정상,서울특별시 종로구 관철동 43-12번지,198527.750150961,451865.126432449,126.98123300344902,37.56907129933285
346,유흥주점영업,영업/정상,서울특별시 종로구 인사동 35-0번지,198786.580189405,452227.065338305,126.98416214865418,37.57233272023685
347,유흥주점영업,영업/정상,서울특별시 종로구 숭인동 207-30번지 지하1층,201684.94301241,452360.671366747,127.0169713252341,37.57353595528878
348,유흥주점영업,영업/정상,서울특별시 종로구 연지동 275-1번지,200056.510139475,452135.101134699,126.99853750005869,37.571505020337284
349,유흥주점영업,영업/정상,서울특별시 종로구 효제동 245-21번지 지상1층,200203.247294827,452144.972262611,127.0001985184976,37.57159394758779
350,유흥주점영업,영업/정상,서울특별시 은평구 대조동 14-1 지층,193687.83561561,456469.658454439,126.92640849061189,37.61053662387221
351,유흥주점영업,영업/정상,서울특별시 은평구 갈현동 395-9번지,192828.053794717,457530.757592514,126.91666047460862,37.6200905552944
352,유흥주점영업,영업/정상,서울특별시 은평구 갈현동 396-8번지,192891.647750154,457465.815060946,126.9173814414891,37.619505934598386
353,유흥주점영업,영업/정상,서울특별시 은평구 갈현동 395-15번지 지하1층,192821.213440191,457558.008035866,126.91658272396332,37.62033602231167
354,유흥주점영업,영업/정상,서울특별시 은평구 불광동 281-172,193802.267465881,456419.663955141,126.92770492499733,37.61008696884816
355,유흥주점영업,영업/정상,서울특별시 은평구 대조동 14-25번지,193616.713952421,456366.273588429,126.92560390750684,37.60960465012927
356,유흥주점영업,영업/정상,서울특별시 은평구 갈현동 395-25,192851.898756942,457514.336391383,126.91693072892404,37.619942790956976
357,유흥주점영업,영업/정상,"서울특별시 서초구 서초동 1308번지 ,1호",202071.043928261,444356.623366891,127.02132011660048,37.50141928847689
358,유흥주점영업,영업/정상,서울특별시 송파구 잠실동 177-5 지하1층,206999.298639306,445404.173440738,127.07706400862133,37.51083383021897
359,유흥주점영업,영업/정상,서울특별시 용산구 이태원동 136-46 (지상1층),199563.529585079,447939.085050405,126.99295998505326,37.53369917084956
360,유흥주점영업,영업/정상,서울특별시 용산구 이태원동 127-2,199520.280404591,448012.047528971,126.99247061167114,37.53435653356128
361,유흥주점영업,영업/정상,서울특별시 용산구 원효로2가 84-1번지 지하1층,196546.598003309,448172.266377937,126.9588254402118,37.53579354834546
362,유흥주점영업,영업/정상,서울특별시 용산구 이태원동 34-16번지 (지하),198943.222786585,447962.208113485,126.98594182572123,37.53390696286593
363,유흥주점영업,영업/정상,서울특별시 송파구 가락동 98-7 (지하1층),210491.321883503,443569.763243482,127.1165344954868,37.49427303027304
364,유흥주점영업,영업/정상,서울특별시 서초구 서초동 1589-4 지하1층,201066.818606401,442553.417053589,127.00996079255617,37.48517403936006
365,유흥주점영업,영업/정상,서울특별시 송파구 방이동 34-7 지하1층,209559.952,445879.9555,127.10603239079286,37.51509782244224
366,유흥주점영업,영업/정상,"서울특별시 서초구 서초동 1308-4 지하중1층, 지하1층",202123.769148202,444374.640776733,127.02191644094043,37.50158150901626
367,유흥주점영업,영업/정상,서울특별시 송파구 방이동 39-12번지 지상2층,209689.045731883,445965.47506444,127.10749370575446,37.51586701252597
368,유흥주점영업,영업/정상,서울특별시 종로구 관철동 44-3,198504.402368702,451896.95555963,126.98096865510558,37.5693580367376
369,유흥주점영업,영업/정상,서울특별시 송파구 방이동 24-1,209454.477041667,445853.059490784,127.10483900654798,37.514856569523964
370,유흥주점영업,영업/정상,서울특별시 용산구 동자동 43-33 (지상1층),197419.958202485,449748.570991334,126.96870119821612,37.54999884414344
371,유흥주점영업,영업/정상,서울특별시 서초구 서초동 1657-3번지 (지하 1층),201183.009967514,443389.334257089,127.01127579581959,37.492705523720716
372,유흥주점영업,영업/정상,서울특별시 서초구 서초동 1588-7 (지103호),201162.55241589,442589.558473708,127.01104327370993,37.485499565116655
373,유흥주점영업,영업/정상,서울특별시 은평구 불광동 281-176번지 2층,193827.717096922,456382.779340308,126.92799346928138,37.60975481828049
374,유흥주점영업,영업/정상,서울특별시 은평구 불광동 281-174번지 (지하1층),193815.003892284,456401.253507205,126.92784932868713,37.60992118078197
375,유흥주점영업,영업/정상,서울특별시 은평구 대조동 15-84 지하1 층,193609.707450556,456302.641031305,126.92552511694346,37.60903128363048
376,유흥주점영업,영업/정상,서울특별시 은평구 응암동 600-5번지 (지하1층),192533.270518913,454125.32446932,126.91335648704774,37.5894058619565
377,유흥주점영업,영업/정상,서울특별시 은평구 응암동 590-12 지하1층,192534.570562175,454175.165825581,126.91337069441377,37.5898549352119
378,유흥주점영업,영업/정상,서울특별시 송파구 잠실동 181-2 지하1층,207135.25,445476.02,127.07860237630581,37.511480133952226
379,유흥주점영업,영업/정상,서울특별시 송파구 방이동 36 지하1층,209563.395932094,445948.756207391,127.1060722342123,37.515717677832946
380,유흥주점영업,영업/정상,서울특별시 송파구 가락동 99-1번지 지하1층,210491.688890281,443508.221246366,127.11653777392455,37.49371853409091
381,유흥주점영업,영업/정상,서울특별시 용산구 이태원동 136-2 (지상1층),199627.327718531,447981.339220031,126.99368176922388,37.53407991062132
382,유흥주점영업,영업/정상,서울특별시 서초구 방배동 875-1 (지하1층),199329.041024938,442965.479861536,126.99031196360703,37.488886979575895
383,유흥주점영업,영업/정상,서울특별시 서초구 서초동 1337-17 지하1층,202521.38313875,443368.091262312,127.02640974054557,37.492511534734966
384,유흥주점영업,영업/정상,서울특별시 서초구 서초동 1330-15번지,202453.713468162,443491.20087926,127.02564494904264,37.493620929518734
385,유흥주점영업,영업/정상,"서울특별시 서초구 잠원동 21-3 ,4호 (지하 1층)",201630.614056046,445872.94121719,127.01634248648323,37.51508212549207
386,유흥주점영업,영업/정상,서울특별시 서초구 서초동 1588-3 지하2층,201181.222272927,442647.574925514,127.01125445587324,37.48602227151361
387,유흥주점영업,영업/정상,서울특별시 중구 을지로3가 296-2번지 지하1층,199269.527925864,451465.042156905,126.98962984528897,37.56546752494603
388,유흥주점영업,영업/정상,서울특별시 중구 서소문동 89-0번지,197770.920321632,451225.883230242,126.97266821564543,37.56331021869152
389,유흥주점영업,영업/정상,서울특별시 중구 북창동 10-4번지 지하1층,198044.665371237,451236.63468171,126.97576655069446,37.563407728653885
390,유흥주점영업,영업/정상,서울특별시 서초구 서초동 1692-2번지,201239.804395998,443592.49588726,127.0119183385564,37.494535938933346
391,유흥주점영업,영업/정상,서울특별시 서초구 서초동 1692-7번지 지하1층,201287.065383865,443586.472440334,127.01245275798746,37.494481606365646
392,유흥주점영업,영업/정상,"서울특별시 서초구 잠원동 18-5 외4필지 지하2,3층",201428.517596116,445869.951055925,127.01405653851869,37.515055504964934
393,유흥주점영업,영업/정상,"서울특별시 서초구 서초동 1308 ,1호 (지하2호)",202071.043928261,444356.623366891,127.02132011660048,37.50141928847689
394,유흥주점영업,영업/정상,서울특별시 중구 다동 88-0 지하15호,198367.639004526,451720.217970577,126.97942099198448,37.567765410276756
395,유흥주점영업,영업/정상,서울특별시 중구 북창동 19-6 지상 2~3층,197911.09525129,451167.027181178,126.97425494874625,37.56278027034789
396,유흥주점영업,영업/정상,서울특별시 은평구 응암동 599-5,192551.752382961,454079.025280103,126.9135662202616,37.58898886463629
397,유흥주점영업,영업/정상,서울특별시 은평구 응암동 600-5번지 2층,192533.270518913,454125.32446932,126.91335648704774,37.5894058619565
398,유흥주점영업,영업/정상,서울특별시 은평구 대조동 15-80,193629.174571959,456303.749111673,126.92574557912111,37.60904140358396
399,유흥주점영업,영업/정상,서울특별시 서초구 서초동 1588-3번지 지하1층,201181.222272927,442647.574925514,127.01125445587324,37.48602227151361
400,유흥주점영업,영업/정상,서울특별시 서초구 서초동 1574-15,201138.858870942,443340.125842733,127.01077647353993,37.49226220835617
401,유흥주점영업,영업/정상,서울특별시 송파구 가락동 99-1 (지하1층),210491.688890281,443508.221246366,127.11653777392455,37.49371853409091
402,유흥주점영업,영업/정상,서울특별시 송파구 방이동 36-3 지하1층,209581.539386194,445894.909949726,127.10627676201494,37.51523233899207
403,유흥주점영업,영업/정상,서울특별시 송파구 가락동 99-1,210491.688890281,443508.221246366,127.11653777392455,37.49371853409091
404,유흥주점영업,영업/정상,서울특별시 송파구 방이동 36-1번지 지하1층,209568.188973238,445934.229165112,127.10612626162984,37.515586740611845
405,유흥주점영업,영업/정상,서울특별시 송파구 방이동 34-8 지상2층,209563.782,445868.6655,127.10607556658474,37.514996060720925
406,유흥주점영업,영업/정상,서울특별시 성동구 도선동 64 (지하1층),202961.064683932,451156.937352858,127.03141224207091,37.56268732633851
407,유흥주점영업,영업/정상,서울특별시 성동구 도선동 50 지하1층,202958.161635853,451149.336298816,127.03137935441737,37.56261885079731
408,유흥주점영업,영업/정상,서울특별시 종로구 효제동 155번지 지하1층,200279.457604439,452261.387624027,127.00106122940082,37.572642821018
409,유흥주점영업,영업/정상,서울특별시 종로구 창신동 174-1번지 지상2층,201114.051399661,452258.921784983,127.01050869809484,37.57262003144953
410,유흥주점영업,영업/정상,서울특별시 종로구 돈의동 50 지하1층,199121.552856042,452271.904541876,126.98795391381286,37.57273711962491
411,유흥주점영업,영업/정상,서울특별시 종로구 연지동 255번지 지하1층,199926.134449712,452184.823377297,126.9970616805391,37.57195300128058
412,유흥주점영업,영업/정상,서울특별시 종로구 인의동 73 지하1층,199697.097203624,452368.820338534,126.99446894616169,37.573610728147635
413,유흥주점영업,영업/정상,서울특별시 종로구 종로5가 4-1 지상2층,200464.00848623,452120.672326645,127.00315024010783,37.57137493198681
414,유흥주점영업,영업/정상,서울특별시 종로구 종로5가 4-1 1층,200464.00848623,452120.672326645,127.00315024010783,37.57137493198681
415,유흥주점영업,영업/정상,서울특별시 종로구 연지동 254-1 지하1층,199913.736412998,452181.573855188,126.99692133864916,37.57192372154017
416,유흥주점영업,영업/정상,서울특별시 종로구 종로4가 8 2층,199870.080275739,452092.183279631,126.99642718640035,37.57111831521389
417,유흥주점영업,영업/정상,서울특별시 종로구 종로4가 8번지 2층,199870.080275739,452092.183279631,126.99642718640035,37.57111831521389
418,유흥주점영업,영업/정상,서울특별시 종로구 돈의동 50번지 1층,199121.552856042,452271.904541876,126.98795391381286,37.57273711962491
419,유흥주점영업,영업/정상,서울특별시 종로구 창신동 446-5번지 2층,200876.507837051,452049.012002528,127.00781951025732,37.57072901002299
420,유흥주점영업,영업/정상,서울특별시 종로구 종로3가 157,199377.669055349,451982.41963839,126.9908533842035,37.57012912259531
421,유흥주점영업,영업/정상,서울특별시 종로구 낙원동 121-1,199024.157836526,452271.413337643,126.9868514166302,37.572732589104824
422,유흥주점영업,영업/정상,서울특별시 양천구 신정동 1030-1 지하 1층,186968.180405232,446537.11420971,126.85048196176677,37.52097472322161
423,유흥주점영업,영업/정상,서울특별시 양천구 목동 602-1 지하 1층,188253.377395195,449654.079008626,126.8649700043723,37.549075631159
424,유흥주점영업,영업/정상,서울특별시 은평구 응암동 590-14,192516.15145259,454158.793320581,126.91316231385329,37.58970727076126
425,유흥주점영업,영업/정상,서울특별시 은평구 대조동 15-82번지 지하1층,193622.202602672,456303.302301299,126.92566662306616,37.60903732911855
426,유흥주점영업,영업/정상,서울특별시 은평구 대조동 14-13 지층,193755.728494762,456400.87908413,126.92717800940193,37.609917402782536
427,유흥주점영업,영업/정상,서울특별시 은평구 대조동 15-106 지하1층,193645.206143923,456283.277993161,126.92592732179303,37.60885707462628
428,유흥주점영업,영업/정상,서울특별시 은평구 응암동 600-2번지,192576.600496455,454123.137809564,126.91384710744231,37.58938651388184
429,유흥주점영업,영업/정상,서울특별시 은평구 응암동 590-10번지 지층,192557.732507521,454172.60574899,126.91363297033777,37.58983205845575
430,유흥주점영업,영업/정상,서울특별시 은평구 대조동 198-5 지층,192884.947092573,457304.588712296,126.91730712566013,37.61805326586954
431,유흥주점영업,영업/정상,서울특별시 은평구 응암동 599-5번지,192551.752382961,454079.025280103,126.9135662202616,37.58898886463629
432,유흥주점영업,영업/정상,서울특별시 서초구 서초동 1306-8,202256.618815736,444148.332524677,127.02341817804113,37.49954216910006
433,유흥주점영업,영업/정상,서울특별시 송파구 가락동 79-4번지 세화빌딩,210562.900849903,443555.864703206,127.11734371102054,37.49414699418486
434,유흥주점영업,영업/정상,서울특별시 송파구 방이동 34-7 (2층),209559.952,445879.9555,127.10603239079286,37.51509782244224
435,유흥주점영업,영업/정상,서울특별시 성동구 도선동 87번지 지상2층,202990.555865701,451158.588973113,127.03174603978431,37.562702114102756
436,유흥주점영업,영업/정상,서울특별시 성동구 도선동 89번지 지하1층,203005.456844582,451173.727412898,127.03191475479478,37.56283846234893
437,유흥주점영업,영업/정상,서울특별시 성동구 도선동 43 (지하1층),202994.992836268,451122.41359327,127.03179611443441,37.56237616381252
438,유흥주점영업,영업/정상,서울특별시 성동구 도선동 68번지,202985.06683232,451131.062597967,127.03168380347385,37.56245412190087
439,유흥주점영업,영업/정상,서울특별시 성동구 도선동 29번지,203032.062295363,451134.858622557,127.03221572764393,37.56248817355426
440,유흥주점영업,영업/정상,서울특별시 송파구 방이동 34-8 지하1층,209563.782,445868.6655,127.10607556658474,37.514996060720925
441,유흥주점영업,영업/정상,서울특별시 송파구 방이동 38-12번지 지상2층,209663.873577586,445912.091354269,127.10720828054401,37.51538629016639
442,유흥주점영업,영업/정상,서울특별시 송파구 방이동 34-7 (3층),209559.952,445879.9555,127.10603239079286,37.51509782244224
443,유흥주점영업,영업/정상,"서울특별시 서초구 서초동 1309-8 지하1층, 지하2층",202109.500209654,444403.320252288,127.02175515167498,37.5018399423432
444,유흥주점영업,영업/정상,서울특별시 용산구 갈월동 98-31번지 (지하1층),197416.276447337,448819.077860197,126.96866288599672,37.54162417867393
445,유흥주점영업,영업/정상,서울특별시 용산구 원효로2가 94-2번지 지하1층,196534.284541859,448086.811978621,126.95868653298541,37.53502356308086
446,유흥주점영업,영업/정상,서울특별시 송파구 가락동 99-2 가락훼미리오피스텔2차 지하2층,210456.932121326,443484.595603431,127.1161444143581,37.49350605913963
447,유흥주점영업,영업/정상,서울특별시 은평구 대조동 197-19번지 (지1층),192916.607495432,457197.733969884,126.91766677783569,37.61709077284519
448,유흥주점영업,영업/정상,서울특별시 은평구 불광동 281-98번지 (지하1층),193797.112924632,456453.643857177,126.92764625624689,37.61039308624519
449,유흥주점영업,영업/정상,서울특별시 은평구 불광동 281-169 지층,193814.474068198,456428.122646386,126.92784309874759,37.6101632630569
450,유흥주점영업,영업/정상,서울특별시 용산구 남영동 61-6 (지상2층),197523.538138889,449015.374957161,126.9698758892536,37.54339310173191
451,유흥주점영업,영업/정상,서울특별시 용산구 한강로1가 243-13 (지하1층),197501.065506298,447922.484606547,126.96962541570046,37.533546177019375
452,유흥주점영업,영업/정상,서울특별시 송파구 가락동 99-2번지 훼미리2차오피스텔 지상2층 2층2호,210456.932121326,443484.595603431,127.1161444143581,37.49350605913963
453,유흥주점영업,영업/정상,서울특별시 송파구 방이동 34-6번지 지하1층,209556.120065618,445891.245190572,127.10598919300003,37.515199581378134
454,유흥주점영업,영업/정상,서울특별시 중구 충무로4가 133-1 (지상2층),199482.560997787,451107.363779923,126.99204139901018,37.56224504149759
455,유흥주점영업,영업/정상,서울특별시 중구 충무로3가 24-5 지상2층,199143.472023078,451193.990944798,126.98820338920069,37.563025266345875
456,유흥주점영업,영업/정상,서울특별시 중구 광희동1가 164번지 (지상2층),200477.851667781,451407.894705323,127.00330653847621,37.56495288306659
457,유흥주점영업,영업/정상,서울특별시 중구 충무로3가 24-6번지 (지상2층),199150.079374192,451207.991055599,126.98827815632467,37.5631514123894
458,유흥주점영업,영업/정상,서울특별시 중구 북창동 21-0,197913.733419044,451077.081602477,126.97428507211863,37.56196987666398
459,유흥주점영업,영업/정상,서울특별시 중구 황학동 371-47번지,201607.807763324,451587.013088711,127.01609652788197,37.566565519847664
460,유흥주점영업,영업/정상,서울특별시 중구 충무로3가 30-14,199282.256841704,451198.82621051,126.98977420467585,37.56306895980288
461,유흥주점영업,영업/정상,서울특별시 중구 남대문로5가 63-7,197477.060775895,450610.74637891,126.9693443556497,37.55776712318679
462,유흥주점영업,영업/정상,서울특별시 종로구 종로5가 244 지상2층,200389.375972921,452056.426604581,127.00230539749874,37.570796115183214
463,유흥주점영업,영업/정상,서울특별시 종로구 원남동 177-1번지 지하층,199642.716240024,452606.614384676,126.99385321732716,37.57575319894445
464,유흥주점영업,영업/정상,서울특별시 중구 북창동 118 2층,197958.262545842,451056.146350148,126.9747891230666,37.56178135514134
465,유흥주점영업,영업/정상,서울특별시 중구 광희동1가 130 지하1층,200448.972344949,451491.666371408,127.00297970652736,37.56570766882265
466,유흥주점영업,영업/정상,서울특별시 중구 황학동 706-2 지하1층,201775.039015385,451516.771445834,127.01798924204631,37.565932355479966
467,유흥주점영업,영업/정상,서울특별시 중구 남산동2가 31-1번지,198644.069040474,450827.86176286,126.98255166062,37.559725847285975
468,유흥주점영업,영업/정상,서울특별시 중구 중림동 129-38번지 지하1층,197183.087076662,450587.36802078,126.96601737290074,37.55755561457946
469,유흥주점영업,영업/정상,서울특별시 중구 을지로3가 95-4번지 2층,199207.00189941,451638.425441354,126.98892192558888,37.5670296324431
470,유흥주점영업,영업/정상,서울특별시 중구 남대문로5가 18-2번지 지하1,197704.330433205,450666.07817741,126.97191632316841,37.558266266897206
471,유흥주점영업,영업/정상,서울특별시 중구 북창동 20-2번지 2층,197922.915700535,451101.900532293,126.97438892684107,37.56219351390419
472,유흥주점영업,영업/정상,서울특별시 중구 황학동 740 2층,201557.139555615,451515.124712694,127.0155228719763,37.565917897275575
473,유흥주점영업,영업/정상,서울특별시 중구 충무로3가 56-5 2층,199192.945276588,451165.00108119,126.9887633811888,37.562764118954284
474,유흥주점영업,영업/정상,서울특별시 중구 초동 17-2번지 태창빌딩,199327.268552357,451427.992439409,126.99028343475723,37.56513375917559
475,유흥주점영업,영업/정상,"서울특별시 종로구 관철동 32-4번지 지하 1층(관철동 32-4,7)",198635.688914101,451847.282077868,126.98245482987114,37.56891069751275
476,유흥주점영업,영업/정상,서울특별시 종로구 창신동 293-5번지,201256.239749549,452309.296060348,127.01211832949619,37.57307372445812
477,유흥주점영업,영업/정상,서울특별시 종로구 연지동 246 지하 1층,199904.473854163,452205.362960672,126.99681648373561,37.57213805688799
478,유흥주점영업,영업/정상,서울특별시 종로구 종로5가 38-1 지상1층,200263.971686005,452127.920429803,127.00088589491097,37.57144030151898
479,유흥주점영업,영업/정상,서울특별시 중구 충무로4가 24-3 지하1층,199481.37606031,451138.52870995,126.99202796279704,37.56252583339011
480,유흥주점영업,영업/정상,서울특별시 중구 다동 58-1번지 4층,198264.78394422,451746.92183856,126.97825669912855,37.568005813853105
481,유흥주점영업,영업/정상,서울특별시 중구 필동1가 10-6 지하1층,199238.837477244,451039.792552027,126.9892829460767,37.561636045905956
482,유흥주점영업,영업/정상,서울특별시 중구 인현동1가 97-2 지하1층,199389.257171219,451326.825886905,126.99098515898218,37.56422230736716
483,유흥주점영업,영업/정상,서울특별시 중구 인현동1가 87-16 (지하1층),199430.41777159,451318.964833682,126.99145104493897,37.56415150939039
484,유흥주점영업,영업/정상,서울특별시 중구 충무로4가 22번지 지하1층,199463.534841161,451139.160588222,126.99182602975885,37.56253151508402
485,유흥주점영업,영업/정상,서울특별시 중구 을지로3가 302-15번지 (지하1층),199183.834921363,451487.649066169,126.98865987968848,37.56567113272912
486,유흥주점영업,영업/정상,서울특별시 중구 중림동 128-21번지 지하1층,197192.687794504,450621.319528756,126.96612589674702,37.55786154413954
487,유흥주점영업,영업/정상,서울특별시 중구 주교동 124-1 지하1층,199776.970753898,451805.656731189,126.99537333487797,37.5685367209783
488,유흥주점영업,영업/정상,서울특별시 중구 충무로4가 28-3번지 지상2층,199528.479126357,451130.498839091,126.99256109595628,37.56245351372348
489,유흥주점영업,영업/정상,서울특별시 종로구 종로5가 20-1번지 지하1층,200363.217845298,452115.190202487,127.00200932279385,37.57132557690094
490,유흥주점영업,영업/정상,서울특별시 종로구 숭인동 200-33 지하1층,201687.573879734,452408.346754198,127.01700121211901,37.57396549988162
491,유흥주점영업,영업/정상,서울특별시 종로구 종로5가 65번지,200170.752482393,452114.404611982,126.99983068299196,37.57131854111141
492,유흥주점영업,영업/정상,서울특별시 종로구 당주동 18번지 지상3층,197745.004527844,452127.244052997,126.97237203929635,37.57143130938851
493,유흥주점영업,영업/정상,서울특별시 종로구 청진동 183-1번지 지하1층,198117.379629688,452161.23287376,126.97658710879571,37.57173840665528
494,유흥주점영업,영업/정상,서울특별시 종로구 평창동 66-50번지 동화킴스관광호텔 지하1층,197733.39181877,456346.84737021,126.9722271619787,37.60944926249381
495,유흥주점영업,영업/정상,서울특별시 중구 오장동 206-37,200087.825669743,451349.239993786,126.99889195665192,37.56442450306378
496,유흥주점영업,영업/정상,서울특별시 중구 을지로1가 37-0번지 (4층),198139.289952741,451612.438834321,126.97683656774315,37.566793884043136
497,유흥주점영업,영업/정상,"서울특별시 중구 북창동 20-3번지 (지상3,4층)",197911.393971986,451104.082282263,126.9742585144878,37.56221314439068
498,유흥주점영업,영업/정상,서울특별시 중구 다동 58-1 지하1층,198264.78394422,451746.92183856,126.97825669912855,37.568005813853105
499,유흥주점영업,영업/정상,서울특별시 종로구 창신동 378번지 2층,201089.989130434,452192.646040943,127.01023622435373,37.57202292229216
500,유흥주점영업,영업/정상,서울특별시 종로구 종로5가 231-20번지 (3층),200312.728463188,452034.61983504,127.001437773619,37.570599662663035
501,유흥주점영업,영업/정상,서울특별시 종로구 창신동 436-73번지 (지하1층),201302.883783666,451982.388503793,127.01264578375871,37.57012826598231
502,유흥주점영업,영업/정상,서울특별시 종로구 종로5가 54번지 (지상1층),200197.579335384,452129.32069842,127.00013435613623,37.57145292974547
503,유흥주점영업,영업/정상,서울특별시 종로구 종로6가 124-1번지 (지상2층),200554.422814082,452128.029745721,127.00417370383846,37.57144117779984
504,유흥주점영업,영업/정상,서울특별시 중구 광희동1가 142 (지상3층),200498.497456559,451494.706799835,127.00354027293352,37.5657350407478
505,유흥주점영업,영업/정상,서울특별시 중구 오장동 206-35번지 (지상2층),200094.291266752,451350.151402624,126.99896513820387,37.56443271456972
506,유흥주점영업,영업/정상,서울특별시 중구 회현동1가 92-6번지 (지하1층),198164.258357664,450703.59926523,126.97712153794289,37.55860539086014
507,유흥주점영업,영업/정상,서울특별시 중구 충무로2가 60-3번지 신관지하1층,198911.806393959,451032.316115194,126.98558156140744,37.56156833304015
508,유흥주점영업,영업/정상,서울특별시 중구 남대문로5가 19-4번지 지상2층,197671.955229016,450714.517202917,126.97154975341759,37.55870261404949
509,유흥주점영업,영업/정상,서울특별시 중구 필동2가 53-0번지,199652.596554208,451038.891443622,126.99396594605366,37.56162820479633
510,유흥주점영업,영업/정상,서울특별시 중구 북창동 94-7번지,197993.293923247,451119.058274367,126.97518543762574,37.562348264129994
511,유흥주점영업,영업/정상,서울특별시 서대문구 창천동 29-111 2층,194425.616874829,450526.795166144,126.93481001163894,37.55699711656084
512,유흥주점영업,영업/정상,서울특별시 종로구 종로5가 332-7번지 지상2층,200137.895135224,451994.554417838,126.9994587375155,37.570238708592264
513,유흥주점영업,영업/정상,서울특별시 종로구 장사동 2번지,199261.53227936,451953.041896293,126.9895388102749,37.56986433877725
514,유흥주점영업,영업/정상,서울특별시 종로구 원남동 282 지하1층,199689.745659165,452449.278783139,126.99438568561818,37.57433564562028
515,유흥주점영업,영업/정상,서울특별시 종로구 종로6가 244-15번지 (지상3층),200487.269762546,452159.900405573,127.00341357229541,37.57172836179696
516,유흥주점영업,영업/정상,서울특별시 중구 을지로3가 5-6,199055.288923974,451579.319762379,126.98720476846053,37.56649694342424
517,유흥주점영업,영업/정상,서울특별시 중구 초동 70-4 (지상3층),199263.803751308,451326.721167275,126.98956520570741,37.56422126339821
518,유흥주점영업,영업/정상,서울특별시 중구 광희동1가 278번지 (지상2층),200277.233628962,451409.768497498,127.00103580738188,37.56496983386026
519,유흥주점영업,영업/정상,서울특별시 중구 인현동2가 100번지 (지상2층),199523.348932455,451311.73592696,126.99250289718594,37.564086436997485
520,유흥주점영업,영업/정상,서울특별시 중구 을지로6가 18-52 (지하1층),200535.613345678,451633.505223364,127.00396046937817,37.566985580432785
521,유흥주점영업,영업/정상,"서울특별시 중구 남대문로5가 84-4번지 외 3필지(84-1,84-2,84-3)",197587.078916783,450597.248177784,126.97058954174072,37.557645808009184
522,유흥주점영업,영업/정상,서울특별시 중구 충무로4가 15-18번지 외1필지(15-20) (3층),199447.951367947,451139.119065936,126.9916496511373,37.56253113067978
523,유흥주점영업,영업/정상,서울특별시 중구 충무로4가 25번지 외1필지 (2층),199511.558012697,451125.383543955,126.99236958151849,37.56240741547266
524,유흥주점영업,영업/정상,서울특별시 중구 충무로4가 25번지 외1필지 (3층),199511.558012697,451125.383543955,126.99236958151849,37.56240741547266
525,유흥주점영업,영업/정상,서울특별시 종로구 종로5가 38-1번지 지상2층,200263.971686005,452127.920429803,127.00088589491097,37.57144030151898
526,유흥주점영업,영업/정상,서울특별시 중구 오장동 139-8,200096.349102783,451381.703454867,126.99898843140103,37.56471699496785
527,유흥주점영업,영업/정상,서울특별시 중구 을지로3가 296-1,199266.445620489,451500.917372629,126.98959491838895,37.565790753905915
528,유흥주점영업,영업/정상,서울특별시 중구 저동2가 47-3번지,199100.412856507,451298.414680803,126.98771589156463,37.56396606866216
529,유흥주점영업,영업/정상,서울특별시 서대문구 남가좌동 293-85,192430.747828561,451913.110479249,126.91221872325512,37.56947329052806
530,유흥주점영업,영업/정상,서울특별시 서대문구 남가좌동 291-30번지 지하1층,192493.200966468,451918.813031147,126.91292559345274,37.569525185053905
531,유흥주점영업,영업/정상,서울특별시 서대문구 남가좌동 291-60번지,192510.450138899,451861.786465609,126.91312143037426,37.56901152463453
532,유흥주점영업,영업/정상,서울특별시 서대문구 남가좌동 291-26번지,192473.621293346,451891.209702134,126.91270424976183,37.56927632154601
533,유흥주점영업,영업/정상,서울특별시 서대문구 창천동 30-46,194336.99767439,450421.471613673,126.93380788838816,37.5560476161164
534,유흥주점영업,영업/정상,서울특별시 중구 중림동 129-35 (지상2층),197185.873726348,450597.615172744,126.96604887078314,37.557647949074216
535,유흥주점영업,영업/정상,서울특별시 중구 충무로3가 30-18 지상2층,199298.820026625,451178.139931184,126.98996169495213,37.56288259259736
536,유흥주점영업,영업/정상,"서울특별시 중구 황학동 732-0 (지상1,2층)",201624.791694991,451518.843529836,127.01628862273431,37.565951291340006
537,유흥주점영업,영업/정상,서울특별시 종로구 효제동 186번지,200314.384696796,452142.201149053,127.00145655806416,37.571568956762114
538,유흥주점영업,영업/정상,서울특별시 종로구 종로6가 123-1번지,200567.882962391,452120.784116208,127.00432606320841,37.57137588830897
539,유흥주점영업,영업/정상,서울특별시 종로구 낙원동 148  (지하1층),199002.707105102,452158.870410214,126.98660876034394,37.57171856677612
540,유흥주점영업,영업/정상,서울특별시 종로구 관수동 12-0번지,198991.186264536,451915.325921704,126.98647870425661,37.56952424710753
541,유흥주점영업,영업/정상,서울특별시 종로구 종로5가 113번지,199939.691753288,452167.204332397,126.9972151486968,37.571794257788675
542,유흥주점영업,영업/정상,서울특별시 종로구 낙원동 25번지  (지하1층),198886.944446027,452419.42955676,126.98529794281882,37.574066031498646
543,유흥주점영업,영업/정상,서울특별시 종로구 관철동 19-19번지,198585.290764513,451888.132413651,126.98188427674002,37.56927867464842
544,유흥주점영업,영업/정상,서울특별시 중구 북창동 98-0,197945.825357752,451102.651721983,126.97464822219204,37.562200334988134
545,유흥주점영업,영업/정상,서울특별시 종로구 돈의동 45-1번지 지하(1층),199093.10515902,452268.928324832,126.98763189383814,37.572710274724365
546,유흥주점영업,영업/정상,서울특별시 종로구 인의동 36번지 지하1층,199893.669907117,452177.248307966,126.9966941921068,37.571884745388495
547,유흥주점영업,영업/정상,서울특별시 종로구 종로5가 231-9 지상2층,200294.714859278,452051.807585944,127.00123387338101,37.570754526893474
548,유흥주점영업,영업/정상,서울특별시 종로구 효제동 245-21번지 지상1층,200203.247294827,452144.972262611,127.0001985184976,37.57159394758779
549,유흥주점영업,영업/정상,서울특별시 종로구 종로6가 244-16 지하1층,200491.814210231,452150.52723732,127.0034650086484,37.571643908604415
550,유흥주점영업,영업/정상,서울특별시 종로구 낙원동 121-1번지 지하1층,199024.157836526,452271.413337643,126.9868514166302,37.572732589104824
551,유흥주점영업,영업/정상,서울특별시 종로구 종로5가 58번지,200182.499160172,452111.960195543,126.99996365081506,37.571296515788795
552,유흥주점영업,영업/정상,서울특별시 중구 충무로3가 33-3번지 지하1층,199337.186542024,451182.996663007,126.99039593647488,37.562926382295856
553,유흥주점영업,영업/정상,서울특별시 중구 광희동1가 187-5번지 지하1층,200510.28666759,451400.561935357,127.00367365544464,37.5648868005152
554,유흥주점영업,영업/정상,서울특별시 중구 황학동 738 지하1층,201601.786168123,451508.736898235,127.01602820586513,37.56586027040425
555,유흥주점영업,영업/정상,서울특별시 중구 충무로4가 133-20 지상2층,199465.031468831,451099.72660702,126.99184300128151,37.562176220160666
556,유흥주점영업,영업/정상,서울특별시 종로구 수송동 58 두산위브 (지하1층 B137~B140호),198324.653631679,452252.812389497,126.9789331725444,37.57256394146239
557,유흥주점영업,영업/정상,서울특별시 종로구 종로5가 231-1번지 (지상2층),200365.852284655,452054.014626518,127.00203911857982,37.570774391545804
558,유흥주점영업,영업/정상,서울특별시 종로구 종로5가 182-19 (지상1층),200138.602416902,452032.162936569,126.99946674737505,37.5705775567518
559,유흥주점영업,영업/정상,서울특별시 종로구 종로5가 231-1번지 (지상1층),200365.852284655,452054.014626518,127.00203911857982,37.570774391545804
560,유흥주점영업,영업/정상,서울특별시 중구 충무로3가 24-16 지하1층,199090.112337836,451196.211778665,126.98759944055433,37.563045220947515
561,유흥주점영업,영업/정상,서울특별시 중구 광희동1가 175-2번지 2층,200477.250338876,451376.270966671,127.00329971443477,37.56466795699473
562,유흥주점영업,영업/정상,서울특별시 중구 서소문동 89번지 (3층),197770.920321632,451225.883230242,126.97266821564543,37.56331021869152
563,유흥주점영업,영업/정상,서울특별시 중구 황학동 632 (2층),201742.687156116,451552.40139125,127.01762313839538,37.56625343668872
564,유흥주점영업,영업/정상,서울특별시 중구 충무로4가 15-18번지 (지상2층),199447.951367947,451139.119065936,126.9916496511373,37.56253113067978
565,유흥주점영업,영업/정상,서울특별시 중구 수표동 56-14번지 (지하1층),198933.368225877,451641.143432307,126.98582466316022,37.567053825973964
566,유흥주점영업,영업/정상,서울특별시 중구 충무로4가 132-5 (지하1층),199471.269284407,451041.0342788,126.9919136499613,37.561647412638735
567,유흥주점영업,영업/정상,서울특별시 중구 다동 155번지 YG빌딩 지하1층,198193.534402364,451650.955791238,126.97745046020022,37.56714102908328
568,유흥주점영업,영업/정상,"서울특별시 종로구 효제동 233-3번지 ,236번지 (지하1층)",200243.09852747,452156.646685649,127.00064962478665,37.57169912584801
569,유흥주점영업,영업/정상,서울특별시 종로구 종로5가 231-20번지 (지상1~2층),200312.728463188,452034.61983504,127.001437773619,37.570599662663035
570,유흥주점영업,영업/정상,서울특별시 종로구 종로5가 104-9번지,199986.249110599,452134.714370633,126.99774216824956,37.57150153234825
571,유흥주점영업,영업/정상,서울특별시 종로구 종로6가 137-2 지하1층,200501.632246641,452157.963617927,127.00357615024537,37.57171090487671
572,유흥주점영업,영업/정상,서울특별시 종로구 효제동 202번지 지상1층,200284.343497696,452198.335237303,127.00111651805648,37.57207472565799
573,유흥주점영업,영업/정상,서울특별시 종로구 연지동 273 1층,200028.179665256,452138.019023822,126.99821680821839,37.57153130947844
574,유흥주점영업,영업/정상,서울특별시 중구 을지로5가 20-2 지하1층,200071.611964694,451641.857148299,126.99870844301645,37.56706095068695
575,유흥주점영업,영업/정상,서울특별시 중구 을지로3가 334-10번지 지하1층,199143.90500668,451509.150232469,126.9882078943978,37.56586481676956
576,유흥주점영업,영업/정상,서울특별시 중구 인현동1가 15-15 지하1층,199507.475413868,451488.41244627,126.9923230978192,37.56567826315096
577,유흥주점영업,영업/정상,서울특별시 종로구 관철동 22-0번지,198908.284831214,451897.998907337,126.98554033935649,37.56936803248117
578,유흥주점영업,영업/정상,서울특별시 종로구 관수동 154-1 1층,198991.002784609,451828.222399025,126.98647675486642,37.56873945451341
579,유흥주점영업,영업/정상,서울특별시 종로구 종로6가 157-0번지,200529.955216271,452214.275417762,127.0038967936102,37.57221825339178
580,유흥주점영업,영업/정상,서울특별시 종로구 교남동 46-0번지 지하1층,196811.034944922,451768.310660153,126.96180141382415,37.56819453865006
581,유흥주점영업,영업/정상,서울특별시 종로구 종로5가 40번지 1층,200250.174930574,452129.643249935,127.00072972072633,37.571455826800516
582,유흥주점영업,영업/정상,서울특별시 종로구 창신동 442-3 7층,200840.428333333,452076.902,127.00741113583061,37.5709803266006
583,유흥주점영업,영업/정상,서울특별시 종로구 수송동 58번지 두산위브파빌리온 지하 112호,198324.653631679,452252.812389497,126.9789331725444,37.57256394146239
584,유흥주점영업,영업/정상,"서울특별시 종로구 종로1가 24번지 르메이에르종로타운 지하2층 B203-1,B203-2",198150.300374121,452019.212642931,126.97696013266717,37.57045889074498
585,유흥주점영업,영업/정상,서울특별시 중구 을지로5가 133-1번지,200225.983119633,451511.262755282,127.00045574140864,37.5658842960578
586,유흥주점영업,영업/정상,서울특별시 중구 인현동2가 192-17 외2필지(지하1층),199524.530913749,451295.729538067,126.99251628728148,37.56394222190179
587,유흥주점영업,영업/정상,서울특별시 중구 충무로4가 134-2번지 (지상2층),199466.317788539,451108.71319358,126.99185755285717,37.56225718916953
588,유흥주점영업,영업/정상,서울특별시 중구 초동 53-22 (지상2층),199198.649726286,451216.422597341,126.98882788546187,37.56322742656533
589,유흥주점영업,영업/정상,서울특별시 중구 무교동 12-1번지,198117.52530179,451757.623911747,126.97658982919052,37.568101938902764
590,유흥주점영업,영업/정상,서울특별시 중구 광희동1가 194-1번지 지하1층,200544.610709636,451376.853057609,127.00406214247698,37.56467316894213
591,유흥주점영업,영업/정상,서울특별시 중구 을지로3가 295-4 양지빌딩,199243.719707907,451518.197727854,126.98933766881619,37.56594642797893
592,유흥주점영업,영업/정상,서울특별시 중구 광희동1가 182-20번지 지하1층,200538.203267895,451456.417076934,127.00398967033051,37.5653900351277
593,유흥주점영업,영업/정상,서울특별시 종로구 인사동 262번지 (지상1층),198587.35293385,452053.126737857,126.98190728681885,37.5707652569376
594,유흥주점영업,영업/정상,서울특별시 종로구 종로6가 244-15,200487.269762546,452159.900405573,127.00341357229541,37.57172836179696
595,유흥주점영업,영업/정상,서울특별시 종로구 숭인동 201-20번지 지하1층,201853.268380126,452392.927257206,127.0188768436217,37.5738262653727
596,유흥주점영업,영업/정상,서울특별시 종로구 숭인동 201-28 지하 1층,201850.462764525,452407.508781009,127.01884511950023,37.57395764849998
597,유흥주점영업,영업/정상,서울특별시 종로구 종로5가 246-5번지,200387.544613004,452016.784453428,127.00228464984136,37.5704389448413
598,유흥주점영업,영업/정상,서울특별시 종로구 숭인동 1413번지 지하1층,201875.26325709,452427.447562564,127.01912591138348,37.57413724598617
599,유흥주점영업,영업/정상,서울특별시 중구 북창동 20-3 3층,197911.393971986,451104.082282263,126.9742585144878,37.56221314439068
600,유흥주점영업,영업/정상,서울특별시 중구 초동 62번지 지상2층,199245.020604696,451300.426900916,126.98935263671092,37.56398433846924
601,유흥주점영업,영업/정상,서울특별시 종로구 낙원동 93번지,198921.316372634,452310.256279189,126.98568720529052,37.57308243729341
602,유흥주점영업,영업/정상,서울특별시 종로구 청진동 26번지,198266.966101293,452159.624458141,126.97828038779797,37.57172421900797
603,유흥주점영업,영업/정상,서울특별시 종로구 묘동 200번지,199203.17355077,452103.946882106,126.98887804583849,37.57122392173096
604,유흥주점영업,영업/정상,서울특별시 종로구 돈의동 19 (지하1층),199094.814233137,452287.694277057,126.98765121549391,37.57287935541757
605,유흥주점영업,영업/정상,서울특별시 종로구 창신동 465번지,200902.807232242,452137.584346747,127.00811730894911,37.571527012500354
606,유흥주점영업,영업/정상,서울특별시 종로구 종로5가 245,200385.831662154,452045.719812887,127.00226527275075,37.57069964953023
607,유흥주점영업,영업/정상,서울특별시 종로구 종로1가 24 르메이에르 종로타운 비223호,198150.300374121,452019.212642931,126.97696013266717,37.57045889074498
608,유흥주점영업,영업/정상,서울특별시 종로구 종로5가 94번지 지상1층,200031.092685262,452102.069061695,126.99824978430253,37.57120740482082
609,유흥주점영업,영업/정상,서울특별시 중구 충무로3가 51-8 지하1층,199258.276796638,451059.125254369,126.9895029425369,37.56181024868592
610,유흥주점영업,영업/정상,서울특별시 중구 을지로2가 163-5,198740.493068353,451509.114734544,126.98364174779664,37.565864005647704
611,유흥주점영업,영업/정상,서울특별시 중구 충무로3가 25-12,199205.25409535,451196.640474041,126.98890265965296,37.56304919798402
612,유흥주점영업,영업/정상,서울특별시 중구 오장동 139-17번지,200087.029327046,451381.600336586,126.99888294415938,37.56471606615831
613,유흥주점영업,영업/정상,서울특별시 서대문구 창천동 29-30번지 용성빌딩 4층 전체 외 1필지(29-111),194441.065804256,450526.865252968,126.9349848539076,37.556997842403625
614,유흥주점영업,영업/정상,서울특별시 서대문구 남가좌동 102-24,192542.346907404,451838.158288752,126.91348272122734,37.56879889872935
615,유흥주점영업,영업/정상,서울특별시 중구 북창동 120-3번지,197956.48729587,451034.327543893,126.97476909311666,37.56158476599678
616,유흥주점영업,영업/정상,서울특별시 종로구 내수동 75번지 용비어천가 지하102호,197567.747824202,452347.973860449,126.97036480214801,37.573419594098034
617,유흥주점영업,영업/정상,서울특별시 종로구 효제동 227,200262.937122356,452202.887589142,127.00087420427984,37.5721157466447
618,유흥주점영업,영업/정상,서울특별시 중구 충무로4가 131-4번지 외1필지(지상2층),199498.261434055,451106.843219036,126.99221910121287,37.562240361079844
619,유흥주점영업,영업/정상,서울특별시 종로구 숭인동 313-7번지,201334.919130252,452243.631447919,127.01300885923807,37.572481989353726
620,유흥주점영업,영업/정상,"서울특별시 중구 북창동 99-3번지 지상2,3층",197947.651248415,451086.959841726,126.97466893337675,37.562058957049224
621,유흥주점영업,영업/정상,서울특별시 중구 남대문로5가 84-20번지 지상2층,197597.047336082,450595.116844507,126.97070236723518,37.55762663164976
622,유흥주점영업,영업/정상,서울특별시 중구 초동 40-4 지상2층,199325.013411554,451250.997023543,126.99025808788521,37.56353904839532
623,유흥주점영업,영업/정상,서울특별시 중구 황학동 738 지하1층,201601.786168123,451508.736898235,127.01602820586513,37.56586027040425
624,유흥주점영업,영업/정상,서울특별시 종로구 낙원동 173-1 지상2층,198994.588260043,452137.438254411,126.98651688868318,37.57152545629099
625,유흥주점영업,영업/정상,서울특별시 종로구 종로5가 55번지,200187.134112925,452133.172029228,127.00001612036283,37.57148763121392
626,유흥주점영업,영업/정상,서울특별시 종로구 장사동 9-3번지,199271.407693687,451914.150317846,126.98965063633523,37.56951393886334
627,유흥주점영업,영업/정상,서울특별시 종로구 효제동 247-2번지,200141.763349703,452140.522079039,126.99950253906616,37.571553859182366
628,유흥주점영업,영업/정상,서울특별시 중구 광희동1가 182-21,200523.291875424,451462.625533766,127.00382089592863,37.56544598016548
629,유흥주점영업,영업/정상,서울특별시 중구 충무로3가 57-5번지,199235.338949436,451113.148084908,126.98924326621407,37.56229696820756
630,유흥주점영업,영업/정상,서울특별시 중구 다동 50-0번지,198191.23818075,451735.100108064,126.97742425435307,37.56789915487762
631,유흥주점영업,영업/정상,서울특별시 중구 충무로3가 30-19번지 2층,199301.799466956,451171.468886477,126.98999542428886,37.562822489683164
632,유흥주점영업,영업/정상,서울특별시 중구 충무로3가 25-10 지상2층,199213.943116361,451187.602817241,126.98900101588566,37.56296777774499
633,유흥주점영업,영업/정상,서울특별시 중구 을지로3가 342-1번지 지상2층,199105.218675802,451530.932160097,126.98776998233642,37.5660610299958
634,유흥주점영업,영업/정상,서울특별시 중구 광희동1가 175-2번지 지상3층,200477.250338876,451376.270966671,127.00329971443477,37.56466795699473
635,유흥주점영업,영업/정상,서울특별시 종로구 숭인동 298-2,201370.355864816,452290.384927747,127.01341007995397,37.57290318284811
636,유흥주점영업,영업/정상,서울특별시 종로구 종로5가 214-6번지 지상2층,200266.289327676,452029.342611169,127.00091210271556,37.57055212685186
637,유흥주점영업,영업/정상,서울특별시 중구 흥인동 15-0,201503.849104738,451514.040508282,127.01491968446254,37.56590821348665
638,유흥주점영업,영업/정상,서울특별시 종로구 돈의동 125-1번지 지하1층,199174.38334774,452150.778808703,126.98855209455104,37.571645844292966
639,유흥주점영업,영업/정상,서울특별시 종로구 관철동 10-23번지,198805.558217982,451830.208951284,126.9843776573351,37.56875711840953
640,유흥주점영업,영업/정상,서울특별시 종로구 충신동 57-4번지,200314.703275436,452601.315133621,127.00146032089398,37.575705515999836
641,유흥주점영업,영업/정상,서울특별시 중구 황학동 703-1 (지층1),201762.765771009,451528.702353228,127.0178503509134,37.56603987428982
642,유흥주점영업,영업/정상,서울특별시 서대문구 창천동 30-11번지 나동 (지하1층),194300.037633968,450388.329359668,126.93338985983345,37.55574877750512
643,유흥주점영업,영업/정상,서울특별시 종로구 숭인동 317-20번지 지하1층,201356.103628287,452134.445679916,127.01324847165581,37.57149820959914
644,유흥주점영업,영업/정상,서울특별시 종로구 낙원동 193번지,199068.868143853,452059.813314623,126.98735781825104,37.57082614831978
645,유흥주점영업,영업/정상,서울특별시 종로구 낙원동 198,199004.15226816,452067.89327956,126.98662525070394,37.57089887561703
646,유흥주점영업,영업/정상,서울특별시 종로구 장사동 130-1번지,199461.872261454,451899.893543844,126.99180658720539,37.56938563128589
647,유흥주점영업,영업/정상,서울특별시 종로구 종로5가 42-1 메디칼라움빌딩,200259.754525539,452113.150872578,127.00083815414463,37.57130723051545
648,유흥주점영업,영업/정상,서울특별시 종로구 창신동 444-9 임진빌딩,200833.121381281,452040.323909642,127.00732838577343,37.5706507685696
649,유흥주점영업,영업/정상,서울특별시 중구 충무로4가 155-2,199374.944539893,451101.622611355,126.99082337211613,37.562193239958106
650,유흥주점영업,영업/정상,서울특별시 중구 북창동 98-0번지,197945.825357752,451102.651721983,126.97464822219204,37.562200334988134
651,유흥주점영업,영업/정상,서울특별시 중구 남대문로5가 63-20번지 1층,197519.480472315,450619.07098399,126.96982441563135,37.557842245113065
652,유흥주점영업,영업/정상,서울특별시 중구 남대문로4가 3-13,197945.375546939,450937.105829865,126.9746436092267,37.56070878330166
653,유흥주점영업,영업/정상,서울특별시 중구 충무로4가 29-3,199541.871263969,451126.3080107,126.99271267521395,37.562415762505594
654,유흥주점영업,영업/정상,서울특별시 중구 충무로4가 130-3번지 외1(지상2층),199489.179291924,451106.951844227,126.99211630698333,37.56224133415656
655,유흥주점영업,영업/정상,서울특별시 중구 초동 19-9,199247.65288288,451416.854243777,126.98938230060699,37.56503333815753
656,유흥주점영업,영업/정상,서울특별시 중구 황학동 809 지상 2층,201978.074072669,451518.305272938,127.02028736509442,37.5659457758769
657,유흥주점영업,영업/정상,서울특별시 중구 남대문로5가 6-10번지 (지상2층),197545.466956959,450663.320865035,126.9701183684901,37.55824100336821
658,유흥주점영업,영업/정상,서울특별시 중구 인현동1가 87-18 (지하1층),199419.643695968,451319.55169995,126.99132909740258,37.56415678951442
659,유흥주점영업,영업/정상,서울특별시 중구 초동 41-2 2층,199317.362258098,451297.523976847,126.99017144117316,37.56395824493097
660,유흥주점영업,영업/정상,서울특별시 중구 충무로4가 28-3번지 (지상1층),199528.479126357,451130.498839091,126.99256109595628,37.56245351372348
661,유흥주점영업,영업/정상,서울특별시 중구 광희동1가 188-4번지 (지하1층),200497.212113223,451372.181550185,127.00352565212333,37.56463110265404
662,유흥주점영업,영업/정상,서울특별시 중구 충무로3가 36-4 (지상2층),199342.444580223,451137.087964962,126.99045549410141,37.562512754062276
663,유흥주점영업,영업/정상,서울특별시 중구 충무로3가 59-10 (지하1층),199127.53452918,451102.686191354,126.98802311903879,37.562202604391345
664,유흥주점영업,영업/정상,서울특별시 중구 회현동1가 202-5번지 (지하1층),198162.211231825,450968.535505767,126.97709768233588,37.560992434338424
665,유흥주점영업,영업/정상,서울특별시 중구 충무로4가 26번지 2층,199514.881972265,451135.572458778,126.99240719544451,37.562499218478024
666,유흥주점영업,영업/정상,서울특별시 중구 충무로2가 50-5번지 (지하1층),199037.825320441,451103.680774888,126.9870077650536,37.562211469918594
667,유흥주점영업,영업/정상,서울특별시 중구 북창동 67-0 (2층),197940.656995614,451160.157863626,126.97458955884451,37.56271844714475
668,유흥주점영업,영업/정상,서울특별시 중구 광희동1가 45-0번지 (지하1층),200304.835481454,451520.434248362,127.00134826027542,37.565966912979896
669,유흥주점영업,영업/정상,서울특별시 중구 오장동 148-1번지 (2층),200066.984514365,451406.73695127,126.9986560641161,37.564942544510735
670,유흥주점영업,영업/정상,서울특별시 중구 신당동 100-7번지 1층,201409.538565366,451421.135460941,127.01385202959422,37.56507129201025
671,유흥주점영업,영업/정상,서울특별시 중구 광희동1가 38-1 (지하1층),200271.398443634,451530.977065507,127.00096979494515,37.56606191067359
672,유흥주점영업,영업/정상,서울특별시 중구 흥인동 111 (지하1층),201336.089738518,451505.733327295,127.01302083107652,37.56583361346792
673,유흥주점영업,영업/정상,서울특별시 중구 충무로3가 35-3번지 외 1필지 (지상2층),199352.432492448,451134.701403015,126.99056854272432,37.56249125916903
674,유흥주점영업,영업/정상,서울특별시 중구 북창동 82 (지하1층),197996.158836926,451158.758865826,126.97521775162132,37.56270596855137
675,유흥주점영업,영업/정상,서울특별시 중구 서소문동 90번지 외3필지(지하1층),197772.478513016,451236.839278329,126.97268581770084,37.56340893534709
676,유흥주점영업,영업/정상,서울특별시 중구 을지로5가 133-1번지,200225.983119633,451511.262755282,127.00045574140864,37.5658842960578
677,유흥주점영업,영업/정상,서울특별시 중구 다동 117번지 지하1층,198319.007190038,451622.506327407,126.97887075583185,37.56688494892066
678,유흥주점영업,영업/정상,서울특별시 중구 주교동 43-25번지 지하1층,199893.228927712,451824.947293681,126.9966892826258,37.56871055561877
679,유흥주점영업,영업/정상,"서울특별시 종로구 당주동 2-2번지 지하1,2층",197657.298110478,452243.596729853,126.97137885053183,37.57247940759619
680,유흥주점영업,영업/정상,서울특별시 종로구 종로5가 231-22번지,200329.021633076,452034.3727894,127.00162220464787,37.5705974322792
681,유흥주점영업,영업/정상,서울특별시 종로구 종로5가 231-22번지 (지상1~2층),200329.021633076,452034.3727894,127.00162220464787,37.5705974322792
682,유흥주점영업,영업/정상,서울특별시 중구 충무로3가 59-11번지 2층,199119.114006467,451114.448372431,126.98792779817586,37.56230857177033
683,유흥주점영업,영업/정상,서울특별시 중구 충무로3가 33-1,199333.526365756,451192.161641056,126.99035450009778,37.56300895485043
684,유흥주점영업,영업/정상,서울특별시 중구 초동 53-20번지 지상 3층,199203.727440488,451223.196586402,126.98888534921655,37.56328846421926
685,유흥주점영업,영업/정상,서울특별시 중구 초동 107-5번지 지상3층,199122.252722641,451406.28756628,126.98796294823399,37.56493801390072
686,유흥주점영업,영업/정상,서울특별시 중구 북창동 71-2번지 삼영빌딩 3층,197945.549281823,451122.468848517,126.97464504026038,37.56237888450305
687,유흥주점영업,영업/정상,서울특별시 중구 광희동1가 182-39 지상2층,200525.475686917,451430.612358275,127.00384559384258,37.56515754397655
688,유흥주점영업,영업/정상,서울특별시 중구 충무로3가 59-6 지하1층,199164.350902829,451104.738974145,126.98843981399341,37.56222113643381
689,유흥주점영업,영업/정상,서울특별시 중구 을지로3가 291-40번지 지상2층,199303.304275583,451498.050293658,126.9900121173995,37.56576495303265
690,유흥주점영업,영업/정상,서울특별시 중구 을지로3가 296-11번지,199240.782802808,451496.078387552,126.98930445132011,37.565747132619165
691,유흥주점영업,영업/정상,서울특별시 종로구 종로5가 231-25 지상2층,200365.065961351,452034.667931141,127.00203020981667,37.57060008041997
692,유흥주점영업,영업/정상,서울특별시 종로구 재동 92-0번지,198709.470348408,452773.623102963,126.9832882708236,37.5772570256838
693,유흥주점영업,영업/정상,서울특별시 종로구 종로5가 54번지 (지하1층),200197.579335384,452129.32069842,127.00013435613623,37.57145292974547
694,유흥주점영업,영업/정상,서울특별시 종로구 종로5가 42-1번지 신화빌딩,200259.754525539,452113.150872578,127.00083815414463,37.57130723051545
695,유흥주점영업,영업/정상,서울특별시 종로구 효제동 185번지 (지상1층),200322.875575392,452140.24340281,127.0015526714233,37.57155131536676
696,유흥주점영업,영업/정상,서울특별시 종로구 신문로1가 31-0 지하1층,197656.177872742,452014.977175148,126.97136692040608,37.57041957068099
697,유흥주점영업,영업/정상,서울특별시 종로구 종로5가 231-25,200365.065961351,452034.667931141,127.00203020981667,37.57060008041997
698,유흥주점영업,영업/정상,서울특별시 종로구 관철동 11-3번지 지하1층,198758.72995572,451810.488000518,126.98384763133393,37.568579369807296
699,유흥주점영업,영업/정상,서울특별시 종로구 종로5가 231-16번지 지상1층,200299.39890015,452034.832060594,127.00128688922248,37.5706015782834
700,유흥주점영업,영업/정상,서울특별시 종로구 관철동 11-24번지,198743.189527622,451823.235571773,126.98367170269705,37.56869420176373
701,유흥주점영업,영업/정상,서울특별시 중구 남대문로5가 17-3번지 (지하1층),197663.367918935,450691.40424021,126.97145264014704,37.55849434632138
702,유흥주점영업,영업/정상,서울특별시 중구 충무로4가 24-6번지 (지상2층),199499.776197405,451127.166610308,126.99223623007197,37.56242347356343
703,유흥주점영업,영업/정상,서울특별시 중구 광희동1가 191 (지하1층),200526.217374032,451373.823316146,127.00385395304599,37.56464588070807
704,유흥주점영업,영업/정상,서울특별시 중구 오장동 148-18,200068.26360634,451379.600536548,126.99867054160998,37.56469804845075
705,유흥주점영업,영업/정상,서울특별시 종로구 청진동 11-6번지,198237.929525915,452179.998288835,126.97795165158311,37.571907727600575
706,유흥주점영업,영업/정상,서울특별시 종로구 창신동 464-4  (지상2층),200899.709096426,452134.545425205,127.00808223559507,37.57149963500277
707,유흥주점영업,영업/정상,서울특별시 종로구 낙원동 173-1 지하1층,198994.588260043,452137.438254411,126.98651688868318,37.57152545629099
708,유흥주점영업,영업/정상,서울특별시 종로구 효제동 318-1번지,200078.609205934,452158.608873517,126.99878765470902,37.57171682211207
709,유흥주점영업,영업/정상,서울특별시 종로구 관철동 43-14 지하1층,198524.792861134,451892.974692056,126.98119947052619,37.56932220389408
710,유흥주점영업,영업/정상,서울특별시 서대문구 홍제동 330-60번지 (지하1층),194917.348924087,454104.088948705,126.9403500661275,37.58923094643752
711,유흥주점영업,영업/정상,서울특별시 서대문구 창천동 18-30,194371.962471982,450456.502909711,126.93420332472445,37.5563634609881
712,유흥주점영업,영업/정상,서울특별시 종로구 종로5가 231-22번지 지상1~2층,200329.021633076,452034.3727894,127.00162220464787,37.5705974322792
713,유흥주점영업,영업/정상,서울특별시 종로구 숭인동 252번지,201486.29634802,452304.724281551,127.01472254056723,37.57303220702114
714,유흥주점영업,영업/정상,서울특별시 종로구 돈의동 128-2,199174.371843426,452124.333386386,126.98855199642472,37.57140757426745
715,유흥주점영업,영업/정상,서울특별시 종로구 운니동 20 지하1층,199033.125216414,452715.716354779,126.98695230113609,37.57673571271084
716,유흥주점영업,영업/정상,서울특별시 종로구 교남동 34번지 지하1층,196857.049713921,451727.078688404,126.96232244308408,37.56782320479886
717,유흥주점영업,영업/정상,서울특별시 종로구 청진동 6번지 지하1층,198242.368587188,452205.540538623,126.97800183710665,37.572137868899276
718,유흥주점영업,영업/정상,서울특별시 종로구 관수동 3-5번지,198930.02290867,451940.768329556,126.98578633408543,37.56975340688024
719,유흥주점영업,영업/정상,서울특별시 중구 초동 70-8,199257.113944113,451318.655196377,126.98948949553045,37.564148584061094
720,유흥주점영업,영업/정상,서울특별시 중구 남대문로5가 63-9 지하1층,197497.227122784,450603.604333833,126.96957261513587,37.557702830474355
721,유흥주점영업,영업/정상,서울특별시 중구 충무로3가 25-2 지하1층,199216.26060505,451202.901886008,126.98902722841714,37.5631056228156
722,유흥주점영업,영업/정상,서울특별시 종로구 당주동 2-3번지 외 2필지(지하1층),197664.940558555,452234.488158655,126.97146539146354,37.572397360442835
723,유흥주점영업,영업/정상,서울특별시 종로구 장사동 227-1,199302.818541341,451834.817165156,126.99000626976859,37.56879918308795
724,유흥주점영업,영업/정상,서울특별시 종로구 낙원동 207번지,198963.479329414,452103.707437261,126.98616479632473,37.571221509106465
725,유흥주점영업,영업/정상,서울특별시 종로구 관수동 20-0번지,199045.043602772,451939.677286976,126.98708830169116,37.569743711155844
726,유흥주점영업,영업/정상,서울특별시 종로구 당주동 160-0,197673.919714838,452123.434528869,126.97156739578423,37.571396804353284
727,유흥주점영업,영업/정상,서울특별시 종로구 창신동 459-25번지,200994.878268826,452144.75267472,127.00915953233488,37.57159150989351
728,유흥주점영업,영업/정상,서울특별시 종로구 종로6가 246-1번지,200497.57023261,452130.338214652,127.00353015313789,37.57146200529494
729,유흥주점영업,영업/정상,서울특별시 종로구 종로6가 128-1,200534.83083931,452142.486156806,127.00395193855677,37.57157143850266
730,유흥주점영업,영업/정상,서울특별시 종로구 창신동 438-16 덕일빌딩,200847.089720382,452005.139628751,127.0074864634516,37.57033375069446
731,유흥주점영업,영업/정상,서울특별시 종로구 관철동 19-16,198600.044394976,451890.546463187,126.98205127320945,37.56930044851282
732,유흥주점영업,영업/정상,서울특별시 종로구 효제동 175-1번지 지하1층,200461.151964938,452153.605157881,127.00311792308808,37.571671653999665
733,유흥주점영업,영업/정상,서울특별시 종로구 숭인동 313-8 지하1층,201335.696270738,452231.329500518,127.01301763500506,37.57237114926135
734,유흥주점영업,영업/정상,서울특별시 종로구 당주동 42-2번지,197724.940203039,452106.79376039,126.9721449831951,37.57124700404117
735,유흥주점영업,영업/정상,서울특별시 종로구 연지동 206번지 지하1층,199885.137384154,452227.53240622,126.99659759394822,37.572337797292434
736,유흥주점영업,영업/정상,서울특별시 중구 황학동 732 2층,201624.791694991,451518.843529836,127.01628862273431,37.565951291340006
737,유흥주점영업,영업/정상,서울특별시 중구 을지로1가 37-0번지 지하1층,198139.289952741,451612.438834321,126.97683656774315,37.566793884043136
738,유흥주점영업,영업/정상,서울특별시 중구 을지로1가 37-0번지 지하2층,198139.289952741,451612.438834321,126.97683656774315,37.566793884043136
739,유흥주점영업,영업/정상,서울특별시 중구 방산동 70-4번지,200139.504749796,451844.350705494,126.99947694216378,37.568885390941816
740,유흥주점영업,영업/정상,서울특별시 중구 필동1가 10-9번지,199213.281672769,451032.565905747,126.98899370928265,37.56157091135081
741,유흥주점영업,영업/정상,서울특별시 중구 황학동 629-0,201767.085427754,451555.477793435,127.01789930658242,37.566281109967875
742,유흥주점영업,영업/정상,서울특별시 중구 을지로4가 109-1,199821.224822645,451658.296481124,126.99587430545124,37.56720903508086
743,유흥주점영업,영업/정상,서울특별시 종로구 종로5가 231-19번지,200307.855077243,452034.633116534,127.00138260915729,37.570599783627415
744,유흥주점영업,영업/정상,서울특별시 종로구 낙원동 243-1 지하 1층,198886.030336656,452234.8544483,126.985287891675,37.57240303172652
745,유흥주점영업,영업/정상,서울특별시 중구 충무로4가 150-0,199401.908701836,451134.131723252,126.99112853025241,37.56248616331318
746,유흥주점영업,영업/정상,서울특별시 중구 광희동1가 98-0 (지하1층),200411.522050783,451397.541417783,127.00255576978654,37.56485962846775
747,유흥주점영업,영업/정상,서울특별시 중구 광희동1가 182-28 (지상2층),200527.861297598,451446.07587863,127.0038726056499,37.56529686735578
748,유흥주점영업,영업/정상,서울특별시 중구 신당동 247-11번지,201223.186772171,451410.762188847,127.01174275337361,37.564978083119975
749,유흥주점영업,영업/정상,서울특별시 중구 충무로2가 60-3번지 지하1층,198911.806393959,451032.316115194,126.98558156140744,37.56156833304015
750,유흥주점영업,영업/정상,서울특별시 중구 충무로2가 50-3 1~2층,199055.704839974,451096.00804536,126.98721014076617,37.56214235919862
751,유흥주점영업,영업/정상,서울특별시 중구 황학동 730번지,201641.949472016,451512.743350597,127.01648281560989,37.56589630021317
752,유흥주점영업,영업/정상,서울특별시 중구 충무로3가 34-7번지 2층,199341.000164159,451166.066255432,126.99043911717405,37.56277384417308
753,유흥주점영업,영업/정상,서울특별시 종로구 당주동 100번지,197573.030749573,452175.335781858,126.97042519119049,37.571864160935846
754,유흥주점영업,영업/정상,서울특별시 중구 황학동 737-0,201585.646021087,451516.994656249,127.01584553559965,37.565934698643254
755,유흥주점영업,영업/정상,서울특별시 중구 충무로2가 60-3 지하1층,198911.806393959,451032.316115194,126.98558156140744,37.56156833304015
756,유흥주점영업,영업/정상,서울특별시 중구 초동 21-2번지,199226.847557082,451398.601245683,126.98914683234793,37.56486886202063
757,유흥주점영업,영업/정상,서울특별시 종로구 종로5가 193-1번지,200231.022222263,452054.748716233,127.00051290147813,37.57078103982956
758,유흥주점영업,영업/정상,서울특별시 종로구 종로5가 38-2 지상2층,200266.648160849,452120.989877863,127.000916189794,37.57137785750971
759,유흥주점영업,영업/정상,서울특별시 종로구 낙원동 58-1번지 종로오피스텔 지하 1층 117호,198913.496136105,452416.170780139,126.98559851465804,37.57403670388924
760,유흥주점영업,영업/정상,서울특별시 종로구 당주동 171-0번지 지하1층,197697.555520377,452045.21198934,126.9718351974044,37.57069208989085
761,유흥주점영업,영업/정상,서울특별시 종로구 청진동 140-0번지,198200.215209555,452125.655627275,126.97752487374315,37.57141803137798
762,유흥주점영업,영업/정상,서울특별시 종로구 돈의동 123-0,199163.20444984,452128.836958606,126.98842557981651,37.57144814004526
763,유흥주점영업,영업/정상,서울특별시 종로구 효제동 227-1 혜원한의원,200265.939725719,452194.473113773,127.00090819073384,37.5720399326071
764,유흥주점영업,영업/정상,서울특별시 중구 광희동1가 187-9번지 (지상2층),200512.005279865,451422.357337243,127.00369312114653,37.565083173804936
765,유흥주점영업,영업/정상,서울특별시 중구 충무로3가 57-5번지 (지하1층),199235.338949436,451113.148084908,126.98924326621407,37.56229696820756
766,유흥주점영업,영업/정상,서울특별시 중구 충무로3가 25-5 (지상2층),199181.497812797,451200.582086986,126.98863377196516,37.56308468903094
767,유흥주점영업,영업/정상,서울특별시 종로구 종로5가 321-18번지  동  호,200233.08985594,451977.066662096,127.00053628833527,37.57008113352145
768,유흥주점영업,영업/정상,서울특별시 종로구 종로5가 231-15번지,200292.185712328,452029.669935349,127.00120523768112,37.570555069969394
769,유흥주점영업,영업/정상,서울특별시 종로구 효제동 233-1번지,200255.264789032,452155.300838469,127.00078734289289,37.57168699749208
770,유흥주점영업,영업/정상,"서울특별시 중구 남대문로5가 84-1번지 2호,3호(지상4층)",197593.689313596,450607.504820726,126.97066432086784,37.55773823705477
771,유흥주점영업,영업/정상,서울특별시 중구 초동 19-2번지 2층,199279.173644915,451377.789533632,126.98973911626301,37.564681396903886
772,유흥주점영업,영업/정상,서울특별시 중구 무교동 21-3 지하1층,198109.617344821,451640.773996802,126.97650062920053,37.56704911810168
773,유흥주점영업,영업/정상,서울특별시 중구 충무로4가 32-16 (지하1층),199606.111306323,451137.895818696,126.9934397558778,37.56252020158745
774,유흥주점영업,영업/정상,서울특별시 종로구 창신동 438-14번지 외1필지 지하1층,200831.786288808,451988.829440497,127.0073132192668,37.57018681073342
775,유흥주점영업,영업/정상,서울특별시 중구 신당동 120-4번지 (지하1층),201533.027369929,451450.057987788,127.01524982007192,37.565331692215096
776,유흥주점영업,영업/정상,서울특별시 중구 수표동 11-3번지 (지하1층),199111.274344793,451713.70616392,126.98783828802235,37.567707808957515
777,유흥주점영업,영업/정상,서울특별시 중구 을지로3가 291-41번지 (2층),199302.163263488,451503.110291426,126.98999919724885,37.56581054209418
778,유흥주점영업,영업/정상,서울특별시 중구 신당동 100-6번지 (2층),201409.502783362,451434.934215734,127.01385164988666,37.56519561728634
779,유흥주점영업,영업/정상,서울특별시 강남구 삼성동 143-27,204738.865337042,444986.108170337,127.05149472485054,37.50708128416997
780,유흥주점영업,영업/정상,서울특별시 강남구 논현동 248-7번지 임피리얼 팰리스호텔,203102.074986325,445751.652027981,127.0329858924233,37.51398564552568
781,유흥주점영업,영업/정상,서울특별시 관악구 신림동 1640-30,193612.249353013,442364.884315111,126.92567637460326,37.48345338209833
782,유흥주점영업,영업/정상,서울특별시 강서구 마곡동 795-6 뉴골든타워,185554.299381324,450891.312361248,126.83440213559119,37.5601844171637
783,유흥주점영업,영업/정상,서울특별시 동대문구 장안동 372-4,206133.550473201,452026.803254507,127.06732668949518,37.570509282857714
784,유흥주점영업,영업/정상,서울특별시 은평구 응암동 600-2번지 지하 좌측호,192576.600496455,454123.137809564,126.91384710744231,37.58938651388184
785,유흥주점영업,영업/정상,서울특별시 은평구 응암동 600-2번지 지하 우측호,192576.600496455,454123.137809564,126.91384710744231,37.58938651388184
786,유흥주점영업,영업/정상,서울특별시 관악구 신림동 1424-11,193715.720946633,442661.600592493,126.92684370485756,37.486127513334324
787,유흥주점영업,영업/정상,서울특별시 관악구 신림동 1432-73,193667.814824278,442621.679865443,126.92630238806981,37.485767497198296
788,유흥주점영업,영업/정상,서울특별시 강남구 청담동 52-3번지 프리마호텔,204549.998846316,446895.028902481,127.04937030073589,37.52428152041936
789,유흥주점영업,영업/정상,서울특별시 강남구 삼성동 143-27,204738.865337042,444986.108170337,127.05149472485054,37.50708128416997
790,유흥주점영업,영업/정상,서울특별시 송파구 석촌동 158번지 호텔 레이크 지하2층,208851.639893799,444965.4232772,127.098009655136,37.50686493922469
791,유흥주점영업,영업/정상,서울특별시 강서구 화곡동 901-15 시온빌딩 501호,186301.687755524,447468.61600408,126.8429251603271,37.529357778769246
792,유흥주점영업,영업/정상,서울특별시 관악구 신림동 1431-18,193636.167519073,442688.22950769,126.92594398014246,37.48636689001164
793,유흥주점영업,영업/정상,서울특별시 중랑구 상봉동 91-1,207759.193444531,454943.982853578,127.08575879796199,37.59678048854763
794,유흥주점영업,영업/정상,서울특별시 중랑구 상봉동 91-1번지,207759.193444531,454943.982853578,127.08575879796199,37.59678048854763
795,유흥주점영업,영업/정상,서울특별시 중랑구 상봉동 89-1번지,207807.657649212,454906.600906178,127.08630718660035,37.5964432772388
796,유흥주점영업,영업/정상,서울특별시 중랑구 상봉동 89-17번지,207834.387336827,454817.839704855,127.08660891699506,37.59564332873557
797,유흥주점영업,영업/정상,서울특별시 중랑구 묵동 238-9,206718.673280218,456725.062277459,127.07399266505512,37.61283580062452
798,유흥주점영업,영업/정상,서울특별시 중랑구 상봉동 90-10번지,207797.506778799,454835.324999067,127.08619149140974,37.59580117879501
799,유흥주점영업,영업/정상,서울특별시 중랑구 상봉동 89-17,207834.387336827,454817.839704855,127.08660891699506,37.59564332873557
800,유흥주점영업,영업/정상,서울특별시 중랑구 상봉동 89-1번지,207807.657649212,454906.600906178,127.08630718660035,37.5964432772388
801,유흥주점영업,영업/정상,서울특별시 중랑구 묵동 245-6번지,206821.108967706,456096.359567266,127.07514704080286,37.60717056174417
802,유흥주점영업,영업/정상,서울특별시 중랑구 묵동 182-21,206893.453885004,456018.381745604,127.07596562434635,37.60646746195645
803,유흥주점영업,영업/정상,서울특별시 중랑구 상봉동 92-2,207785.163886948,454948.667169479,127.08605292331296,37.59682247598835
804,유흥주점영업,영업/정상,서울특별시 중랑구 상봉동 88-92번지,207830.388148879,454776.182018032,127.08656319129635,37.59526803378652
805,유흥주점영업,영업/정상,서울특별시 중랑구 면목동 611-3번지,207747.046458217,453107.130727702,127.08560199385961,37.58023084381979
806,유흥주점영업,영업/정상,서울특별시 중랑구 면목동 604-44,207599.43445627,453195.099791881,127.08393178538982,37.58102465155504
807,유흥주점영업,영업/정상,서울특별시 중랑구 상봉동 89-16,207831.781083928,454827.574540397,127.08657950879656,37.5957310599421
808,유흥주점영업,영업/정상,서울특별시 중랑구 면목동 604-41번지,207586.461890397,453198.991625791,127.08378496159062,37.581059822437346
809,유흥주점영업,영업/정상,서울특별시 관악구 신림동 1432-73번지,193667.814824278,442621.679865443,126.92630238806981,37.485767497198296
810,유흥주점영업,영업/정상,서울특별시 영등포구 여의도동 43-3번지 홍우빌딩(지하1층) 제비1호,193844.169062846,446511.783285705,126.92826349262835,37.52081843759356
811,유흥주점영업,영업/정상,서울특별시 강남구 삼성동 143-19 퍼시픽빌딩,204596.861509653,444933.736880989,127.04988834829898,37.50661012808005
812,유흥주점영업,영업/정상,서울특별시 강서구 화곡동 915-10,186140.563907889,447451.051464867,126.84110265748228,37.52919710678113
813,유흥주점영업,영업/정상,서울특별시 강남구 역삼동 702-24,204013.483967719,444693.000470748,127.04328913567377,37.504443777490394
814,유흥주점영업,영업/정상,서울특별시 강남구 논현동 18-2 렉스관광호텔,201746.195,445794.05,127.01764965890551,37.51437111511779
815,유흥주점영업,영업/정상,서울특별시 관악구 봉천동 857-1,195786.612845254,442070.396810544,126.9502622440011,37.480812666578096
816,유흥주점영업,영업/정상,서울특별시 동대문구 장안동 372-3,206144.348296014,452047.885951199,127.06744909037172,37.57069916408788
817,유흥주점영업,영업/정상,서울특별시 강남구 삼성동 143-26 에이스,204721.681839332,444976.616252344,127.05130032054211,37.506995849059706
818,유흥주점영업,영업/정상,서울특별시 관악구 신림동 1424-11,193715.720946633,442661.600592493,126.92684370485756,37.486127513334324
819,유흥주점영업,영업/정상,서울특별시 강서구 화곡동 901-15 시온빌딩 지하1층,186301.687755524,447468.61600408,126.8429251603271,37.529357778769246
820,유흥주점영업,영업/정상,서울특별시 강서구 화곡동 901-15 시온빌딩 301호,186301.687755524,447468.61600408,126.8429251603271,37.529357778769246
821,유흥주점영업,영업/정상,서울특별시 강동구 길동 459-2,212111.336830711,448059.842030801,127.13492713757392,37.53470866900233
822,유흥주점영업,영업/정상,서울특별시 관악구 신림동 1639-1 신림빌딩,193480.726441546,442387.810878579,126.92418912345083,37.48365902311684
823,유흥주점영업,영업/정상,서울특별시 강서구 화곡동 901-15 시온빌딩 201호,186301.687755524,447468.61600408,126.8429251603271,37.529357778769246
824,유흥주점영업,영업/정상,서울특별시 강서구 화곡동 1006-3 (지하 1층),185438.341330245,449492.230136079,126.83311761061607,37.547577040230955
825,유흥주점영업,영업/정상,서울특별시 강서구 화곡동 372-3 (지하 1층),185520.50077263,448289.439635183,126.83407114565331,37.5367413354286
826,유흥주점영업,영업/정상,서울특별시 동대문구 휘경동 321-25번지 (이문로 40),204940.821584683,454289.920176996,127.0538406299058,37.59090673220275
827,유흥주점영업,영업/정상,서울특별시 동대문구 장안동 367-8,206239.099846845,452112.872122372,127.06852218171106,37.57128405109728
828,유흥주점영업,영업/정상,서울특별시 동대문구 이문동 358-3번지 (지하1층),205421.043626303,455771.62005247,127.05928883004057,37.60425393167292
829,유흥주점영업,영업/정상,서울특별시 동대문구 이문동 255-260번지 (이문로 174),205428.819813481,455520.929097871,127.05937505596115,37.601995204978294
830,유흥주점영업,영업/정상,서울특별시 동대문구 장안동 367-3번지,206247.056427436,452075.167597061,127.06861192941977,37.57094428480844
831,유흥주점영업,영업/정상,서울특별시 동대문구 장안동 382-23,206020.863853587,451931.503922,127.06605035775667,37.56965138322302
832,유흥주점영업,영업/정상,서울특별시 동대문구 용두동 689-19번지 (왕산로 248-1),203082.865189471,452852.429314854,127.03279779879672,37.57796311116265
833,유흥주점영업,영업/정상,서울특별시 동대문구 장안동 431-2번지,205751.349907848,451299.243507776,127.0629947240842,37.56395649590191
834,유흥주점영업,영업/정상,서울특별시 동대문구 청량리동 30-1,204414.124968198,453650.787929978,127.0478732579895,37.58515088583246
835,유흥주점영업,영업/정상,서울특별시 동대문구 장안동 464-4번지,205777.991225081,451070.709075884,127.0632944848015,37.561897262122415
836,유흥주점영업,영업/정상,서울특별시 동대문구 휘경동 321-57번지,204926.120566909,454263.792000066,127.05367400271831,37.590671399143055
837,유흥주점영업,영업/정상,서울특별시 동대문구 장안동 365-6번지 8층,206097.029464604,451827.438245305,127.06691164968562,37.56871326900155
838,유흥주점영업,영업/정상,서울특별시 동대문구 신설동 76-35,202116.938316772,452677.080019826,127.02186238877749,37.57638589559615
839,유흥주점영업,영업/정상,서울특별시 동대문구 장안동 366-11 지하1층,206200.21862512,452034.504423139,127.06808140499784,37.57057822788421
840,유흥주점영업,영업/정상,서울특별시 동대문구 답십리동 952-18번지 지하1층,205045.366490567,451249.571870528,127.0550036960948,37.56351304587374
841,유흥주점영업,영업/정상,"서울특별시 동대문구 답십리동 961-2 지하1층 10,11,12호",204999.401520352,451290.385714542,127.05448371802805,37.56388102119361
842,유흥주점영업,영업/정상,서울특별시 동대문구 장안동 464-8번지 지하1층,205790.199450207,451038.454241239,127.06343240838214,37.5616065739491
843,유흥주점영업,영업/정상,서울특별시 동대문구 답십리동 496-17,204501.365621281,451744.14931728,127.04884943586079,37.56797191023605
844,유흥주점영업,영업/정상,서울특별시 동대문구 이문동 256-26 (이문로 185),205390.313606038,455648.594299927,127.05893992921975,37.60314566972488
845,유흥주점영업,영업/정상,서울특별시 동대문구 장안동 366-6 지하1층,206162.986259812,451957.496740385,127.0676593120135,37.56988464559807
846,유흥주점영업,영업/정상,서울특별시 동대문구 장안동 366-6,206162.986259812,451957.496740385,127.0676593120135,37.56988464559807
847,유흥주점영업,영업/정상,서울특별시 동대문구 전농동 597-10,204266.770374395,453404.934700318,127.04620353879045,37.58293646794205
848,유흥주점영업,영업/정상,서울특별시 동대문구 장안동 365-3 (장평15길 28),206179.04508796,451908.79617712,127.06784068262606,37.56944575323355
849,유흥주점영업,영업/정상,서울특별시 동대문구 장안동 365-8,206117.295011037,451867.005076753,127.06714136682793,37.56906962833218
850,유흥주점영업,영업/정상,서울특별시 동대문구 장안동 344-3번지 지하1층,206280.849675503,452051.123233556,127.06899425098082,37.57072742080406
851,유흥주점영업,영업/정상,서울특별시 동대문구 장안동 344-9번지 지하1층,206275.752951579,452063.963670581,127.06893666712145,37.570843145870455
852,유흥주점영업,영업/정상,서울특별시 동대문구 장안동 367-1 (장한로 126),206255.326876991,452142.790091635,127.06870611825323,37.57155349926308
853,유흥주점영업,영업/정상,서울특별시 동대문구 용두동 24-1번지 지하1층,203358.086492638,452851.179190165,127.03591347669068,37.57795090481824
854,유흥주점영업,영업/정상,서울특별시 동대문구 장안동 382-6 지하1층,205998.37441487,451879.411330743,127.0657953697107,37.569182180593785
855,유흥주점영업,영업/정상,서울특별시 구로구 오류동 52-4,186081.463781645,443677.477878516,126.8405057812946,37.49519656407361
856,유흥주점영업,영업/정상,서울특별시 구로구 고척동 274-1,186811.149350879,444350.018723405,126.84874503295515,37.50126688458992
857,유흥주점영업,영업/정상,서울특별시 구로구 오류동 48-1번지 성진빌딩 지하,186040.214742248,443696.671640273,126.84003896728828,37.49536887390446
858,유흥주점영업,영업/정상,서울특별시 구로구 오류동 54-5번지 지하1층,186144.880821445,443706.570673762,126.84122235759533,37.4954596465928
859,유흥주점영업,영업/정상,서울특별시 구로구 오류동 50-16번지,186057.429972889,443710.125211857,126.84023338333887,37.495490351190725
860,유흥주점영업,영업/정상,서울특별시 구로구 오류동 55-50,186212.084054908,443782.555826869,126.84198087149994,37.49614527979397
861,유흥주점영업,영업/정상,서울특별시 구로구 오류동 33-55번지 2층,186301.211739059,443839.657936263,126.84298768169556,37.49666109950327
862,유흥주점영업,영업/정상,서울특별시 구로구 오류동 55-51번지,186198.714769887,443783.568042043,126.84182966926713,37.49615419926461
863,유흥주점영업,영업/정상,서울특별시 구로구 오류동 33-73,186330.505810822,443857.14642517,126.843318622279,37.49681910600523
864,유흥주점영업,영업/정상,서울특별시 구로구 개봉동 403-175번지,187246.014909861,442802.928319138,126.85368987543877,37.48733378788976
865,유흥주점영업,영업/정상,서울특별시 구로구 오류동 6-6번지 지1층,185893.543915141,443673.371159789,126.83838084340032,37.49515669957883
866,유흥주점영업,영업/정상,서울특별시 동대문구 장안동 372-4번지 지하1층,206133.550473201,452026.803254507,127.06732668949518,37.570509282857714
867,유흥주점영업,영업/정상,서울특별시 동대문구 답십리동 494-5 지하1층,204662.341213164,451605.260722901,127.05067066954008,37.566719751491
868,유흥주점영업,영업/정상,서울특별시 구로구 개봉동 403-141번지,187223.779703827,443107.950937584,126.853433144954,37.49008172556768
869,유흥주점영업,영업/정상,서울특별시 구로구 개봉동 403-165번지,187240.247675773,442877.262023596,126.85362337132815,37.48800345286757
870,유흥주점영업,영업/정상,서울특별시 구로구 개봉동 203-16번지,187396.404312055,443569.685615236,126.85537712547386,37.49424432418323
871,유흥주점영업,영업/정상,서울특별시 구로구 오류동 6-17 지하1층,185797.184093366,443629.410643222,126.83729204936854,37.494759134171744
872,유흥주점영업,영업/정상,서울특별시 동대문구 전농동 295-307,205044.405818763,452884.212183519,127.05500392206486,37.57824095496587
873,유흥주점영업,영업/정상,서울특별시 구로구 오류동 55-14 지하,186149.000717898,443754.961884834,126.84126803122673,37.49589571151773
