,개방서비스명,영업상태명,소재지전체주소,좌표정보(x),좌표정보(y),경도,위도
0,집단급식소,영업/정상,서울특별시 성북구 정릉동 16-512 새마음요양병원,201828.206641704,455454.105258935,127.0186005114556,37.60140707558068
1,집단급식소,영업/정상,서울특별시 성북구 하월곡동 27-5 월곡송림건강랜드 6층,203457.014588706,455741.213733384,127.03704678796747,37.60398931135029
2,집단급식소,영업/정상,서울특별시 성북구 삼선동2가 391-4번지 한성여중,200943.712230988,453330.16529015,127.00858177028736,37.582271972747016
3,집단급식소,영업/정상,서울특별시 성북구 보문동2가 30번지,201455.768434709,453816.96690003,127.01437983739372,37.58665735474953
4,집단급식소,영업/정상,서울특별시 성북구 돈암동 609-1번지 한진아파트 419동,200841.726990037,454721.505180141,127.00742864011599,37.594807830058635
5,집단급식소,영업/정상,서울특별시 성북구 정릉동 772-4번지,200413.247151339,457098.325463549,127.00257800833985,37.61622282761449
6,집단급식소,영업/정상,서울특별시 성북구 길음동 1170번지,201917.04317965,456383.86994631,127.01960886663251,37.60978391788737
7,집단급식소,영업/정상,서울특별시 성북구 하월곡동 22-38,203587.237741727,455861.243326817,127.03852208928411,37.60507026773007
8,집단급식소,영업/정상,서울특별시 은평구 신사동 191-38번지 지하1층,191618.238233002,454433.015543248,126.902992607772,37.59217016904629
9,집단급식소,영업/정상,서울특별시 은평구 신사동 34-25번지 지하1층,192318.886527662,454750.226395576,126.91092254552152,37.5950343467733
10,집단급식소,영업/정상,서울특별시 은평구 역촌동 33-37번지 4층,192707.464179524,455693.762838759,126.91531301855478,37.60353863249313
11,집단급식소,영업/정상,서울특별시 은평구 응암동 631-2번지 2층,193070.037043459,454071.168901714,126.91943447392401,37.588922162675836
12,집단급식소,영업/정상,서울특별시 은평구 응암동 116-4번지 2층,192890.359038296,455138.374141213,126.91738965467194,37.59853612255669
13,집단급식소,영업/정상,서울특별시 은평구 역촌동 19-2 5층,192869.945987305,456036.517878195,126.91714967772508,37.606628077094804
14,집단급식소,영업/정상,서울특별시 은평구 녹번동 118-49번지 3층,193729.998902523,456175.832034438,126.92688855681303,37.607889594203066
15,집단급식소,영업/정상,서울특별시 영등포구 여의도동 1번지 의원회관 신관 2층,192450.93552236,447649.476828035,126.91249145084879,37.531058545204864
16,집단급식소,영업/정상,서울특별시 영등포구 신길동 466-3번지,192989.902623581,445488.546052407,126.91860987334886,37.511592965660846
17,집단급식소,영업/정상,서울특별시 영등포구 여의도동 16-1 한국수출입은행본점 1층,193159.124448371,447376.605815263,126.92050614297123,37.52860556713603
18,집단급식소,영업/정상,서울특별시 영등포구 신길동 4003번지 남서울교회,192437.491879911,444143.990885591,126.91237570996509,37.499474168240646
19,집단급식소,영업/정상,"서울특별시 영등포구 당산동4가 30-1번지 1,2층",191163.020002214,447493.266880905,126.89792245734088,37.52963957961301
20,집단급식소,영업/정상,서울특별시 영등포구 대림동 859-1 강성어린이스쿨어린이집,191252.203978066,443417.54856347,126.89898025195164,37.49291839150844
21,집단급식소,영업/정상,서울특별시 영등포구 여의도동 16-1번지,193159.124448371,447376.605815263,126.92050614297123,37.52860556713603
22,집단급식소,영업/정상,서울특별시 서대문구 남가좌동 368-1번지,192769.28029699,452988.785791757,126.91603999004315,37.579167720872476
23,집단급식소,영업/정상,서울특별시 서대문구 북가좌동 376-17번지,191779.873713689,452844.783469673,126.90484072525702,37.5778619136025
24,집단급식소,영업/정상,서울특별시 서대문구 북아현동 215-0번지,195688.092989832,450774.846649942,126.949096571311,37.55923889212405
25,집단급식소,영업/정상,서울특별시 영등포구 여의도동 34-9,193684.390403391,446606.448978265,126.92645525455592,37.521670280008756
26,집단급식소,영업/정상,서울특별시 은평구 녹번동 176-1번지,193069.856270254,455607.004333355,126.91941776127165,37.60275977958026
27,집단급식소,영업/정상,서울특별시 은평구 신사동 1-69 구립신사1어린이집 1층,192264.073383763,455220.938839997,126.91029687110402,37.5992749217683
28,집단급식소,영업/정상,서울특별시 은평구 응암동 334-12번지,192794.93431192,454113.80113481,126.91631925584859,37.5893041415399
29,집단급식소,영업/정상,서울특별시 은평구 응암동 98-74번지,193166.397073091,455299.737709527,126.92051392193696,37.59999209030182
30,집단급식소,영업/정상,서울특별시 은평구 불광동 641번지 북한산힐스테이트3차아파트관리동,194183.438617956,457350.932047179,126.93201439838924,37.61848002861125
31,집단급식소,영업/정상,서울특별시 은평구 대조동 59-23번지,193116.835631958,456210.865333832,126.91994404377151,37.60820081233531
32,집단급식소,영업/정상,서울특별시 은평구 응암동 427-90번지,192806.200312524,454662.654261981,126.91644137599532,37.59424930761106
33,집단급식소,영업/정상,서울특별시 은평구 신사동 350-39 1-3층,192209.956118498,454358.797833395,126.90969329910254,37.59150671782735
34,집단급식소,영업/정상,서울특별시 영등포구 여의도동 36-5번지 지하1층,193523.97428374,446462.507532018,126.92464188695826,37.520372252403654
35,집단급식소,영업/정상,서울특별시 영등포구 양평동3가 45 롯데마트 지하2층,190352.321686588,447095.641206789,126.88875601953379,37.52604882462425
36,집단급식소,영업/정상,서울특별시 영등포구 신길동 63-3번지 신길교회부설 신길어린이집 1층,192828.670462739,445880.522695462,126.91678238345183,37.5151234092562
37,집단급식소,영업/정상,서울특별시 영등포구 여의도동 53-19번지 교육관 2층,194116.443950007,446186.787924678,126.93134609604547,37.517892039767624
38,집단급식소,영업/정상,서울특별시 영등포구 여의도동 60번지 63빌딩 지하3층,194632.526367463,446401.926526228,126.9371822053401,37.519833609352276
39,집단급식소,영업/정상,서울특별시 성북구 정릉동 873번지,199673.820355658,456234.55794204,126.99420339063396,37.60844042520427
40,집단급식소,영업/정상,서울특별시 성북구 장위동 177-20번지,204353.001670669,457467.321967069,127.0472035870025,37.61953748426065
41,집단급식소,영업/정상,서울특별시 성북구 안암동5가 1-2번지 고려대학교 경영관식당,202789.692329185,454049.551940162,127.02948334277072,37.588749930201324
42,집단급식소,영업/정상,서울특별시 서대문구 연희동 88-1번지,194084.055283209,451882.337051665,126.93093334923523,37.56920823932206
43,집단급식소,영업/정상,서울특별시 서대문구 연희동 194-37,193759.805626607,451374.136885633,126.92726743266424,37.564627256591315
44,집단급식소,영업/정상,서울특별시 영등포구 문래동6가 10번지 GS강서타워 2층,190119.734954633,446513.394643464,126.88613269367337,37.52080034465959
45,집단급식소,영업/정상,서울특별시 영등포구 당산동1가 341번지 세진빌딩 지하2층,190767.410925052,446788.391708022,126.89345571920099,37.52328480168108
46,집단급식소,영업/정상,서울특별시 영등포구 신길동 210-0번지,192135.471340787,445245.989804424,126.90894835229689,37.50940060199112
47,집단급식소,영업/정상,서울특별시 영등포구 신길동 184-3번지,192441.383597927,445892.954811581,126.91240159895013,37.51523230560996
48,집단급식소,영업/정상,서울특별시 서대문구 북가좌동 5-33번지 (1층),192797.125136615,453260.220935109,126.91635252551905,37.58161353211617
49,집단급식소,영업/정상,서울특별시 서대문구 남가좌동 377번지 삼성아파트단지내(지하1~지상2),192559.994725361,452852.020155302,126.91367210572793,37.57793380080921
50,집단급식소,영업/정상,서울특별시 서대문구 홍제동 456번지,194885.720020811,453486.888828671,126.93999631424381,37.58366988872094
51,집단급식소,영업/정상,서울특별시 서대문구 홍은동 455 벽산아파트단지내(지상2층),195057.033841623,454786.019433577,126.94192696671395,37.59537580197677
52,집단급식소,영업/정상,서울특별시 서대문구 홍제동 460번지 인왕산현대아파트단지내 (지하1층),195586.623870384,453692.90633961,126.94793034489703,37.585529750953796
53,집단급식소,영업/정상,"서울특별시 서대문구 충정로3가 464번지 충정타워빌딩 지하1층 122,1호",196752.76401348,450838.597606871,126.9611460320551,37.55981772137121
54,집단급식소,영업/정상,서울특별시 송파구 잠실동 50번지,206333.883560842,445372.253557307,127.06953756226747,37.51055099083115
55,집단급식소,영업/정상,서울특별시 송파구 가락동 77-1번지 (주)로만손사옥지상11층,210652.561690102,443715.250067436,127.1183598849697,37.49558202937326
56,집단급식소,영업/정상,서울특별시 송파구 송파동 113-2번지 송파여성문화회관 지상2층,209636.916608671,444858.989436237,127.10688966122805,37.50589816875214
57,집단급식소,영업/정상,서울특별시 영등포구 여의도동 33-0,193567.523026773,446758.859822407,126.92513188863013,37.52304267825014
58,집단급식소,영업/정상,서울특별시 영등포구 양평동4가 315-1번지,190872.704815767,448534.504128423,126.89462500116954,37.53901819745576
59,집단급식소,영업/정상,서울특별시 영등포구 문래동3가 77-7,190497.643024468,446274.445954265,126.89041069413686,37.51865142509604
60,집단급식소,영업/정상,서울특별시 영등포구 신길동 341-1 대영초등학교,191608.655846425,444479.14334672,126.90299873819096,37.5024866681741
61,집단급식소,영업/정상,서울특별시 서대문구 남가좌동 115-63번지,192887.346186228,452134.36764516,126.91738495608932,37.57147045835076
62,집단급식소,영업/정상,서울특별시 서대문구 남가좌동 342-32번지,193203.592694982,452884.240075659,126.92095774156336,37.57822911609959
63,집단급식소,영업/정상,서울특별시 서대문구 북가좌동 186-115번지,191745.130765299,452694.710680893,126.90444911645156,37.576509466198765
64,집단급식소,영업/정상,서울특별시 서대문구 북가좌동 325-44번지,192005.597646293,453361.41357426,126.90739038056076,37.582518677093695
65,집단급식소,영업/정상,서울특별시 서대문구 연희동 290-3번지,193848.857844711,451452.477855481,126.92827471741094,37.56533370427782
66,집단급식소,영업/정상,서울특별시 영등포구 여의도동 1번지 국회제3어린이집,192450.93552236,447649.476828035,126.91249145084879,37.531058545204864
67,집단급식소,영업/정상,서울특별시 영등포구 신길동 10-40,193030.726871477,445968.709890974,126.91906702844507,37.51591953333255
68,집단급식소,영업/정상,서울특별시 영등포구 여의도동 17-5 글래드호텔 지하1층,192622.209000336,447248.142200812,126.91443322520375,37.527443944522
69,집단급식소,영업/정상,서울특별시 영등포구 영등포동8가 92 KnK디지털타워 지하1층,191457.663413167,447179.850506981,126.90125952469892,37.526818514909294
70,집단급식소,영업/정상,서울특별시 서대문구 남가좌동 322-35번지,193225.815540595,453289.994840171,126.9212055340521,37.581885073371666
71,집단급식소,영업/정상,서울특별시 영등포구 신길동 4491번지,192275.299730624,443891.073398846,126.91054419147471,37.49719403361544
72,집단급식소,영업/정상,서울특별시 영등포구 대림동 705번지 (1층),190924.988705304,443391.28835629,126.89528049820764,37.49267860890473
73,집단급식소,영업/정상,서울특별시 서대문구 홍은동 산 11-141번지,194042.417620566,453704.354188132,126.93044707357578,37.58562409109916
74,집단급식소,영업/정상,서울특별시 서대문구 천연동 31-1번지,196603.986335415,451803.806537428,126.95945762814381,37.56851359797987
75,집단급식소,영업/정상,서울특별시 송파구 가락동 600-0번지 청과동경매장내,209790.959909032,443481.212174317,127.10861364258434,37.493482825128346
76,집단급식소,영업/정상,서울특별시 서대문구 대현동 67-85번지,195237.684604443,450629.432880156,126.9439998903659,37.55792648114066
77,집단급식소,영업/정상,서울특별시 송파구 오금동 159번지,212289.029983484,443893.679527501,127.13686831697765,37.49716946939037
78,집단급식소,영업/정상,서울특별시 송파구 문정동 90번지,211158.583786406,442572.332153712,127.12406485264562,37.48527842300429
79,집단급식소,영업/정상,서울특별시 송파구 잠실동 35-3번지,207828.516448494,445236.284773452,127.08644109837108,37.50931455986894
80,집단급식소,영업/정상,서울특별시 송파구 거여동 251-40번지,212902.061775423,443261.736964449,127.14378971112988,37.491467372144285
81,집단급식소,영업/정상,서울특별시 영등포구 대림동 652번지 (2층),190847.63082058,444558.212074766,126.89439114287823,37.5031917947082
82,집단급식소,영업/정상,서울특별시 성북구 성북동1가 117-1번지,200218.165290239,454293.64422545,127.00036783575177,37.590953184446875
83,집단급식소,영업/정상,서울특별시 성북구 돈암동 609-1번지 한진(아) 단지내,200841.726990037,454721.505180141,127.00742864011599,37.594807830058635
84,집단급식소,영업/정상,서울특별시 성북구 석관동 250-1번지,205112.237997011,456353.379533404,127.0557957324349,37.60949722473242
85,집단급식소,영업/정상,서울특별시 서대문구 홍제동 361-38번지,194369.513296506,453458.872782824,126.93415229373697,37.58341442089745
86,집단급식소,영업/정상,서울특별시 영등포구 신길동 323번지,191692.406109918,444876.55589031,126.90394136753712,37.50606810553372
87,집단급식소,영업/정상,서울특별시 송파구 가락동 600-0 (중앙청과),209790.959909032,443481.212174317,127.10861364258434,37.493482825128346
88,집단급식소,영업/정상,서울특별시 송파구 잠실동 10 서울종합운동장,206383.829438022,446030.128073052,127.07010812536737,37.51647807343352
89,집단급식소,영업/정상,서울특별시 송파구 가락동 600-0번지,209790.959909032,443481.212174317,127.10861364258434,37.493482825128346
90,집단급식소,영업/정상,서울특별시 송파구 잠실동 101-1번지 우성아파트 상가 B동 2층호,206397.34797252,444963.233863255,127.07025185246991,37.50686530367368
91,집단급식소,영업/정상,"서울특별시 송파구 가락동 121-1번지 ,2,3",210925.173331627,443471.18499564,127.12143902551837,37.49337984461017
92,집단급식소,영업/정상,서울특별시 송파구 잠실동 35번지 트리지움 관리동 1층,207849.576769863,445299.913591118,127.08667996951658,37.50988767581453
93,집단급식소,영업/정상,서울특별시 송파구 마천동 38번지,212872.707353159,444171.884743201,127.14347362056373,37.499668179966335
94,집단급식소,영업/정상,서울특별시 송파구 방이동 137-7번지,210308.050059834,445364.99521524,127.11448705045,37.510450059023846
95,집단급식소,영업/정상,서울특별시 송파구 가락동 196-16번지 (3층),211573.043354795,443435.754837058,127.12876448509063,37.49305277733213
96,집단급식소,영업/정상,서울특별시 송파구 신천동 17-3번지,209187.736802551,446504.718511663,127.10182996803285,37.5207306563573
97,집단급식소,영업/정상,서울특별시 영등포구 양평동4가 16-1 5층,190452.870313631,448107.484024722,126.88988026988083,37.535166504153096
98,집단급식소,영업/정상,서울특별시 영등포구 양평동5가 21 지하1층,190461.126082961,448352.840608043,126.88997046972062,37.53737723216229
99,집단급식소,영업/정상,서울특별시 송파구 가락동 131-12번지 지하1층,211099.249438841,443522.439839683,127.1234082195776,37.493839586989644
100,집단급식소,영업/정상,서울특별시 성북구 정릉동 1028번지 번지 e편한세상아파트 관리동,200831.447005792,456984.251357746,127.00731460758104,37.61519478812754
101,집단급식소,영업/정상,서울특별시 성북구 길음동 21-72번지 서울 척병원,202513.134565354,456279.155933546,127.02635953162067,37.60883907052101
102,집단급식소,영업/정상,서울특별시 성북구 동소문동1가 140-72 새삼선유치원,200443.488347816,454203.305138996,127.00291903580096,37.5901391778299
103,집단급식소,영업/정상,서울특별시 성북구 정릉동 247번지,200512.499770119,457121.211496413,127.00370220194377,37.61642898343032
104,집단급식소,영업/정상,서울특별시 성북구 하월곡동 22번지,203584.773662154,455799.942394776,127.03849388946881,37.604517966527595
105,집단급식소,영업/정상,서울특별시 성북구 길음동 547-78,201749.029149064,455736.952057014,127.01770454025913,37.60395562523832
106,집단급식소,영업/정상,서울특별시 성북구 돈암동 83-145번지 번지,202125.901461194,454718.052072229,127.02196959580394,37.59477473848155
107,집단급식소,영업/정상,"서울특별시 성북구 장위동 50-50번지 온누리병원, 지하1층",205115.270098014,456653.34725952,127.05583214207722,37.61219986114565
108,집단급식소,영업/정상,서울특별시 성북구 종암동 131-3번지,202843.433215086,455008.995107691,127.03009545149831,37.597394202091266
109,집단급식소,영업/정상,서울특별시 성북구 길음동 1280-4번지,201400.790087272,456327.403846748,127.01376195421898,37.609276063035594
110,집단급식소,영업/정상,서울특별시 서대문구 대현동 11-1 이화여자대학교,195287.766418517,451143.789306014,126.94456334867799,37.562561037248926
111,집단급식소,영업/정상,서울특별시 서대문구 홍제동 245-1,195101.777433897,454216.466591887,126.94243746925365,37.59024446406916
112,집단급식소,영업/정상,서울특별시 서대문구 홍은동 361-30번지,193497.268027569,453548.783718643,126.92427639244058,37.58421869840984
113,집단급식소,영업/정상,서울특별시 영등포구 여의도동 18-0,192538.786642476,447017.15917925,126.91349183309549,37.52536212557401
114,집단급식소,영업/정상,서울특별시 영등포구 영등포동 576-6번지,192328.960055763,445936.274928127,126.91112950318714,37.51562168274656
115,집단급식소,영업/정상,서울특별시 영등포구 여의도동 40-2번지,194182.153879146,446722.718400043,126.93208509031307,37.52272116764787
116,집단급식소,영업/정상,서울특별시 영등포구 여의도동 1번지,192450.93552236,447649.476828035,126.91249145084879,37.531058545204864
117,집단급식소,영업/정상,서울특별시 성북구 길음동 555-24,201599.964641076,455964.875182064,127.0160169241849,37.60600943363439
118,집단급식소,영업/정상,서울특별시 성북구 하월곡동 46-73 외 72필지,203502.004139568,455500.568972657,127.03755514654458,37.601820976664996
119,집단급식소,영업/정상,서울특별시 성북구 보문동7가 105-1번지 동인빌딩 지하1층,201932.017826815,453071.709292695,127.01977001808241,37.57994184621673
120,집단급식소,영업/정상,서울특별시 성북구 종암동 3-91번지,203072.630557158,455135.778600391,127.03269130925064,37.5985357800942
121,집단급식소,영업/정상,서울특별시 성북구 돈암동 636번지 브라운스톤이수아파트,201501.474496909,455061.698603977,127.01489976112093,37.597872124786754
122,집단급식소,영업/정상,서울특별시 성북구 정릉동 175-5번지 번지,201327.261470156,455734.123824016,127.01292819047771,37.60393081862422
123,집단급식소,영업/정상,서울특별시 서대문구 북아현동 1-1612번지,195540.766594914,451459.949225259,126.94742493480825,37.56541087839026
124,집단급식소,영업/정상,서울특별시 서대문구 홍은동 427-3,194331.373227155,453267.756567614,126.93372198701692,37.581692254936456
125,집단급식소,영업/정상,서울특별시 서대문구 충정로3가 139,196694.508582738,451070.359709608,126.9604856383882,37.56190566173047
126,집단급식소,영업/정상,서울특별시 서대문구 홍은동 361-30,193497.268027569,453548.783718643,126.92427639244058,37.58421869840984
127,집단급식소,영업/정상,서울특별시 서대문구 홍제동 44,195648.871864811,453006.494544125,126.94863923882099,37.57934557921831
128,집단급식소,영업/정상,서울특별시 서대문구 대신동 20번지,194863.453387608,450965.132492184,126.93976210714314,37.560949062699734
129,집단급식소,영업/정상,서울특별시 영등포구 양평동3가 36번지 지하1층,189979.778774713,447187.580724887,126.88454026252987,37.52687319750564
130,집단급식소,영업/정상,서울특별시 서대문구 남가좌동 50-3번지,193139.52394401,453106.002592232,126.9202303449462,37.58022668527122
131,집단급식소,영업/정상,서울특별시 서대문구 대신동 47번지,195126.413016824,451295.821344436,126.94273607695678,37.56392997821775
132,집단급식소,영업/정상,서울특별시 서대문구 충정로2가 70번지,196729.625929736,451447.832113591,126.96088138836959,37.565306773447354
133,집단급식소,영업/정상,서울특별시 서대문구 대신동 113번지,195126.413016824,451295.821344436,126.94273607695678,37.56392997821775
134,집단급식소,영업/정상,서울특별시 영등포구 영등포동7가 94-200번지,191948.638351124,446775.416951967,126.90681834130156,37.52317904216413
135,집단급식소,영업/정상,서울특별시 서대문구 창천동 500-4 구립신촌어린이집,193778.460472037,450731.327860246,126.92748408687167,37.55883574827451
136,집단급식소,영업/정상,서울특별시 서대문구 신촌동 34-6번지 대신어린이집,195292.759492108,451602.174282241,126.94461688038741,37.56669105861461
137,집단급식소,영업/정상,서울특별시 서대문구 북아현동 149-31번지 1층,195852.155518007,450669.006384815,126.95095400781693,37.55828604687084
138,집단급식소,영업/정상,서울특별시 서대문구 연희동 170-8번지 1층,194025.557119959,452900.107344037,126.93026280829518,37.57837783331633
139,집단급식소,영업/정상,서울특별시 서대문구 미근동 257번지 NH농협생명빌딩 19층,197147.394631349,451165.367152401,126.96561112373273,37.56276321295755
140,집단급식소,영업/정상,서울특별시 서대문구 홍은동 48-20 홍은동종합사회복지관,195200.339138711,454788.828394599,126.9435496343366,37.59540187860383
141,집단급식소,영업/정상,서울특별시 송파구 석촌동 174-14번지,209295.368139314,444879.115591176,127.10302708898739,37.50608298158544
142,집단급식소,영업/정상,서울특별시 송파구 신천동 7-23,209083.899741533,445916.209435271,127.1006481465395,37.51542924195138
143,집단급식소,영업/정상,서울특별시 송파구 거여동 296-0번지,212867.002215655,442840.014397327,127.14338594120623,37.48766814869995
144,집단급식소,영업/정상,서울특별시 송파구 방이동 220-5번지 방산고등학교,210610.518003698,445128.513038493,127.11790470060268,37.508315960631364
145,집단급식소,영업/정상,서울특별시 성북구 정릉동 771-3번지,200379.846908809,457052.32009315,127.00219968242384,37.615808340055445
146,집단급식소,영업/정상,서울특별시 영등포구 문래동6가 13번지,190001.114817201,446389.542539831,126.88479255947745,37.51968315927467
147,집단급식소,영업/정상,서울특별시 영등포구 신길동 451-5번지,193072.15721717,445537.165401144,126.91953976063469,37.51203165060861
148,집단급식소,영업/정상,서울특별시 영등포구 당산동3가 385-1번지,190733.030903431,447118.969319485,126.8930626034017,37.52626293717536
149,집단급식소,영업/정상,서울특별시 송파구 거여동 559-5번지 지상7층,212568.79253158,443483.209201758,127.14002501419888,37.49346740079808
150,집단급식소,영업/정상,서울특별시 송파구 가락동 122-6번지 지상3층,210893.646668129,443517.490003737,127.12108320796506,37.49379742171254
151,집단급식소,영업/정상,서울특별시 송파구 마천동 596번지 지상2층,213880.882679005,443825.378426253,127.15486834977908,37.49653164411475
152,집단급식소,영업/정상,서울특별시 송파구 신천동 29 에비뉴엘동 지하3층,209074.900840074,445657.80932984,127.10054319254533,37.51310115736578
153,집단급식소,영업/정상,서울특별시 송파구 신천동 29 지하3 엔터테인먼트동,209074.900840074,445657.80932984,127.10054319254533,37.51310115736578
154,집단급식소,영업/정상,서울특별시 송파구 문정동 1 문정래미안아파트단지내,211453.050926808,443165.755655708,127.1274034590251,37.49062157750121
155,집단급식소,영업/정상,서울특별시 송파구 마천동 323-197번지 마천종합사회복지관 지상1층,213693.542236248,443297.082516797,127.15274006623213,37.49177449949679
156,집단급식소,영업/정상,서울특별시 영등포구 당산동6가 110-43번지 1~3층,191541.282074931,447879.52342816,126.90219737965636,37.53312329393426
157,집단급식소,영업/정상,서울특별시 영등포구 도림동 81-2번지 미루나무어린이집 1층,191660.179989376,445244.491667365,126.90357269446714,37.50938290060378
158,집단급식소,영업/정상,서울특별시 영등포구 여의도동 30-1번지,194076.262887209,446974.968037797,126.9308851658385,37.52499324196292
159,집단급식소,영업/정상,서울특별시 영등포구 양평동5가 121-1번지,190648.410812888,448737.352190615,126.89208457239678,37.54084357811264
160,집단급식소,영업/정상,서울특별시 서대문구 남가좌동 115-63번지,192887.346186228,452134.36764516,126.91738495608932,37.57147045835076
161,집단급식소,영업/정상,서울특별시 서대문구 연희동 267-1번지,193535.492682958,451777.601418291,126.92472492813542,37.56826086090428
162,집단급식소,영업/정상,서울특별시 서대문구 북아현동 190-1번지,195806.732723093,451160.409173293,126.95043707630987,37.56271332388169
163,집단급식소,영업/정상,서울특별시 서대문구 천연동 13-1번지,196676.904835398,451818.339308861,126.96028294137193,37.56864480745823
164,집단급식소,영업/정상,서울특별시 서대문구 신촌동 134 지상1층,194584.959249312,451381.585492051,126.9366069810422,37.564699643057445
165,집단급식소,영업/정상,서울특별시 서대문구 창천동 113-10번지,193884.738345959,450568.628544274,126.9286882830358,37.55737056371853
166,집단급식소,영업/정상,서울특별시 서대문구 남가좌동 2-3번지 충암초등학교 내,193074.574996604,453608.098657178,126.91949027093365,37.584750005890044
167,집단급식소,영업/정상,서울특별시 영등포구 여의도동 11-17번지 비전센터,193189.55354738,447542.117221817,126.92084884443842,37.53009704117321
168,집단급식소,영업/정상,서울특별시 은평구 신사동 26-18번지,192178.73936768,455082.177105767,126.9093320543585,37.59802397575219
169,집단급식소,영업/정상,서울특별시 은평구 녹번동 산 28-6번지,193913.321192334,455605.276250539,126.9289695074699,37.60275023372421
170,집단급식소,영업/정상,서울특별시 서대문구 대현동 11-1번지,195287.766418517,451143.789306014,126.94456334867799,37.562561037248926
171,집단급식소,영업/정상,서울특별시 서대문구 신촌동 134 지상2층,194584.959249312,451381.585492051,126.9366069810422,37.564699643057445
172,집단급식소,영업/정상,서울특별시 서대문구 천연동 110번지,196491.257775786,451763.127672849,126.95818182727079,37.56814665605094
173,집단급식소,영업/정상,서울특별시 서대문구 연희동 151-29번지,194125.278142395,452757.592442273,126.93139287506784,37.57709444211945
174,집단급식소,영업/정상,서울특별시 서대문구 홍제동 92-1번지,195395.053243575,453518.698668129,126.94576253221202,37.58395921396389
175,집단급식소,영업/정상,서울특별시 영등포구 신길동 232-20번지 지상1층,192120.485088964,444997.057448512,126.90878154165168,37.507157601745064
176,집단급식소,영업/정상,서울특별시 영등포구 여의도동 50번지 시범아파트 단지내 성요섭유치원 2층,194370.32715363,446497.523930335,126.93421550532688,37.52069335713258
177,집단급식소,영업/정상,서울특별시 서대문구 충정로3가 480 더스타일하우스디센트럴 101동 101호,196595.808000129,451003.234062396,126.95936884105193,37.56130050082958
178,집단급식소,영업/정상,서울특별시 영등포구 양평동5가 76번지 한신(아)내 3층,190394.571819262,448656.726986041,126.88921344174321,37.540114526250186
179,집단급식소,영업/정상,서울특별시 영등포구 대림동 978-13번지,191713.448635499,443157.388663332,126.90419885873672,37.49057863772219
180,집단급식소,영업/정상,서울특별시 영등포구 여의도동 15-22번지 (9층),192750.313159769,447349.774643212,126.91588145610334,37.528360670413534
181,집단급식소,영업/정상,서울특별시 영등포구 여의도동 1번지 국회 의원회관 1층,192450.93552236,447649.476828035,126.91249145084879,37.531058545204864
182,집단급식소,영업/정상,서울특별시 송파구 가락동 140번지 쌍용아파트 관리동 2층,211259.909777857,443711.702922024,127.12522783123327,37.49554290972
183,집단급식소,영업/정상,서울특별시 영등포구 신길동 123-1번지,192777.136599627,445229.201163895,126.91620592958515,37.50925462344621
184,집단급식소,영업/정상,서울특별시 서대문구 홍은동 204-27번지,194204.467578501,454264.139116571,126.93227729449885,37.59066871242887
185,집단급식소,영업/정상,서울특별시 서대문구 신촌동 134 연세의료원 연세암병원 지하2층,194584.959249312,451381.585492051,126.9366069810422,37.564699643057445
186,집단급식소,영업/정상,서울특별시 서대문구 북아현동 1-595,195613.957694398,451494.480781758,126.948253156776,37.56572236004059
187,집단급식소,영업/정상,서울특별시 서대문구 홍제동 107-12번지,195405.724353529,453724.195008167,126.94588203946131,37.58581075984526
188,집단급식소,영업/정상,서울특별시 서대문구 홍제동 337-1 지하1층,194452.58519845,453751.41310718,126.935090549606,37.58605067573859
189,집단급식소,영업/정상,서울특별시 송파구 오금동 114-31,212358.616590801,444494.49630853,127.13766526727647,37.502581882082445
190,집단급식소,영업/정상,서울특별시 송파구 풍납동 403-4번지,210228.645088443,447410.725540932,127.11361722657509,37.52888284288301
191,집단급식소,영업/정상,서울특별시 송파구 거여동 32-8번지,213142.935026368,443371.291438317,127.14651534279656,37.492451076863574
192,집단급식소,영업/정상,서울특별시 송파구 삼전동 172번지 삼전종합사회복지관,208326.213053964,444106.176463815,127.09205748808776,37.49912800003723
193,집단급식소,영업/정상,서울특별시 송파구 신천동 29-5번지,209309.168083103,445825.652756192,127.10319505890705,37.51461110263377
194,집단급식소,영업/정상,서울특별시 송파구 마천동 44-7번지,213026.924202876,444153.668752098,127.14521730477833,37.49950190350839
195,집단급식소,영업/정상,서울특별시 송파구 가락동 140번지 가락쌍용아파트,211259.909777857,443711.702922024,127.12522783123327,37.49554290972
196,집단급식소,영업/정상,서울특별시 송파구 장지동 838번지,211330.870749961,442111.15088515,127.12600578249997,37.481121099622975
197,집단급식소,영업/정상,서울특별시 서대문구 홍제동 251-4번지 13층,195065.292655665,454025.078627384,126.94202567599294,37.588519890688744
198,집단급식소,영업/정상,서울특별시 송파구 방이동 128번지,210487.710455325,445201.483768177,127.11651676872962,37.508974817942395
199,집단급식소,영업/정상,서울특별시 송파구 신천동 29-5번지,209309.168083103,445825.652756192,127.10319505890705,37.51461110263377
200,집단급식소,영업/정상,서울특별시 서대문구 홍제동 287-121번지,195330.204119756,455000.190591262,126.94501876653591,37.59730689421167
201,집단급식소,영업/정상,서울특별시 송파구 잠실동 19-4번지,206863.098535189,445977.507400121,127.07552881786528,37.51600055854892
202,집단급식소,영업/정상,서울특별시 영등포구 신길동 476번지 지상7층,192839.571105088,444099.181069755,126.91692317487986,37.499073664833745
203,집단급식소,영업/정상,서울특별시 송파구 방이동 88번지 지하1층,210199.45921923,446539.279382444,127.11327502546253,37.52103149374413
204,집단급식소,영업/정상,서울특별시 송파구 잠실동 40-1 지하3층,208589.363343145,445455.90405262,127.09504902014581,37.51128661020394
205,집단급식소,영업/정상,서울특별시 송파구 잠실동 40-1번지 롯데월드,208589.363343145,445455.90405262,127.09504902014581,37.51128661020394
206,집단급식소,영업/정상,서울특별시 송파구 장지동 905번지 위례포레샤인23단지,211901.579538827,441585.372783391,127.13244976571052,37.47637670901065
207,집단급식소,영업/정상,서울특별시 송파구 장지동 905번지 위례포레샤인23단지,211901.579538827,441585.372783391,127.13244976571052,37.47637670901065
208,집단급식소,영업/정상,서울특별시 영등포구 대림동 741-3,191162.927535382,444059.509103222,126.89796297049273,37.498701587296544
209,집단급식소,영업/정상,서울특별시 영등포구 대림동 970-1,191586.863876543,443286.774546593,126.90276602024967,37.49174325040333
210,집단급식소,영업/정상,서울특별시 영등포구 신길동 121-0번지,192718.169710861,445290.755305418,126.91553838439144,37.509808756793745
211,집단급식소,영업/정상,서울특별시 송파구 문정동 628 가든파이브툴 9층,210480.282018702,441833.16323518,127.11638509603343,37.4786264066986
212,집단급식소,영업/정상,서울특별시 송파구 마천동 28번지 지하1층,212548.016675014,444251.401906315,127.13980311199536,37.500389071313364
213,집단급식소,영업/정상,서울특별시 송파구 잠실동 228-8번지 극동빌딩 지하1층 B동 2호,207215.18162637,444889.462528926,127.07950074873622,37.50619465599308
214,집단급식소,영업/정상,서울특별시 영등포구 여의도동 56-1번지 1층,193808.898597683,446214.260032931,126.92786704427567,37.51813752943919
215,집단급식소,영업/정상,"서울특별시 송파구 마천동 183-56 지하1,지상2층",213356.173516195,443745.600974475,127.14893333649661,37.495820550222966
216,집단급식소,영업/정상,서울특별시 송파구 마천동 52번지,213180.801430512,444366.04057091,127.14696125003603,37.501413192431144
217,집단급식소,영업/정상,서울특별시 송파구 오금동 70-14번지,211843.683591803,444616.131408589,127.13184371928783,37.50368451959003
218,집단급식소,영업/정상,서울특별시 송파구 삼전동 172-2,208319.678937677,444056.564730662,127.09198303911381,37.498681057850355
219,집단급식소,영업/정상,서울특별시 송파구 장지동 898번지,212181.224576842,441736.440363033,127.13561371506493,37.477734204831656
220,집단급식소,영업/정상,서울특별시 송파구 장지동 899번지,212290.715127232,441732.195136612,127.13685148808064,37.477694513845165
221,집단급식소,영업/정상,서울특별시 송파구 신천동 7-29 향군타워 지하2층,208883.088818201,446048.260013091,127.09837832136847,37.516620950932186
222,집단급식소,영업/정상,서울특별시 송파구 장지동 863-1번지 지상1층,212002.438587084,442004.621552314,127.13359679864408,37.480152842030634
223,집단급식소,영업/정상,서울특별시 송파구 풍납동 388-6번지 지하1층,209993.952471355,447157.697879202,127.11095868190282,37.526605637067924
224,집단급식소,영업/정상,서울특별시 송파구 석촌동 226-1 지상3층,208728.409991429,444087.081203257,127.09660559710555,37.49895226762556
225,집단급식소,영업/정상,서울특별시 송파구 삼전동 16-7번지 3층,208050.780223095,444896.822949635,127.08895127479599,37.50625412536061
226,집단급식소,영업/정상,서울특별시 영등포구 당산동3가 560번지 1~3층,190591.147690249,447361.75201799,126.89145437583821,37.52844894667743
227,집단급식소,영업/정상,서울특별시 영등포구 여의도동 56-1번지 지하1층,193808.898597683,446214.260032931,126.92786704427567,37.51813752943919
228,집단급식소,영업/정상,서울특별시 영등포구 영등포동2가 94-379 시립영등포장애인복지관 지하1층,192227.631935506,446510.71460254,126.90997723703722,37.52079650013204
229,집단급식소,영업/정상,서울특별시 영등포구 신길동 456-62 2층,192995.292127432,445191.274371744,126.91867368864419,37.508914600140706
230,집단급식소,영업/정상,서울특별시 영등포구 신길동 861번지 7층,193034.345962851,444796.372057832,126.91911916887561,37.50535684116317
231,집단급식소,영업/정상,서울특별시 영등포구 양평동4가 10번지,190644.608657423,447941.191428784,126.89205175980226,37.533670198961936
232,집단급식소,영업/정상,서울특별시 영등포구 신길동 268-1 2층,191828.619397049,445056.826502706,126.9054798905696,37.50769356212087
233,집단급식소,영업/정상,서울특별시 서대문구 홍은동 산 26-127번지,193609.170051419,453455.116957246,126.92554412600592,37.58337556598223
234,집단급식소,영업/정상,서울특별시 서대문구 대현동 67-1번지,195309.177644022,450631.963323238,126.9448090045384,37.557949651734454
235,집단급식소,영업/정상,서울특별시 서대문구 창천동 53-38번지,194095.473828567,450595.384739503,126.9310730697375,37.55761302276018
236,집단급식소,영업/정상,서울특별시 서대문구 연희동 527-15번지,193364.15523444,452379.761929726,126.92278002878123,37.57368501916091
237,집단급식소,영업/정상,서울특별시 서대문구 북아현동 950-1번지,196309.809379343,450620.463067612,126.95613383123798,37.55785065431062
238,집단급식소,영업/정상,서울특별시 송파구 방이동 88-15번지,211525.928860841,446381.991026383,127.1282776207875,37.51959881870906
239,집단급식소,영업/정상,서울특별시 송파구 잠실동 35-1번지,207867.335456925,445303.571602941,127.08688086526146,37.50992048447289
240,집단급식소,영업/정상,서울특별시 송파구 가락동 58번지,210849.897330572,443789.337035202,127.1205924772616,37.49624726842141
241,집단급식소,영업/정상,서울특별시 송파구 문정동 54-5번지 지상4층,210698.546313375,442926.124206904,127.11886848970414,37.488471492800095
242,집단급식소,영업/정상,서울특별시 영등포구 대림동 712번지 2층,190806.103023466,443598.337175322,126.8939335652177,37.49454293151053
243,집단급식소,영업/정상,서울특별시 서대문구 북아현동 170-1번지,195923.782526394,450851.073523949,126.95176363124699,37.55992677693962
244,집단급식소,영업/정상,서울특별시 서대문구 홍제동 123-7번지,195352.890571424,453717.208797863,126.94528390909623,37.58574754632972
245,집단급식소,영업/정상,서울특별시 서대문구 연희동 421-1번지,193393.590064884,451598.501282638,126.92312033680831,37.566646174580825
246,집단급식소,영업/정상,서울특별시 서대문구 북가좌동 476번지,191938.706856834,452436.782954186,126.90664333650899,37.574187301331726
247,집단급식소,영업/정상,서울특별시 서대문구 북가좌동 145-106번지,191973.531226879,452564.651789228,126.90703613966775,37.57533968823447
248,집단급식소,영업/정상,서울특별시 서대문구 북아현동 190-1번지,195806.732723093,451160.409173293,126.95043707630987,37.56271332388169
249,집단급식소,영업/정상,서울특별시 서대문구 홍제동 320-3번지,194939.862359049,453595.722204231,126.94060852619359,37.584650764338875
250,집단급식소,영업/정상,서울특별시 서대문구 충정로2가 67-9번지,196608.728636866,451450.239503811,126.95951297295923,37.565328018347216
251,집단급식소,영업/정상,서울특별시 서대문구 홍은동 183번지,194209.739182238,454473.689415011,126.93233530800569,37.59255676073235
252,집단급식소,영업/정상,서울특별시 서대문구 신촌동 134번지 연세대학교 재활학교 2층,194584.959249312,451381.585492051,126.9366069810422,37.564699643057445
253,집단급식소,영업/정상,서울특별시 서대문구 홍은동 356-1,193310.670771252,453579.955844676,126.9221635280771,37.58449820508219
254,집단급식소,영업/정상,서울특별시 서대문구 연희동 170-5번지,194031.164784212,452858.600656495,126.93032663258593,37.57800390058594
255,집단급식소,영업/정상,서울특별시 서대문구 현저동 200번지 극동아파트 단지내,196111.168694145,452194.834634239,126.95387721073261,37.57203473041708
256,집단급식소,영업/정상,서울특별시 서대문구 북가좌동 5-105 구립은가하나어린이집,192689.852400873,453225.546074738,126.915138419275,37.58130026407612
257,집단급식소,영업/정상,서울특별시 서대문구 남가좌동 50-3번지,193139.52394401,453106.002592232,126.9202303449462,37.58022668527122
258,집단급식소,영업/정상,서울특별시 송파구 가락동 170-8번지,211811.52235039,443890.863510767,127.13146841863367,37.49715029224924
259,집단급식소,영업/정상,서울특별시 송파구 가락동 197-3번지,211568.998311316,443383.33836837,127.12871792549981,37.4925805565972
260,집단급식소,영업/정상,서울특별시 송파구 잠실동 211-36번지,207494.310257664,445094.62753972,127.08265970773095,37.50804098261856
261,집단급식소,영업/정상,서울특별시 송파구 방이동 215번지 지상3층,210847.471017432,445137.878479864,127.1205848001027,37.508397606454174
262,집단급식소,영업/정상,서울특별시 송파구 신천동 17번지 (1층),209314.259995755,446483.316079239,127.10326092657975,37.520536562525166
263,집단급식소,영업/정상,서울특별시 서대문구 북가좌동 144 DMC래미안이편한세상 207동관리동,192028.41586192,452265.952165442,126.90766072025704,37.57264892617105
264,집단급식소,영업/정상,서울특별시 서대문구 북가좌동 144번지 DMC래미안e편한아파트 105동 1층,192028.41586192,452265.952165442,126.90766072025704,37.57264892617105
265,집단급식소,영업/정상,서울특별시 서대문구 북가좌동 144번지 DMC래미안 e편한세상 407동 1층,192028.41586192,452265.952165442,126.90766072025704,37.57264892617105
266,집단급식소,영업/정상,서울특별시 서대문구 남가좌동 364-6번지,192698.209388275,453064.235351113,126.91523465091171,37.57984694489352
267,집단급식소,영업/정상,서울특별시 서대문구 홍제동 286-5번지,195487.3430895,455005.702299863,126.94679810701801,37.59735734855761
268,집단급식소,영업/정상,서울특별시 서대문구 미근동 165번지 서대문경찰서 지하1층,197004.364341776,451399.301407847,126.96399128140156,37.56487047054967
269,집단급식소,영업/정상,서울특별시 서대문구 홍은동 48번지,194976.3838965,454477.712168964,126.94101588609486,37.592597561133935
270,집단급식소,영업/정상,서울특별시 서대문구 연희동 141번지,194452.3847641,452817.772563851,126.93509542860734,37.577638707632886
271,집단급식소,영업/정상,서울특별시 서대문구 연희동 87-9,194080.464145882,451962.863614225,126.93089204301724,37.56993375020205
272,집단급식소,영업/정상,서울특별시 영등포구 여의도동 34-8번지 12층,193644.210676231,446557.559334636,126.92600116315893,37.52122950830845
273,집단급식소,영업/정상,서울특별시 영등포구 여의도동 27-3번지,193017.878453154,446707.530845847,126.91891461620058,37.52257617453135
274,집단급식소,영업/정상,서울특별시 영등포구 대림동 735-0,190732.43806364,443928.02168029,126.89309638036416,37.49751264060315
275,집단급식소,영업/정상,서울특별시 영등포구 양평동4가 323-0번지,190755.118283059,448591.537520671,126.89329381722138,37.539530884125455
276,집단급식소,영업/정상,서울특별시 서대문구 홍은동 304-1번지 2층,193559.452132598,453419.964709986,126.92498155855127,37.5830584996169
277,집단급식소,영업/정상,서울특별시 송파구 풍납동 305-10,209810.529509641,447771.722892482,127.10889178576632,37.53213991226769
278,집단급식소,영업/정상,서울특별시 송파구 장지동 901번지,212257.795179148,441534.957797015,127.1364760483619,37.475917840692254
279,집단급식소,영업/정상,서울특별시 송파구 장지동 841-1번지,211175.385231398,441756.484407528,127.12424251459964,37.47792743748018
280,집단급식소,영업/정상,서울특별시 송파구 송파동 128-9,209986.360078344,444983.804911813,127.11084345890771,37.50701906327384
281,집단급식소,영업/정상,서울특별시 영등포구 당산동3가 79번지,190918.069192405,446961.979577779,126.89515786066978,37.52485032244446
282,집단급식소,영업/정상,서울특별시 송파구 방이동 119-20번지,210231.648204305,445357.751196286,127.1136228129355,37.510385635130255
283,집단급식소,영업/정상,서울특별시 송파구 마천동 93-5번지 마천동 천주교회 지상2층,213105.8148631,444156.925198313,127.14610951789159,37.499530133585594
284,집단급식소,영업/정상,서울특별시 송파구 거여동 37번지 지하2,212831.033281342,443457.104592042,127.14298994067687,37.493228612879044
285,집단급식소,영업/정상,서울특별시 서대문구 연희동 55-1번지 서울외국인학교,194375.202730226,451913.829240375,126.93422869535318,37.569493823603786
286,집단급식소,영업/정상,서울특별시 서대문구 연희동 55-1번지 서울외국인학교,194375.202730226,451913.829240375,126.93422869535318,37.569493823603786
287,집단급식소,영업/정상,서울특별시 서대문구 연희동 1-107번지,194623.442775868,453421.273012983,126.93702742749468,37.58307718763573
288,집단급식소,영업/정상,서울특별시 영등포구 대림동 1116-49번지 1층,190764.154721538,443219.40808495,126.89346399924405,37.49112836551277
289,집단급식소,영업/정상,서울특별시 영등포구 대림동 1059-46번지 지하1층,190782.863051416,443218.704097237,126.89367555280964,37.49112221069334
290,집단급식소,영업/정상,서울특별시 영등포구 여의도동 1번지 본관3층,192450.93552236,447649.476828035,126.91249145084879,37.531058545204864
291,집단급식소,영업/정상,서울특별시 영등포구 신길동 2039번지 래미안에스티움아파트 관리동,192287.059579022,444303.222020427,126.91067282188101,37.500907582780144
292,집단급식소,영업/정상,서울특별시 서대문구 홍은동 201-1번지,194211.997213753,454098.970268002,126.93236386858618,37.58918061490747
293,집단급식소,영업/정상,서울특별시 서대문구 충정로2가 70번지 경기초등학교내,196729.625929736,451447.832113591,126.96088138836959,37.565306773447354
294,집단급식소,영업/정상,서울특별시 서대문구 합동 27-1번지,196993.66534559,451064.229204557,126.96387158549186,37.56185147179402
295,집단급식소,영업/정상,서울특별시 영등포구 여의도동 11번지 여의도순복음교회 선교센터,193125.026489784,447638.87277667,126.92011791025375,37.530968319140236
296,집단급식소,영업/정상,"서울특별시 영등포구 신길동 465-2번지 2층, 신길종합사회복지관",192986.02636243,445440.439754341,126.91856649340441,37.51115950008096
297,집단급식소,영업/정상,서울특별시 송파구 송파동 20-7번지,209627.926977957,445033.492693013,127.10679025914433,37.50747052951016
298,집단급식소,영업/정상,서울특별시 송파구 잠실동 302,206899.887182561,444642.794762736,127.0759325418752,37.50397457379084
299,집단급식소,영업/정상,서울특별시 송파구 신천동 7-4,209131.886470178,445858.809004644,127.10119022535606,37.514911596894635
300,집단급식소,영업/정상,서울특별시 영등포구 여의도동 27번지 1층,192976.019743053,446761.108856206,126.91844058275437,37.52305858886741
301,집단급식소,영업/정상,서울특별시 영등포구 대림동 899-2 지하1층,191615.868557094,443698.800003685,126.90308926563786,37.495455859085496
302,집단급식소,영업/정상,서울특별시 영등포구 신길동 65-33번지 8층,192946.280189392,445685.944518825,126.91811456677672,37.51337118256377
303,집단급식소,영업/정상,서울특별시 영등포구 여의도동 21,193767.829589155,447258.370739889,126.92739354535144,37.52754463062042
304,집단급식소,영업/정상,서울특별시 영등포구 여의도동 23-4번지,193155.533871263,446891.469753398,126.9204700822084,37.52423449423713
305,집단급식소,영업/정상,서울특별시 송파구 송파동 106-9번지,209849.486259162,444603.528752659,127.10929037134999,37.5035942495629
306,집단급식소,영업/정상,서울특별시 송파구 문정동 13-2번지,211222.468676851,442884.654018468,127.12479190707865,37.48809166973565
307,집단급식소,영업/정상,서울특별시 영등포구 여의도동 23번지 지하2층,193326.931018911,446973.914570276,126.9224082596647,37.524978584310034
308,집단급식소,영업/정상,서울특별시 영등포구 여의도동 23번지 아이에프씨몰 지하3층,193326.931018911,446973.914570276,126.9224082596647,37.524978584310034
309,집단급식소,영업/정상,서울특별시 영등포구 신길동 1178번지 지하1층,193129.446605343,445261.443489629,126.920190341678,37.50954783861549
310,집단급식소,영업/정상,서울특별시 서초구 방배동 822-29 2층,198737.912517747,443178.177431612,126.98362757537758,37.4908027259138
311,집단급식소,영업/정상,서울특별시 서초구 방배동 896-1번지 지하1층,199494.84195609,442848.134012303,126.99218679778721,37.48782980988029
312,집단급식소,영업/정상,서울특별시 서초구 반포동 54-9 (지하1층),200772.175585118,444320.290833304,127.00663107018065,37.5010938413679
313,집단급식소,영업/정상,서울특별시 서초구 잠원동 49-25 (지하1층),201240.345580781,446482.717573109,127.01192907820733,37.52057676562823
314,집단급식소,영업/정상,서울특별시 서초구 서초동 1685번지 (1층),201310.903586376,444037.347883392,127.01272308483956,37.49854395897329
315,집단급식소,영업/정상,서울특별시 서초구 잠원동 56-3 잠원한신아파트,200883.46902532,445971.21278915,127.00789152980514,37.51596851393217
316,집단급식소,영업/정상,서울특별시 송파구 풍납동 496-5번지,210641.609053069,447960.007314417,127.1182970789942,37.53382718674825
317,집단급식소,영업/정상,서울특별시 송파구 오금동 34-0번지,211286.242071254,444755.458605934,127.12554151623281,37.504946792850376
318,집단급식소,영업/정상,서울특별시 송파구 삼전동 63-0번지,208119.148220906,444363.040330106,127.0897186601558,37.50144416596414
319,집단급식소,영업/정상,서울특별시 송파구 가락동 9번지,211173.253995382,444423.274560406,127.12425865263127,37.50195519349891
320,집단급식소,영업/정상,서울특별시 영등포구 여의도동 34-4 KB증권,193605.388456046,446606.665034065,126.92556157230324,37.52167167722458
321,집단급식소,영업/정상,서울특별시 영등포구 여의도동 25-2번지 금융투자교육원 2층,193406.69127947,446850.579729863,126.92331167497701,37.52386792335165
322,집단급식소,영업/정상,서울특별시 서대문구 북아현동 1-418번지,196153.279276793,451474.32188608,126.95435773406453,37.5655431774437
323,집단급식소,영업/정상,서울특별시 서대문구 홍제동 260-43번지,195113.865601454,454313.257535939,126.94257368357408,37.59111660041986
324,집단급식소,영업/정상,서울특별시 서대문구 홍제동 463번지 문화촌 현대아파트 내,195469.809626133,454441.811922527,126.94660310235467,37.59227670029207
325,집단급식소,영업/정상,서울특별시 서대문구 대신동 84-4번지,195004.700094128,451335.418751983,126.9413581936214,37.56428608611536
326,집단급식소,영업/정상,서울특별시 서대문구 천연동 117-3 (1층),196318.858270828,451753.45041503,126.95623045887572,37.568058780484165
327,집단급식소,영업/정상,서울특별시 송파구 가락동 196-4번지 지상2층,211559.320923412,443448.807996589,127.12860951846466,37.49317055679309
328,집단급식소,영업/정상,서울특별시 송파구 장지동 900-2번지 지상1층,212399.029223021,441717.837567406,127.13807579008345,37.47756371342817
329,집단급식소,영업/정상,서울특별시 송파구 가락동 196-13번지 지상1층,211548.847120713,443410.700351691,127.12849048823213,37.49282733808745
330,집단급식소,영업/정상,서울특별시 서초구 서초동 1321-15번지 삼성생명서초타워 3층,202210.515558775,443837.761530409,127.02289589993613,37.49674403589788
331,집단급식소,영업/정상,서울특별시 서초구 반포동 74-7번지 1층,199957.680853034,443918.658141279,126.99741997864855,37.49747540039264
332,집단급식소,영업/정상,서울특별시 영등포구 당산동4가 38-1 상성생명 당산사옥 18층,190811.867953425,447351.665282289,126.8939515429562,37.52836030532929
333,집단급식소,영업/정상,서울특별시 영등포구 여의도동 23-5번지,193119.936048189,446862.620888068,126.92006765378564,37.52397430048188
334,집단급식소,영업/정상,서울특별시 영등포구 영등포동6가 26-8 한남교회1층,191376.731989174,446739.945040687,126.9003491546663,37.522854236547865
335,집단급식소,영업/정상,서울특별시 영등포구 양평동1가 13-25번지,190099.9520614,446583.473277634,126.8859079600678,37.52143153542331
336,집단급식소,영업/정상,서울특별시 영등포구 당산동1가 407번지,190890.174020668,446737.601950944,126.89484509394659,37.52282841755359
337,집단급식소,영업/정상,서울특별시 송파구 방이동 220-0번지,210695.615824429,445213.071368544,127.11886838745963,37.50907685162104
338,집단급식소,영업/정상,서울특별시 송파구 가락동 43번지,210654.332394797,444284.82625468,127.11838810328632,37.50071387402115
339,집단급식소,영업/정상,서울특별시 송파구 문정동 150-2 지하2층,210343.699256005,443288.284974717,127.11486125119131,37.491738570839466
340,집단급식소,영업/정상,서울특별시 송파구 삼전동 38-5,207548.241064687,444350.320337161,127.08326209867188,37.501334361016966
341,집단급식소,영업/정상,서울특별시 송파구 문정동 516 가든파이브,210986.460698452,441725.293491662,127.12210616263066,37.477648658587796
342,집단급식소,영업/정상,서울특별시 송파구 오금동 44번지 현대2차아파트단지 내,211048.29631737,444742.809208914,127.12285025851922,37.504835682725044
343,집단급식소,영업/정상,서울특별시 송파구 마천동 173-19번지,213399.019757576,443989.886025307,127.14942227577475,37.4980209317045
344,집단급식소,영업/정상,서울특별시 송파구 송파동 122-5번지,210006.751881404,444675.92227283,127.11106992795315,37.50424483314128
345,집단급식소,영업/정상,서울특별시 송파구 장지동 843-2번지 3층,211401.573300872,441829.844934007,127.12680081629728,37.47858566961242
346,집단급식소,영업/정상,서울특별시 송파구 거여동 251-30번지,212873.007431569,443280.663962501,127.14346150699907,37.49163830706194
347,집단급식소,영업/정상,서울특별시 송파구 가락동 181-22번지,211905.62647055,443595.267982095,127.13252783173508,37.494485784132806
348,집단급식소,영업/정상,서울특별시 영등포구 영등포동6가 8-3번지 10층 새길병원,191506.148858786,446609.211364301,126.90181467929327,37.52167754298335
349,집단급식소,영업/정상,서울특별시 영등포구 영등포동8가 68번지 5층,191565.593190076,447346.655796394,126.90247859474994,37.528322419510204
350,집단급식소,영업/정상,서울특별시 영등포구 당산동3가 560 1층 D동,190591.147690249,447361.75201799,126.89145437583821,37.52844894667743
351,집단급식소,영업/정상,서울특별시 영등포구 여의도동 17-7 아시아원빌딩,192647.127899308,447216.477305963,126.91471545224499,37.527158846472545
352,집단급식소,영업/정상,서울특별시 송파구 문정동 634 가든파이브라이프,210986.460698452,441725.293491662,127.12210616263066,37.477648658587796
353,집단급식소,영업/정상,서울특별시 송파구 마천동 211-86번지 지상1층,213762.934060322,443414.259368919,127.1535269006404,37.492829232936906
354,집단급식소,영업/정상,서울특별시 서초구 방배동 789-22번지 (지상1층),198685.123013501,443314.850691172,126.98303040293317,37.49203407475835
355,집단급식소,영업/정상,서울특별시 서초구 방배동 750-14 지1층,198701.89443902,444014.247273547,126.9832187542721,37.49833565909622
356,집단급식소,영업/정상,서울특별시 서대문구 창천동 98-3번지 서대문우체국 4층,193935.093730738,450950.797605595,126.9292549893027,37.56081420108779
357,집단급식소,영업/정상,서울특별시 서대문구 냉천동 31-2번지 종합관(지하1층),196617.31502341,451735.606023947,126.95960881897798,37.56789916945875
358,집단급식소,영업/정상,서울특별시 영등포구 대림동 681번지 메디컬빌딩 지하1층,191029.590652458,444340.940285174,126.89645165471535,37.50123598025613
359,집단급식소,영업/정상,서울특별시 송파구 신천동 7-16번지 국민연금본부회관 1층,208851.007809422,445928.490511145,127.09801401046656,37.51554213964874
360,집단급식소,영업/정상,서울특별시 송파구 송파동 168-0번지,210393.862781567,444449.027269995,127.11544476902223,37.502196269095286
361,집단급식소,영업/정상,서울특별시 송파구 오금동 7-3번지,211547.349207187,445150.768574662,127.1285007002084,37.50850530824103
362,집단급식소,영업/정상,서울특별시 송파구 잠실동 22-1번지,207693.782092778,445959.517356556,127.08492471934927,37.51583197822607
363,집단급식소,영업/정상,서울특별시 송파구 방이동 89-7번지,212198.033236902,445990.309773174,127.13587386555592,37.51606120660437
364,집단급식소,영업/정상,서울특별시 송파구 방이동 53-0번지,209922.350075269,445815.210482181,127.11013065374354,37.51451067488889
365,집단급식소,영업/정상,서울특별시 송파구 신천동 7-1번지,208711.115757039,446128.591726278,127.09643401648314,37.51734636223761
366,집단급식소,영업/정상,서울특별시 송파구 풍납동 388-16번지,209871.439786149,447010.733212658,127.10957075170002,37.525282805567116
367,집단급식소,영업/정상,서울특별시 송파구 가락동 106-3번지,210797.78446015,443183.176244439,127.11999433300045,37.49078638016987
368,집단급식소,영업/정상,서울특별시 송파구 잠실동 115-0번지,206642.002868096,444778.530389295,127.07301722284687,37.505199420663715
369,집단급식소,영업/정상,서울특별시 영등포구 영등포동7가 47-2 8층,191517.787991776,446842.110106091,126.90194363503112,37.52377605441132
370,집단급식소,영업/정상,서울특별시 영등포구 영등포동4가 153-1번지 지하2층,191256.017169752,446425.984842846,126.8989873537582,37.52002432966863
371,집단급식소,영업/정상,서울특별시 영등포구 당산동4가 88번지,190773.521720995,447654.109730816,126.89351390339199,37.53108492229302
372,집단급식소,영업/정상,서울특별시 서대문구 남가좌동 102-3번지 가자연세병원 5층,192562.973370487,451852.14962353,126.91371605423414,37.5689251270044
373,집단급식소,영업/정상,서울특별시 서대문구 북가좌동 323-1 서부운수(1층),191948.846964815,453270.051694799,126.90674889919714,37.5816950219957
374,집단급식소,영업/정상,서울특별시 송파구 잠실동 40-1번지 롯데월드 지하2층,208589.363343145,445455.90405262,127.09504902014581,37.51128661020394
375,집단급식소,영업/정상,서울특별시 송파구 잠실동 40-1 롯데마트 지하1층,208589.363343145,445455.90405262,127.09504902014581,37.51128661020394
376,집단급식소,영업/정상,서울특별시 송파구 잠실동 40-1 롯데백화점12층,208589.363343145,445455.90405262,127.09504902014581,37.51128661020394
377,집단급식소,영업/정상,서울특별시 송파구 장지동 862-1번지,211987.885490448,442097.385121316,127.13343376496618,37.48098882894633
378,집단급식소,영업/정상,서울특별시 송파구 마천동 330-13번지,213849.167654264,443152.326080023,127.15449710441885,37.49046794007924
379,집단급식소,영업/정상,서울특별시 서초구 양재동 25-3 지하1층,203142.0298026,442118.611122962,127.03342262967266,37.48125185212684
380,집단급식소,영업/정상,서울특별시 영등포구 신길동 4945번지 래미안프레비뉴,191810.315721141,444749.050812048,126.90527632849506,37.50492035030034
381,집단급식소,영업/정상,서울특별시 서대문구 미근동 36-1번지,196935.456301527,451205.717082167,126.96321215991304,37.563126066194464
382,집단급식소,영업/정상,서울특별시 서대문구 현저동 산 5-2번지,195821.656031925,452675.566639987,126.9505972185128,37.57636477569228
383,집단급식소,영업/정상,서울특별시 서대문구 창천동 30-33번지,194265.067639805,450433.691021245,126.9329937361326,37.556157262014786
384,집단급식소,영업/정상,서울특별시 송파구 거여동 251-23번지,212806.778747735,443265.332689578,127.14271235591485,37.49150108837736
385,집단급식소,영업/정상,서울특별시 송파구 오금동 616 송파레미니스,211904.209793597,445047.701342057,127.13253517873025,37.507572171225966
386,집단급식소,영업/정상,서울특별시 영등포구 양평동5가 119-0번지,190534.385123229,448775.455324573,126.89079387553933,37.54118571282287
387,집단급식소,영업/정상,서울특별시 영등포구 여의도동 14-33 나이스1사옥,192929.952917276,447337.921229767,126.91791386063991,37.52825527823215
388,집단급식소,영업/정상,서울특별시 서대문구 미근동 209번지 경찰청후생관 (지하1층),197062.989911966,451257.725174623,126.96465542391148,37.56359507746087
389,집단급식소,영업/정상,서울특별시 서대문구 연희동 168-6번지,194329.387020548,452987.377139973,126.93370169433936,37.5791660637521
390,집단급식소,영업/정상,서울특별시 서대문구 홍은동 305,193839.180907217,453270.635579135,126.92814975170756,37.58171499921319
391,집단급식소,영업/정상,서울특별시 서대문구 신촌동 134 심혈관센터지하1층,194584.959249312,451381.585492051,126.9366069810422,37.564699643057445
392,집단급식소,영업/정상,서울특별시 서대문구 신촌동 134,194584.959249312,451381.585492051,126.9366069810422,37.564699643057445
393,집단급식소,영업/정상,서울특별시 서대문구 충정로3가 368-2번지,196676.681208137,450822.9621486,126.96028500651703,37.559676571067506
394,집단급식소,영업/정상,서울특별시 송파구 장지동 894,212494.327675839,441590.062253247,127.13915102692584,37.47641118196037
395,집단급식소,영업/정상,서울특별시 송파구 신천동 29,209074.900840074,445657.80932984,127.10054319254533,37.51310115736578
396,집단급식소,영업/정상,서울특별시 서초구 서초동 1449-9번지 지하1층,201352.259662482,442187.637570667,127.01318753083049,37.48187800789528
397,집단급식소,영업/정상,서울특별시 서초구 서초동 380 지하1층,202129.928922792,442217.156154505,127.02198004966208,37.4821425600656
398,집단급식소,영업/정상,서울특별시 서초구 우면동 63 우면종합사회복지관 2층,202072.94919822,440890.331828961,127.02133220975661,37.470187967175235
399,집단급식소,영업/정상,서울특별시 서초구 반포동 30-19,201395.851786408,444417.909508038,127.0136844228595,37.50197269570603
400,집단급식소,영업/정상,"서울특별시 서초구 반포동 753 세화고,세화여고,세화여중",199201.678832313,444381.100448662,126.9888701956409,37.50164160349137
401,집단급식소,영업/정상,서울특별시 서초구 잠원동 66-1번지,200753.048812157,445423.823603612,127.00641579778734,37.511036662048085
402,집단급식소,영업/정상,서울특별시 서초구 서초동 1376-4번지,202826.387370795,442300.779998552,127.02985464592037,37.48289419326909
403,집단급식소,영업/정상,서울특별시 서초구 반포동 112-4,199371.371382654,443987.021242832,126.99078963972336,37.498091097583774
404,집단급식소,영업/정상,서울특별시 서초구 양재동 341-8번지 (지하1층),203882.434951231,440772.831669869,127.04178670797896,37.469123586214224
405,집단급식소,영업/정상,서울특별시 서초구 반포동 3-1번지,199588.814748805,444830.276937602,126.99324807107942,37.50568895595903
406,집단급식소,영업/정상,서울특별시 서초구 방배동 974-22번지,199081.990657225,442071.037015618,126.98751970987469,37.48082781039981
407,집단급식소,영업/정상,서울특별시 서초구 우면동 16-0번지,202312.132971726,440889.827977598,127.02403603177052,37.47018287698456
408,집단급식소,영업/정상,서울특별시 서초구 방배동 산 82-0번지,199279.836071668,441567.763847801,126.98975708207742,37.47629349794274
409,집단급식소,영업/정상,서울특별시 서초구 방배동 981-56번지,199726.804748352,442051.507354633,126.99480997433504,37.480652308120355
410,집단급식소,영업/정상,서울특별시 서초구 서초동 1634-1 석문유치원,201857.05527262,443389.644062313,127.01889774589931,37.49270725314847
411,집단급식소,영업/정상,서울특별시 서초구 양재동 7-41번지 선화빌딩 1층,203512.608253645,442322.761195191,127.03761336091716,37.48308993881258
412,집단급식소,영업/정상,서울특별시 송파구 삼전동 172번지 삼전종합사회복지관,208326.213053964,444106.176463815,127.09205748808776,37.49912800003723
413,집단급식소,영업/정상,서울특별시 영등포구 신길동 402-34번지 3층,191400.275293262,444360.708446236,126.9006435092086,37.5014176420495
414,집단급식소,영업/정상,서울특별시 영등포구 문래동3가 54-54번지 지하2층,190968.870784784,445750.399305962,126.89574754634332,37.51393455534725
415,집단급식소,영업/정상,서울특별시 서대문구 냉천동 31번지,196602.387940718,451683.338400967,126.95944010417081,37.56742818841667
416,집단급식소,영업/정상,서울특별시 서대문구 신촌동 134,194584.959249312,451381.585492051,126.9366069810422,37.564699643057445
417,집단급식소,영업/정상,서울특별시 서대문구 신촌동 134 한경관,194584.959249312,451381.585492051,126.9366069810422,37.564699643057445
418,집단급식소,영업/정상,서울특별시 서대문구 홍제동 234-2번지,195146.999777053,454066.897623623,126.94295050324324,37.58889711340985
419,집단급식소,영업/정상,서울특별시 서대문구 연희동 131-1번지 (주)사러가쇼핑센터,193716.339877929,451653.563671802,126.92677304219525,37.56714455975785
420,집단급식소,영업/정상,서울특별시 송파구 송파동 135-3번지,209831.135259298,445251.270608881,127.10909143129243,37.509430572710414
421,집단급식소,영업/정상,서울특별시 송파구 문정동 649번지,210361.418991091,442283.904505626,127.11504757545589,37.482688916668025
422,집단급식소,영업/정상,서울특별시 송파구 장지동 883번지,212529.597827948,441939.837915418,127.13955568364331,37.47956218388133
423,집단급식소,영업/정상,서울특별시 송파구 장지동 885번지,212832.48341721,442053.399321249,127.14298200206231,37.48058123723734
424,집단급식소,영업/정상,서울특별시 영등포구 여의도동 36-3번지,193555.404623589,446518.232651645,126.92499693157083,37.52087455500824
425,집단급식소,영업/정상,서울특별시 영등포구 여의도동 62-0번지,194324.398950764,446208.114169683,126.9336982254776,37.51808550467609
426,집단급식소,영업/정상,서울특별시 영등포구 당산동3가 393-2,190781.619596162,447254.543042119,126.8936105660087,37.52748493704223
427,집단급식소,영업/정상,서울특별시 영등포구 신길동 176번지,192451.279454545,445734.869714454,126.91251516894994,37.51380804767439
428,집단급식소,영업/정상,"서울특별시 서초구 서초동 1322번지 ,1호, 2호, 17호 2층",201954.551,443786.7605,127.02000122482235,37.49628507615807
429,집단급식소,영업/정상,서울특별시 서초구 잠원동 42-1번지 1층,201509.533643472,445439.217231451,127.01497207613889,37.51117448411347
430,집단급식소,영업/정상,서울특별시 서초구 반포동 107-87번지 지하1층,199642.197200104,443870.373829227,126.99385236270832,37.49704026885099
431,집단급식소,영업/정상,서울특별시 서초구 방배동 2877 지하1층,198938.876587804,440412.052573413,126.98590419840939,37.46588015046996
432,집단급식소,영업/정상,서울특별시 서초구 서초동 1602-8번지 21세기병원 12층,201322.30487951,442566.64109412,127.01284950522043,37.4852928756659
433,집단급식소,영업/정상,서울특별시 서초구 양재동 345-4번지 3층,203797.168574676,440693.311634096,127.04082243584149,37.46840745615601
434,집단급식소,영업/정상,서울특별시 서초구 방배동 1000-1,200309.027220146,441944.691522563,127.00139251939119,37.47968992474536
435,집단급식소,영업/정상,서울특별시 서초구 서초동 1753-0번지,200854.339746219,441718.211042903,127.00755747581393,37.47764902581657
436,집단급식소,영업/정상,서울특별시 서초구 내곡동 120번지,205372.956554065,439086.208098231,127.05862373845231,37.45391968199216
437,집단급식소,영업/정상,서울특별시 서초구 서초동 1526-1,200437.778720876,442422.597748231,127.00284840159796,37.48399582419131
438,집단급식소,영업/정상,서울특별시 서초구 서초동 1687번지,201545.503195417,443788.298282562,127.01537558865472,37.49629967790508
439,집단급식소,영업/정상,서울특별시 서초구 서초동 1656-4 서초동롯데캐슬메디치 1층 106호,201213.653404672,443265.664377177,127.01162211171344,37.49159122055986
440,집단급식소,영업/정상,서울특별시 송파구 장지동 885,212832.48341721,442053.399321249,127.14298200206231,37.48058123723734
441,집단급식소,영업/정상,서울특별시 송파구 문정동 618번지,210868.397496689,442053.227933005,127.120776211014,37.48060473499756
442,집단급식소,영업/정상,서울특별시 영등포구 당산동1가 223-18번지 지상1층,190955.100340201,446764.349562052,126.89557922826965,37.52307005490796
443,집단급식소,영업/정상,서울특별시 서초구 서초동 1730-1번지,200351.965571084,443490.358949882,127.0018785759604,37.49361638843766
444,집단급식소,영업/정상,"서울특별시 서초구 서초동 967 대법원 청사 서관 2, 3층",200403.913823457,443343.497359744,127.00246593426836,37.49229314810982
445,집단급식소,영업/정상,서울특별시 서초구 양재동 324-2번지 6층,203592.454310735,440878.155313163,127.03850920864176,37.47007370741829
446,집단급식소,영업/정상,서울특별시 서초구 방배동 458-38번지,198730.335370133,442108.687921464,126.98354383399383,37.481166605115874
447,집단급식소,영업/정상,서울특별시 서초구 서초동 1642-15번지 지하1층,201527.160531756,443286.530305,127.01516716705868,37.49177877944271
448,집단급식소,영업/정상,서울특별시 서대문구 연희동 301-1번지,193942.401874772,451563.925380472,126.92933258697904,37.566338459213256
449,집단급식소,영업/정상,서울특별시 서대문구 홍제동 312-128번지,194864.904617018,453875.164285389,126.93975789772219,37.587168075580216
450,집단급식소,영업/정상,서울특별시 서초구 방배동 1344 방배1차 현대아파트 단지내 상가 B동 201호,198506.458385404,442915.881978231,126.98101096657724,37.488439081856505
451,집단급식소,영업/정상,서울특별시 서초구 방배동 530-55번지 3층,198965.607648441,441626.995503798,126.98620454803748,37.476826856543575
452,집단급식소,영업/정상,서울특별시 서초구 반포동 703-1 지하1층,201563.645494653,445309.264571096,127.01558384636981,37.51000352814219
453,집단급식소,영업/정상,서울특별시 영등포구 대림동 783-1번지 대림프라자 지상4층,190757.023090843,444484.398134559,126.8933673635368,37.50252582491949
454,집단급식소,영업/정상,서울특별시 영등포구 신길동 232-50번지 지하1층,192032.408943076,445046.907137045,126.90778486189946,37.50760598387578
455,집단급식소,영업/정상,서울특별시 송파구 신천동 7-18 롯데캐슬 3층,208836.192051204,445807.727388799,127.09784498609747,37.51445421068647
456,집단급식소,영업/정상,서울특별시 송파구 잠실동 305 앙시레이크타워,206846.894973257,444796.674620562,127.07533464704463,37.50536141774217
457,집단급식소,영업/정상,서울특별시 송파구 가락동 159-5번지 뉴스타트병원 지하2층,210483.279968192,444123.202544922,127.11645139119346,37.49925959458419
458,집단급식소,영업/정상,서울특별시 송파구 거여동 178-123번지 1층,212628.593180708,443707.944430212,127.14070506655158,37.49549144693548
459,집단급식소,영업/정상,서울특별시 송파구 장지동 834-1번지,211697.635160511,442622.145235695,127.13016048987957,37.48572061049413
460,집단급식소,영업/정상,서울특별시 서대문구 북가좌동 324-19번지 1층 예일어린이집,191977.175086576,453322.649668614,126.90706902721756,37.58216917101423
461,집단급식소,영업/정상,서울특별시 서대문구 남가좌동 124-1번지 DMC 파크뷰자이 1단지내,192672.067512964,452221.960661496,126.91494719276076,37.572257957742416
462,집단급식소,영업/정상,서울특별시 서대문구 홍은동 368-7번지 5층,193422.545073986,453356.334097553,126.92343215396544,37.58248422004187
463,집단급식소,영업/정상,서울특별시 서대문구 남가좌동 164-1번지,192672.067512964,452221.960661496,126.91494719276076,37.572257957742416
464,집단급식소,영업/정상,서울특별시 송파구 잠실동 22번지 (250동 1층),207750.499013776,445762.808120998,127.08556420257352,37.51405916653837
465,집단급식소,영업/정상,서울특별시 송파구 석촌동 291-4번지,209416.621949298,444545.08867886,127.10439419605272,37.50307219075641
466,집단급식소,영업/정상,서울특별시 송파구 장지동 204-7번지,211235.828577867,442035.120897497,127.12493008297055,37.480437223273576
467,집단급식소,영업/정상,서울특별시 송파구 오금동 47-6번지,211298.942651104,444599.649150442,127.1256827756714,37.50354280161363
468,집단급식소,영업/정상,서울특별시 송파구 잠실동 19번지 생활지원센터1층,207125.178244289,445763.360184076,127.0784912172043,37.51406913441346
469,집단급식소,영업/정상,"서울특별시 서초구 반포동 98-2번지 ,3호 지하 1층",199746.802225334,443751.560159668,126.99503533194076,37.49596980040047
470,집단급식소,영업/정상,서울특별시 서초구 반포동 6-1 체육관동 1층,199642.479796764,444712.567608506,126.99385507568259,37.504628423374164
471,집단급식소,영업/정상,서울특별시 서초구 서초동 1724번지 서울중앙지방검찰청.서울고등검찰청,200660.852136343,443653.791242069,127.00537156920532,37.49508876498473
472,집단급식소,영업/정상,서울특별시 영등포구 여의도동 45-2번지 지하1층,193532.84760291,446316.283253168,126.92474356031131,37.51905484184933
473,집단급식소,영업/정상,서울특별시 영등포구 영등포동2가 94-151번지 흥국생명빌딩 지하1층,192275.748653266,446540.337167547,126.91052121927063,37.521063805049
474,집단급식소,영업/정상,서울특별시 영등포구 신길동 4003 지상1층,192437.491879911,444143.990885591,126.91237570996509,37.499474168240646
475,집단급식소,영업/정상,서울특별시 영등포구 대림동 782-3 지하2층,190828.040487341,444275.786198925,126.89417313396274,37.50064695052755
476,집단급식소,영업/정상,서울특별시 송파구 오금동 50-3번지 지하1층,211235.630172212,444498.780331067,127.12496521965086,37.50263474538129
477,집단급식소,영업/정상,서울특별시 송파구 문정동 292번지 가든파이브 S-13호,210480.282018702,441833.16323518,127.11638509603343,37.4786264066986
478,집단급식소,영업/정상,서울특별시 송파구 방이동 45-4번지 지하1층,210095.686753096,446010.92433938,127.1120939410403,37.516272179276086
479,집단급식소,영업/정상,서울특별시 서대문구 현저동 204번지 1층,196278.446575915,452231.291504227,126.95577056623014,37.57236390477962
480,집단급식소,영업/정상,서울특별시 서대문구 대현동 11-1번지 이화여자대학교(201동) A동 B275호,195287.766418517,451143.789306014,126.94456334867799,37.562561037248926
481,집단급식소,영업/정상,서울특별시 영등포구 영등포동4가 442 타임스퀘어,191385.057392247,446098.555926507,126.9004509054287,37.517075435258
482,집단급식소,영업/정상,서울특별시 송파구 오금동 91,211883.497897606,444946.358326391,127.13229929951412,37.50665934077985
483,집단급식소,영업/정상,서울특별시 송파구 장지동 847-1,211561.396832825,442131.723666301,127.12861243062827,37.481303621827365
484,집단급식소,영업/정상,서울특별시 송파구 장지동 86번지,211735.079601952,442532.841715028,127.13058244740272,37.484915514904905
485,집단급식소,영업/정상,서울특별시 송파구 송파동 20-8번지 지하1층,209641.102325061,445051.638159851,127.10693950822197,37.50763388291039
486,집단급식소,영업/정상,서울특별시 송파구 삼전동 9-1번지,207894.079867781,444666.335235858,127.08717657239914,37.50417877996583
487,집단급식소,영업/정상,서울특별시 서초구 우면동 17번지 1층,202497.519150037,441019.955686197,127.02613213644848,37.4713548625287
488,집단급식소,영업/정상,서울특별시 서초구 방배동 1027-6 (지하1층),199953.200021766,441388.201908118,126.99736968888526,37.47467596643095
489,집단급식소,영업/정상,서울특별시 서초구 방배동 1020-10번지 2층,199973.546463578,441889.356448177,126.99759964480748,37.479191382609145
490,집단급식소,영업/정상,서울특별시 서초구 양재동 202-0,202833.261653939,440511.561175378,127.0299256452719,37.46677326634921
491,집단급식소,영업/정상,서울특별시 서초구 서초동 1645,201836.199766856,443284.171448529,127.01866166280155,37.49175698522736
492,집단급식소,영업/정상,서울특별시 서초구 서초동 1336-1번지,202435.530279532,443148.83951752,127.02543823261955,37.49053630088291
493,집단급식소,영업/정상,서울특별시 서초구 반포동 4-10번지 신반포교회,199549.137427706,444758.905933595,126.99279938133084,37.505045883409124
494,집단급식소,영업/정상,서울특별시 영등포구 대림동 651-5 한국상하수도협회,190819.186098887,444483.776045996,126.89407038723343,37.502520844204994
495,집단급식소,영업/정상,서울특별시 영등포구 영등포동7가 145-8번지 아크로타워 스퀘어 1층,191687.492947271,446910.540802457,126.90386263269166,37.52439416658211
496,집단급식소,영업/정상,서울특별시 서대문구 북아현동 129-37번지 지하1층,196133.72870894,450801.203483362,126.9541400519122,37.55947837240465
497,집단급식소,영업/정상,서울특별시 서대문구 북아현동 1011번지 아현역푸르지오아파트 103동,195698.781279511,450882.103642965,126.9492169012571,37.56020531676153
498,집단급식소,영업/정상,서울특별시 서대문구 홍제동 356-13 1층,194547.711146311,453565.791702506,126.93616895029241,37.58437882931226
499,집단급식소,영업/정상,서울특별시 영등포구 여의도동 1번지,192450.93552236,447649.476828035,126.91249145084879,37.531058545204864
500,집단급식소,영업/정상,서울특별시 송파구 장지동 879번지,212325.39591829,441898.492187301,127.13724633841542,37.479192390083746
501,집단급식소,영업/정상,서울특별시 송파구 장지동 900번지,212369.596416275,441769.940860857,127.13774390898071,37.47803355608737
502,집단급식소,영업/정상,서울특별시 서초구 반포동 22,201181.035725764,444856.173185992,127.01125569712386,37.50592172794743
503,집단급식소,영업/정상,서울특별시 서초구 반포동 21번지,201061.99183199,444860.5839543,127.0099093448388,37.50596160513721
504,집단급식소,영업/정상,서울특별시 서초구 방배동 832-1번지,198913.423975016,443060.02898608,126.98561235292507,37.48973844340845
505,집단급식소,영업/정상,서울특별시 서초구 잠원동 65-32번지 한신빌딩,200628.43767533,445580.594039349,127.00500649936689,37.51244924342233
506,집단급식소,영업/정상,서울특별시 송파구 문정동 618번지,210868.397496689,442053.227933005,127.120776211014,37.48060473499756
507,집단급식소,영업/정상,서울특별시 송파구 삼전동 172-1번지,208401.785800538,444028.984956377,127.09291124501397,37.49843182732273
508,집단급식소,영업/정상,서울특별시 송파구 문정동 73-4번지,211098.869127375,442071.906404827,127.12338218480019,37.48077030556824
509,집단급식소,영업/정상,서울특별시 영등포구 양평동3가 8-2번지 영은교회 1층,190213.972631083,447008.789545015,126.88719207107273,37.52526483088507
510,집단급식소,영업/정상,서울특별시 영등포구 여의도동 35-3번지 한국교직원공제회관 지하2층,193355.41069668,446624.555308989,126.92273362804762,37.52183108456729
511,집단급식소,영업/정상,서울특별시 서초구 방배동 630번지,199693.06999443,441141.610110838,126.99442902912591,37.47245409954464
512,집단급식소,영업/정상,서울특별시 서초구 반포동 936번지,199237.756350283,444537.711472704,126.98927802463096,37.503052699277674
513,집단급식소,영업/정상,서울특별시 서초구 방배동 580번지 1층,199162.033627543,441005.314835108,126.98842597901992,37.47122570926868
514,집단급식소,영업/정상,서울특별시 서초구 서초동 1467-80,200642.013992918,441879.687320882,127.00515715329477,37.47910408750728
515,집단급식소,영업/정상,서울특별시 서초구 방배동 455-11,198409.996182267,442068.434670067,126.97992215959711,37.48080340489103
516,집단급식소,영업/정상,서울특별시 송파구 방이동 114-3번지,209993.650236547,445282.210026105,127.11092993744595,37.50970760237484
517,집단급식소,영업/정상,서울특별시 송파구 장지동 884번지 위례2차아이파크,212641.295329373,441934.252100339,127.14081841293847,37.479510342842765
518,집단급식소,영업/정상,서울특별시 송파구 석촌동 289-2번지 지상2층,209430.559957998,444600.947923519,127.10455253637113,37.50357533949538
519,집단급식소,영업/정상,서울특별시 송파구 마천동 127-1번지,213070.166253022,443869.19021877,127.14570129197632,37.49693815524342
520,집단급식소,영업/정상,서울특별시 서초구 서초동 1376-3번지,202812.372648119,442394.983839527,127.0296965428576,37.483743012778845
521,집단급식소,영업/정상,서울특별시 서초구 방배동 996-3번지,200213.426279742,441858.454026558,127.00031165594754,37.47891294359928
522,집단급식소,영업/정상,서울특별시 서초구 양재동 60 (지하 1층),203215.475744007,441707.758092644,127.03425125525965,37.47754981163296
523,집단급식소,영업/정상,서울특별시 서초구 염곡동 300-1번지,203988.350614408,440490.033216173,127.04298249591595,37.46657511905163
524,집단급식소,영업/정상,서울특별시 영등포구 영등포동 423-113번지,191537.897020366,445939.74349893,126.90218158153661,37.51564596757131
525,집단급식소,영업/정상,서울특별시 송파구 문정동 650번지 서울동부지방법원 민원동,210512.374191828,442371.025037035,127.11675554654308,37.483472178229825
526,집단급식소,영업/정상,서울특별시 송파구 가락동 16 가락본동어린이집,210950.487457332,444317.180373534,127.12173778546497,37.5010019408576
527,집단급식소,영업/정상,서울특별시 송파구 삼전동 71-23,208160.472093383,444194.951799661,127.09018414577116,37.499929331197116
528,집단급식소,영업/정상,서울특별시 송파구 풍납동 501 영파여자중·고등학교,210553.924909419,447810.71845683,127.1173028936011,37.532483107492176
529,집단급식소,영업/정상,서울특별시 서초구 잠원동 54-5번지,200979.675336218,446079.302435952,127.00897988079338,37.51694230719701
530,집단급식소,영업/정상,서울특별시 서초구 방배동 산 81-1번지,199065.51872113,441572.638003744,126.98733415411458,37.47633720752674
531,집단급식소,영업/정상,서울특별시 서초구 방배동 771번지,198992.653935256,443766.41487155,126.98650720347773,37.49610307427819
532,집단급식소,영업/정상,서울특별시 서초구 서초동 1324-14번지,201993.714242549,443438.041140726,127.02044318094543,37.49314303547363
533,집단급식소,영업/정상,서울특별시 서초구 방배동 468-6번지,198569.723966274,441772.579240977,126.98172863831425,37.478138013981834
534,집단급식소,영업/정상,서울특별시 서초구 우면동 58-0번지 1층,202097.480440689,441085.885363478,127.02161005964334,37.47194985705083
535,집단급식소,영업/정상,서울특별시 서초구 방배동 2724,198836.324746887,440753.993971457,126.98474441061464,37.46896092478127
536,집단급식소,영업/정상,서울특별시 서초구 서초동 1708-2 5층,200631.284770954,443519.989620769,127.00503711455133,37.493883231523725
537,집단급식소,영업/정상,서울특별시 서초구 방배동 1020-3번지 지하1층,199998.557774842,441829.675082317,126.99788242136246,37.478653654425756
538,집단급식소,영업/정상,서울특별시 서초구 염곡동 300-11번지 9층 도로교통공단 서울지부,203853.910379812,440405.05864823,127.04146236942002,37.46581005567792
539,집단급식소,영업/정상,서울특별시 서초구 염곡동 300-9번지 KOTRA 11층,203881.968015816,440338.979311081,127.0417791827731,37.46521456294035
540,집단급식소,영업/정상,서울특별시 서초구 서초동 380-4,202113.765739578,442177.82150925,127.02179719640115,37.48178819031413
541,집단급식소,영업/정상,서울특별시 영등포구 신길동 4916-14번지 신길에덴유치원,192269.186871885,444823.996844948,126.91046518286889,37.50559959855134
542,집단급식소,영업/정상,서울특별시 영등포구 문래동3가 48-3번지 서울특별시남부교육지원청 5층급식실,190692.152587176,446349.728676329,126.89260996145082,37.51933171335589
543,집단급식소,영업/정상,서울특별시 영등포구 여의도동 28-1번지 전경련회관 타워동 지하2층,192880.946054063,446664.78738442,126.91736601822458,37.52219000280939
544,집단급식소,영업/정상,서울특별시 영등포구 여의도동 23-5번지 지상2층,193119.936048189,446862.620888068,126.92006765378564,37.52397430048188
545,집단급식소,영업/정상,서울특별시 영등포구 영등포동2가 94-267 지하1층,192259.189547919,446458.11007971,126.91033477501917,37.52032280365225
546,집단급식소,영업/정상,서울특별시 송파구 잠실동 251번지 지상7층,207797.570118155,444869.704228916,127.08608723399675,37.50601194147103
547,집단급식소,영업/정상,서울특별시 송파구 석촌동 265번지 석촌동주민센터1층,209096.596590218,444602.696271102,127.10077563535775,37.50359441822242
548,집단급식소,영업/정상,서울특별시 서초구 방배동 1001-1번지 주식회사 케이티 방배빌딩 5층,200214.828933969,442206.118999192,127.00032758497811,37.48204541089658
549,집단급식소,영업/정상,서울특별시 서초구 반포동 30-26번지 반포리체APT 121동 2층,201108.296299953,444617.012355351,127.01043269211304,37.50376697873193
550,집단급식소,영업/정상,서울특별시 서초구 양재동 249-12 지하 1 층,203437.040031275,441237.209138558,127.03675399308624,37.47330937276094
551,집단급식소,영업/정상,서울특별시 서초구 잠원동 24-11번지 (지하1층),201396.966741779,445726.033883873,127.0136994015787,37.5137588623332
552,집단급식소,영업/정상,서울특별시 서초구 양재동 215번지 지하1층,203204.755637424,440136.781183797,127.0341233654835,37.46339529692584
553,집단급식소,영업/정상,서울특별시 서초구 반포동 3-1,199588.814748805,444830.276937602,126.99324807107942,37.50568895595903
554,집단급식소,영업/정상,서울특별시 서초구 반포동 5-1번지,199525.426404428,444661.964008125,126.99253128939968,37.504172425024414
555,집단급식소,영업/정상,서울특별시 서초구 양재동 20-7번지 샤론의꽃빌딩 7층,203350.547009323,441971.940635973,127.03577947974254,37.479929630970126
556,집단급식소,영업/정상,서울특별시 서초구 방배동 797-18 4층,199307.054188364,443513.127466343,126.99006279093088,37.49382126716179
557,집단급식소,영업/정상,서울특별시 서초구 반포동 59-6번지 4층,200735.529540077,444629.80563119,127.00621692106913,37.50388259201174
558,집단급식소,영업/정상,서울특별시 서초구 방배동 3274 1층,198533.665294785,441398.027904348,126.9813217523425,37.47476323869998
559,집단급식소,영업/정상,서울특별시 서초구 서초동 1701-1번지 서울법원종합청사 별관 지상1층,200939.262819649,443867.172593905,127.00852012695745,37.49701110789055
560,집단급식소,영업/정상,서울특별시 서초구 우면동 17번지 1층,202497.519150037,441019.955686197,127.02613213644848,37.4713548625287
561,집단급식소,영업/정상,서울특별시 서초구 방배동 990-1번지,200029.945029612,442237.162443745,126.99823725578831,37.48232512441809
562,집단급식소,영업/정상,서울특별시 서초구 서초동 1701-1번지,200939.262819649,443867.172593905,127.00852012695745,37.49701110789055
563,집단급식소,영업/정상,서울특별시 서초구 서초동 1376-1 지하1층(국립외교원 자리),202580.221804279,442263.054640635,127.02707129766179,37.48255499011506
564,집단급식소,영업/정상,서울특별시 서초구 반포동 520-3번지 (지상1층),200194.426588429,444128.805256091,127.00009725250547,37.499368820798
565,집단급식소,영업/정상,서울특별시 서초구 서초동 1320-10,202305.084677949,443831.909375165,127.02396530550845,37.49669108349963
566,집단급식소,영업/정상,서울특별시 서초구 양재동 221번지,202986.506956552,439872.490917827,127.0316553760688,37.4610147451871
567,집단급식소,영업/정상,서울특별시 서초구 반포동 505 (본관 지하 1층),200394.225955905,444207.694481581,127.00235677399971,37.50007956203166
568,집단급식소,영업/정상,서울특별시 서초구 서초동 1724번지 서울검찰청사 2층,200660.852136343,443653.791242069,127.00537156920532,37.49508876498473
569,집단급식소,영업/정상,서울특별시 서초구 반포동 520-3번지 0000동 0000호,200194.426588429,444128.805256091,127.00009725250547,37.499368820798
570,집단급식소,영업/정상,서울특별시 서초구 서초동 1343-14 지하1층,202261.556917184,442817.050539215,127.02347004880431,37.48754731101922
571,집단급식소,영업/정상,서울특별시 서초구 잠원동 70-2 (지하 2층),200576.608647619,445241.8984183,127.0044200384162,37.50939763598007
572,집단급식소,영업/정상,서울특별시 서초구 방배동 935-34번지,199426.370808508,442619.495004961,126.99141279013321,37.485769725912625
573,집단급식소,영업/정상,서울특별시 서초구 양재동 24번지 (지하 1층),203028.520902327,442302.889340581,127.03214003476127,37.48291257234801
574,집단급식소,영업/정상,서울특별시 서초구 양재동 154-2번지 지상 2층,202535.840179252,441604.113261939,127.0265672977487,37.476618036183424
575,집단급식소,영업/정상,서울특별시 서초구 서초동 1449-9번지 1층,201352.259662482,442187.637570667,127.01318753083049,37.48187800789528
576,집단급식소,영업/정상,"서울특별시 서초구 잠원동 76-9번지 ,10 (지하1층)",200008.513977308,444962.228480541,126.99799474535465,37.50687795718847
577,집단급식소,영업/정상,서울특별시 서초구 서초동 1607-5 푸르니서초어린이집1층,202033.75477249,442807.856415957,127.02089426713663,37.48746498544133
578,집단급식소,영업/정상,서울특별시 서초구 양재동 311-1번지 1층,203651.985,440996.04,127.03918273869893,37.47113562301457
579,집단급식소,영업/정상,서울특별시 서초구 서초동 1657-1번지 6층,201178.653260998,443421.176493515,127.01122657937822,37.492992427484644
580,집단급식소,영업/정상,서울특별시 서초구 서초동 1726-1번지 서울서초경찰서,200402.433669711,443695.866339881,127.00244935895857,37.49546799210619
581,집단급식소,영업/정상,서울특별시 서초구 서초동 1650-0,201365.993970578,443108.405379513,127.01334444023345,37.49017411473635
582,집단급식소,영업/정상,서울특별시 서초구 서초동 1650번지,201365.993970578,443108.405379513,127.01334444023345,37.49017411473635
583,집단급식소,영업/정상,서울특별시 서초구 잠원동 60-5 (지상1층),200901.952850762,445303.313671337,127.00809984492295,37.50995074794855
584,집단급식소,영업/정상,서울특별시 서초구 서초동 1329-2 청남빌딩,202485.75,443550.69,127.02600741084255,37.49415684285917
585,집단급식소,영업/정상,서울특별시 서초구 서초동 1707-4번지 지하1층,200689.958967986,443498.80021218,127.0057005813157,37.493692277147176
586,집단급식소,영업/정상,서울특별시 서초구 우면동 769,201371.121762975,439325.24066639,127.01339571334593,37.45608768509929
587,집단급식소,영업/정상,서울특별시 서초구 반포동 586-1번지 1층,199794.20269109,443589.672964217,126.99557140825746,37.49451121267001
588,집단급식소,영업/정상,서울특별시 서초구 서초동 1301-4 지하1층,201737.068585815,444519.267486166,127.01754353116138,37.502885374523814
589,집단급식소,영업/정상,서울특별시 서초구 내곡동 1-1328 지하 1층(현관 출입구 옆),208072.625904312,439810.25559883,127.08914304267401,37.460423953368334
590,집단급식소,영업/정상,서울특별시 서초구 방배동 488-6,199356.275577675,441326.193173286,126.990621485516,37.474117001675516
591,집단급식소,영업/정상,서울특별시 서초구 방배동 481-7 (대항병원7층),198845.723006599,441498.018642363,126.9848494201993,37.475664621713555
592,집단급식소,영업/정상,서울특별시 서초구 서초동 1491-12 지하1층,200206.974574412,442359.438714324,127.00023881200279,37.48342682494341
593,집단급식소,영업/정상,서울특별시 서초구 반포동 53-6번지 2층,200892.454021012,444349.65983741,127.00799133629914,37.501358355675116
594,집단급식소,영업/정상,서울특별시 서초구 방배동 981-2번지,199586.977319344,442059.775153853,126.9932290864912,37.48072673951109
595,집단급식소,영업/정상,서울특별시 서초구 양재동 399-1번지,204273.643194339,441002.131475569,127.04621031927996,37.471187886521676
596,집단급식소,영업/정상,서울특별시 서초구 서초동 1657-7 지하1층,201209.167738304,443372.884959871,127.01157155630519,37.49255728353424
597,집단급식소,영업/정상,서울특별시 서초구 반포동 736-9,201943.524337491,444978.789098921,127.01987957578957,37.50702525784271
598,집단급식소,영업/정상,서울특별시 서초구 서초동 1685-1번지,201415.350899008,444255.553060024,127.01390464353888,37.500509838163985
599,집단급식소,영업/정상,서울특별시 서초구 방배동 861-1번지,198821.818461866,442774.005852729,126.98457702238973,37.48716125490654
600,집단급식소,영업/정상,서울특별시 서초구 방배동 2922-0,198922.658858898,440090.858662287,126.98572137491757,37.462986159964835
601,집단급식소,영업/정상,서울특별시 서초구 반포동 1-3번지,199660.860878724,445010.529013047,126.99406279438797,37.50731305740162
602,집단급식소,영업/정상,서울특별시 서초구 서초동 1466-5번지 서울신중초등학교,200794.432313347,441978.291302167,127.00688044999413,37.479992403430465
603,집단급식소,영업/정상,서울특별시 서초구 양재동 310-0번지,203848.497571774,441106.496067817,127.0414047857015,37.4721300520576
604,집단급식소,영업/정상,서울특별시 서초구 방배동 2727-0번지,198937.041055845,440816.953826443,126.9858828309166,37.469528323498615
605,집단급식소,영업/정상,서울특별시 서초구 방배동 167-4번지,199757.191698134,442570.765969471,126.99515331131758,37.485330845958124
606,집단급식소,영업/정상,서울특별시 서초구 반포동 19-3번지 (지하 1층),200250.447804795,444683.220506107,127.00073092406278,37.5043640841491
607,집단급식소,영업/정상,서울특별시 서초구 양재동 101-0번지,202757.450688155,441297.418298089,127.02907156006823,37.47385408806487
608,집단급식소,영업/정상,서울특별시 서초구 반포동 19-3 지하 2층,200250.447804795,444683.220506107,127.00073092406278,37.5043640841491
609,집단급식소,영업/정상,서울특별시 서초구 내곡동 1-1328번지,208072.625904312,439810.25559883,127.08914304267401,37.460423953368334
610,집단급식소,영업/정상,서울특별시 서초구 서초동 1436-8,201929.532153958,442510.761029059,127.01971507164566,37.48478836974348
611,집단급식소,영업/정상,서울특별시 서초구 양재동 231,203705.426304066,440222.152896766,127.03978304425665,37.464162664167496
612,집단급식소,영업/정상,서울특별시 서초구 방배동 1514-0,198612.513832321,442966.846711994,126.98221004850176,37.488898447035886
613,집단급식소,영업/정상,서울특별시 서초구 서초동 391번지 서울시 인재개발원 직장어린이집,201754.046058565,442005.576285919,127.01772976577374,37.48023698560481
614,집단급식소,영업/정상,서울특별시 서초구 서초동 1360-26번지,202705.315047584,442692.354091951,127.02848717115769,37.486422633639606
615,집단급식소,영업/정상,서울특별시 서초구 우면동 142번지 (지하1층),202470.473875627,440382.696169392,127.02582432148625,37.46561320269037
616,집단급식소,영업/정상,서울특별시 서초구 서초동 1313-0번지,201937.825370158,444082.050747399,127.01981283782355,37.49894567261085
617,집단급식소,영업/정상,서울특별시 서초구 방배동 765-14번지 지하1층,198454.941457159,443618.009639659,126.98042692343628,37.494765163813625
618,집단급식소,영업/정상,서울특별시 서초구 양재동 309번지 언남교육문화회관 2층,203747.849806806,441192.958631143,127.04026742834283,37.47290948855394
619,집단급식소,영업/정상,서울특별시 서초구 잠원동 54-6번지 신동중학교,201079.72815542,446012.113480309,127.01011152810813,37.51633683265192
620,집단급식소,영업/정상,서울특별시 서초구 서초동 1631-1 윤용빌딩 지하1층,201808.286683795,443101.599671009,127.01834559964044,37.4901120664227
621,집단급식소,영업/정상,서울특별시 서초구 서초동 1353-3 지하1층,202446.442103967,442446.250176197,127.02555934478781,37.48420593857769
622,집단급식소,영업/정상,서울특별시 서초구 우면동 554-1번지 2층,201639.147885079,439429.289761526,127.01642523512085,37.45702475564338
623,집단급식소,영업/정상,서울특별시 서초구 잠원동 157번지 동아아파트 관리동,200828.122824103,445167.786945639,127.00726465920266,37.508729719801586
624,집단급식소,영업/정상,서울특별시 서초구 우면동 690번지,202039.309395644,440261.188842888,127.0209502470903,37.464519437957804
625,집단급식소,영업/정상,서울특별시 서초구 서초동 1470-1번지 (주)우리은행 서초동합숙소,200627.83985911,442069.71628414,127.00499704986491,37.48081626070542
626,집단급식소,영업/정상,서울특별시 서초구 내곡동 6-7번지 외 9필지,206059.856619754,439252.151463844,127.06638837833505,37.45541064424217
627,집단급식소,영업/정상,서울특별시 서초구 서초동 391-0 서울시인재개발원 1층,201754.046058565,442005.576285919,127.01772976577374,37.48023698560481
628,집단급식소,영업/정상,서울특별시 은평구 진관동 243-1번지,192730.61062833,458537.758866622,126.91554663685571,37.6291626496849
629,집단급식소,영업/정상,서울특별시 은평구 응암동 115-20번지,192801.68654908,455148.945681858,126.916385444346,37.59863067493138
630,집단급식소,영업/정상,서울특별시 은평구 신사동 163-13번지,191806.232941512,454221.255859936,126.90512361851651,37.590263954646645
631,집단급식소,영업/정상,서울특별시 은평구 불광동 639번지,194118.180910187,457552.258470407,126.93127360226725,37.620293519375906
632,집단급식소,영업/정상,서울특별시 용산구 후암동 38-3번지,198007.686105749,449964.088659905,126.9753515693371,37.55194213685787
633,집단급식소,영업/정상,서울특별시 용산구 이촌동 301-54번지,198268.840426588,446369.318704311,126.97831576352367,37.519554049488114
634,집단급식소,영업/정상,서울특별시 은평구 진관동 89번지,192692.508078865,459089.62757547,126.91510943190436,37.63413455804928
635,집단급식소,영업/정상,서울특별시 은평구 갈현동 460-8,192761.348927256,457225.218523112,126.9159079568692,37.61733718355879
636,집단급식소,영업/정상,서울특별시 은평구 응암동 761-2,193134.482395591,453807.146245349,126.92016664033694,37.586543846996385
637,집단급식소,영업/정상,서울특별시 은평구 진관동 392-1번지,192345.630590387,459934.133815356,126.91117068596955,37.64174051345605
638,집단급식소,영업/정상,서울특별시 은평구 불광동 98-6,193551.766031692,458138.171666665,126.92485257262928,37.62556863839779
639,집단급식소,영업/정상,서울특별시 은평구 수색동 75번지 수색자이1단지,190977.850603548,453037.787995874,126.89575893636685,37.579593293627
640,집단급식소,영업/정상,서울특별시 은평구 응암동 68-1,193756.456246767,455285.0680792,126.92719586501563,37.59986415247481
641,집단급식소,영업/정상,서울특별시 은평구 응암동 126-46번지 지하1층,192579.962209136,454698.80765977,126.91387928897177,37.59457323218974
642,집단급식소,영업/정상,서울특별시 은평구 진관동 97번지,192699.187801701,458940.738421866,126.91518660742227,37.63279315418336
643,집단급식소,영업/정상,서울특별시 은평구 갈현동 240-1 지상4층,192203.175160351,457491.95841735,126.90958287801904,37.61973585417499
644,집단급식소,영업/정상,서울특별시 양천구 목동 765-1 지상1층,188372.966259655,448252.114882652,126.86634561991097,37.53644560215434
645,집단급식소,영업/정상,서울특별시 은평구 증산동 92-143,191649.520563395,453805.561952276,126.90335401683969,37.58651720060842
646,집단급식소,영업/정상,서울특별시 은평구 갈현동 9-25번지,192543.422478934,458129.104481754,126.9134302974955,37.62547925081942
647,집단급식소,영업/정상,서울특별시 은평구 신사동 266번지,191483.537290978,455510.596393067,126.90145479360847,37.6018777385383
648,집단급식소,영업/정상,서울특별시 은평구 대조동 15-123 (7층),193814.576026954,456279.905534701,126.92784551900016,37.60882785541746
649,집단급식소,영업/정상,서울특별시 은평구 역촌동 45-58번지 지층,192411.019023961,456059.921184357,126.91195209436421,37.606835234025475
650,집단급식소,영업/정상,서울특별시 은평구 응암동 732-3번지 (지상1층),192722.160655444,453711.549827864,126.915499317049,37.585679342863884
651,집단급식소,영업/정상,서울특별시 은평구 녹번동 87-1번지 (별관동 지상1층),193713.777823827,455582.626021913,126.92670999579484,37.60254480389031
652,집단급식소,영업/정상,서울특별시 은평구 갈현동 산 53-1번지 (대성고등학교 공동관리),191828.415359561,457798.334550761,126.90533453739951,37.622492959127655
653,집단급식소,영업/정상,서울특별시 은평구 진관동 80번지,193008.687512992,459155.35826067,126.91869084305195,37.63472925764574
654,집단급식소,영업/정상,서울특별시 서초구 서초동 1504-0,200465.500681267,443011.048180232,127.0031621593525,37.489297755738875
655,집단급식소,영업/정상,서울특별시 서초구 반포동 30-8번지,201273.837643133,444491.749793958,127.01230466582614,37.502638163312774
656,집단급식소,영업/정상,서울특별시 서초구 염곡동 304-3번지 8층,203974.015074827,440314.956281442,127.04281952090243,37.464997729997464
657,집단급식소,영업/정상,서울특별시 서초구 서초동 1325-1번지,202117.319425769,443506.409413815,127.02184107869971,37.493758767039644
658,집단급식소,영업/정상,서울특별시 양천구 신월동 611-2 1층,186438.811517518,446436.008819776,126.84449561749872,37.520056109136625
659,집단급식소,영업/정상,서울특별시 양천구 목동 909-9,189606.474101545,448283.82895719,126.88030150179345,37.53674615067243
660,집단급식소,영업/정상,서울특별시 양천구 신월동 540-1 한빛복지관내,185806.106834547,446326.950565347,126.83734067046974,37.51906394686519
661,집단급식소,영업/정상,서울특별시 양천구 신월동 121-36,185424.762067941,447642.663426813,126.83300080945646,37.53091243384707
662,집단급식소,영업/정상,서울특별시 은평구 대조동 211-4번지,192883.042386829,456672.76119999,126.91729175212416,37.612360610776484
663,집단급식소,영업/정상,서울특별시 은평구 녹번동 152-79 우리어린이집,193225.354617202,455968.204108138,126.92117531217292,37.60601529269272
664,집단급식소,영업/정상,서울특별시 은평구 진관동 11번지 은평뉴타운 719동,193693.946147923,459966.011101941,126.92644724144678,37.642038055421736
665,집단급식소,영업/정상,서울특별시 은평구 녹번동 100-24번지 지상4층,193586.520740333,455844.91928635,126.92526656962951,37.604907132206264
666,집단급식소,영업/정상,서울특별시 양천구 신정동 949-5번지 신정4동어린이집 지상1층,187183.428364543,446935.200707767,126.85290987109583,37.52456448069257
667,집단급식소,영업/정상,서울특별시 양천구 신정동 311-3 세신유치원,187274.30098855,446171.568432773,126.85395115579313,37.51768547421234
668,집단급식소,영업/정상,서울특별시 양천구 신월동 36-1 신동아파밀리에아파트 지상1층 108동,184448.272783027,448613.107419385,126.821932687321,37.53964001836091
669,집단급식소,영업/정상,서울특별시 양천구 신월동 226-8 승욱빌딩 지하1층,185444.060673275,447512.371736581,126.83322173613425,37.52973882434645
670,집단급식소,영업/정상,서울특별시 성북구 정릉동 820-18번지,199833.620945644,457315.210572579,126.9960128339224,37.61817695767983
671,집단급식소,영업/정상,서울특별시 성북구 종암동 8-2번지,203168.772465436,454636.255715801,127.03377788065596,37.594034840671156
672,집단급식소,영업/정상,서울특별시 성북구 안암동5가 126-1 고려대병원,202313.850759843,453871.264665299,127.02409518287283,37.58714487358145
673,집단급식소,영업/정상,서울특별시 성북구 삼선동5가 411,201416.773357127,454126.789904809,127.01393890814568,37.58944887222701
674,집단급식소,영업/정상,서울특별시 은평구 구산동 191-1번지 신관5층,191702.159455982,455932.140095298,126.90392571275359,37.605677781807266
675,집단급식소,영업/정상,서울특별시 은평구 갈현동 110-6 아람어린이집,192615.017082029,457300.072878645,126.91424975185376,37.618010432647836
676,집단급식소,영업/정상,서울특별시 서초구 양재동 310번지,203848.497571774,441106.496067817,127.0414047857015,37.4721300520576
677,집단급식소,영업/정상,서울특별시 서초구 방배동 1027-4 (지하 1층),199923.725054839,441382.349611289,126.9970364739131,37.47462323307074
678,집단급식소,영업/정상,서울특별시 은평구 진관동 63 롯데몰 은평점 지하1층,192694.92374224,459461.236119623,126.91513305312583,37.6374826845283
679,집단급식소,영업/정상,서울특별시 은평구 녹번동 135-15번지,193469.348980812,456039.59423594,126.9239378783366,37.60666028563223
680,집단급식소,영업/정상,서울특별시 서초구 양재동 7-44번지 (지하 1층),203542.464840252,442317.537456949,127.03795090433866,37.48304276100426
681,집단급식소,영업/정상,서울특별시 은평구 구산동 340-6번지,191801.55479607,456946.181615426,126.90503990120747,37.614814996784915
682,집단급식소,영업/정상,서울특별시 은평구 응암동 123-19번지,192514.500088876,454747.876670008,126.9131375456283,37.59501480117897
683,집단급식소,영업/정상,서울특별시 양천구 신정동 937-4번지,186738.229357054,447192.57619297,126.84786887420616,37.526877091593846
684,집단급식소,영업/정상,서울특별시 성북구 삼선동3가 68-2번지,201136.825242509,453789.418017466,127.01076873296819,37.586409569917286
685,집단급식소,영업/정상,서울특별시 성북구 석관동 384-39번지,205476.907194814,456784.80240238,127.05992895502901,37.613382190622104
686,집단급식소,영업/정상,"서울특별시 양천구 신월동 932-7 지하1층,1층,2층",185111.314795277,446653.365125428,126.82947475409884,37.52199392181829
687,집단급식소,영업/정상,서울특별시 양천구 신정동 979-32,187283.803492711,446679.448730283,126.85404981514984,37.522261570610084
688,집단급식소,영업/정상,서울특별시 성북구 종암동 80,202593.37574683,455407.749060476,127.02726527960348,37.600987629895094
689,집단급식소,영업/정상,서울특별시 서초구 반포동 97-4번지 일진빌딩 5층,199750.717129713,443783.226212592,126.9950795892176,37.49625511267035
690,집단급식소,영업/정상,서울특별시 은평구 불광동 444-5번지,193449.769914981,458115.718593418,126.92369737839472,37.62536561297438
691,집단급식소,영업/정상,서울특별시 은평구 불광동 205-2,193699.439819504,457709.258715124,126.92652913233543,37.621705256737826
692,집단급식소,영업/정상,서울특별시 은평구 불광동 638-2번지,194424.271032201,456616.153410493,126.93474791814099,37.61186132489042
693,집단급식소,영업/정상,서울특별시 은평구 녹번동 141-34번지,193279.827418513,456094.733898325,126.92179103801602,37.607155705968424
694,집단급식소,영업/정상,서울특별시 은평구 구산동 18-32번지,192191.088834796,456293.203796615,126.90945887366566,37.608935210697446
695,집단급식소,영업/정상,서울특별시 은평구 진관동 77번지,192922.420075998,459236.653870875,126.9177127039488,37.63546104626092
696,집단급식소,영업/정상,서울특별시 은평구 불광동 339-13번지 지하1층,193298.71412383,457462.839155345,126.92199228334499,37.6194822066878
697,집단급식소,영업/정상,서울특별시 은평구 진관동 10번지 은평뉴타운상림마을 1층 740동,193847.429070457,460006.426256932,126.92818591390312,37.642403237444455
698,집단급식소,영업/정상,서울특별시 은평구 대조동 191-10번지 지상3층,193207.690750639,457000.515705047,126.92096560027096,37.61531609147667
699,집단급식소,영업/정상,서울특별시 은평구 녹번동 110-7번지 지상1층,193910.845966679,456007.677948688,126.92893809497664,37.60637578402228
700,집단급식소,영업/정상,서울특별시 은평구 역촌동 55-23번지 지층,192080.222032503,455733.333443909,126.90820937662089,37.60388992847004
701,집단급식소,영업/정상,서울특별시 성북구 하월곡동 222-5번지,203239.072534461,456283.624247465,127.03458103529847,37.60887711120537
702,집단급식소,영업/정상,서울특별시 성북구 하월곡동 96-156번지,202786.38028401,456356.447098961,127.02945441599705,37.609534682236095
703,집단급식소,영업/정상,서울특별시 성북구 종암동 79-236,202864.283483126,455270.833733811,127.03033255231627,37.59975326165871
704,집단급식소,영업/정상,서울특별시 성북구 하월곡동 230번지,202667.468802014,455858.920803881,127.02810592321045,37.605052403184345
705,집단급식소,영업/정상,서울특별시 성북구 안암동5가 1-2번지,202789.692329185,454049.551940162,127.02948334277072,37.588749930201324
706,집단급식소,영업/정상,서울특별시 양천구 목동 757-2번지,188496.708308046,448331.045496748,126.86774443682823,37.53715831952904
707,집단급식소,영업/정상,서울특별시 양천구 신월동 40-1번지,184328.485185892,448531.425706841,126.82057906455691,37.538902040014335
708,집단급식소,영업/정상,서울특별시 양천구 신정동 312-1,187768.964247333,446455.562782159,126.8595417922498,37.520250964574274
709,집단급식소,영업/정상,서울특별시 양천구 신정동 281-2,188690.185549981,446083.811039928,126.86996830170757,37.51691331601981
710,집단급식소,영업/정상,서울특별시 양천구 신정동 1001,187663.105806482,446837.384894815,126.8583378923504,37.52368973761923
711,집단급식소,영업/정상,서울특별시 양천구 목동 927-5,188203.666864399,446875.581017717,126.86445232576011,37.524040986622886
712,집단급식소,영업/정상,서울특별시 양천구 신월동 987-3번지,185253.900744951,445995.342532668,126.83110096041217,37.51606749022626
713,집단급식소,영업/정상,서울특별시 양천구 신정동 941,186777.993164981,447104.251781095,126.84832031423592,37.52608186944079
714,집단급식소,영업/정상,서울특별시 은평구 신사동 283-29번지,191526.626727898,455384.660817288,126.90194421772584,37.60074348256062
715,집단급식소,영업/정상,서울특별시 은평구 역촌동 80-21번지,192093.427212326,455542.129945492,126.90836100096213,37.60216733427053
716,집단급식소,영업/정상,서울특별시 은평구 응암동 111-55번지,192727.780194423,455184.76127024,126.91554818710915,37.59895278104538
717,집단급식소,영업/정상,서울특별시 은평구 녹번동 75-8번지 3층,193910.897263779,455507.518744322,126.92894287946335,37.60186943965253
718,집단급식소,영업/정상,서울특별시 은평구 신사동 30-37번지 3층,192073.440373332,454792.628060334,126.90814284178504,37.59541428074067
719,집단급식소,영업/정상,서울특별시 양천구 신정동 319-13,188434.340564718,446414.275214947,126.86706911197493,37.51988758926055
720,집단급식소,영업/정상,서울특별시 은평구 신사동 20-5번지,192058.770127466,455152.17811144,126.90797279658688,37.598653636984054
721,집단급식소,영업/정상,서울특별시 은평구 갈현동 495-8번지,192358.7230765,457084.713571731,126.91134905303979,37.61606797767756
722,집단급식소,영업/정상,서울특별시 은평구 역촌동 12-6,192629.041067511,456211.822794614,126.91441965366593,37.608205626503626
723,집단급식소,영업/정상,서울특별시 성동구 성수동2가 333-17번지,204538.590386518,448552.293934289,127.04925133285428,37.53921342667296
724,집단급식소,영업/정상,서울특별시 성동구 행당동 346-1 한진A 임대관리동2층,202265.894280281,450334.952738818,127.0235416031197,37.55528325286752
725,집단급식소,영업/정상,서울특별시 성동구 성수동1가 685-143번지,203352.586096218,449489.197223791,127.03583614192416,37.547659839369004
726,집단급식소,영업/정상,서울특별시 성동구 용답동 29-0번지,204662.185573386,450951.492635329,127.05066481087833,37.56082937635818
727,집단급식소,영업/정상,서울특별시 성동구 성수동2가 279-29,205607.708885848,449180.71973336,127.06135292059024,37.544869686437934
728,집단급식소,영업/정상,서울특별시 성동구 마장동 798-1,203585.771943713,451393.202374324,127.03848402283128,37.56481387265866
729,집단급식소,영업/정상,서울특별시 성동구 응봉동 205-1번지,202939.21257424,449850.555582928,127.03115979549852,37.55091702708537
730,집단급식소,영업/정상,서울특별시 성동구 성수동2가 268번지,205092.820732986,448606.759265006,127.05552270269304,37.539701300468124
731,집단급식소,영업/정상,서울특별시 성동구 옥수동 227-2번지,201034.098330397,448801.995835779,127.00959907492451,37.54147356278825
732,집단급식소,영업/정상,서울특별시 은평구 응암동 114-1 학교법인신진학원,192702.196478693,455115.635153077,126.91525917667633,37.598329762475046
733,집단급식소,영업/정상,서울특별시 은평구 구산동 8-3번지,192452.788194435,456428.738957738,126.9124212956808,37.610158558651015
734,집단급식소,영업/정상,서울특별시 은평구 신사동 300-88번지,191401.27583989,454518.42181017,126.90053497929186,37.59293764922738
735,집단급식소,영업/정상,서울특별시 은평구 대조동 91-20번지,193232.914099465,456867.826553467,126.9212525261702,37.61412077605565
736,집단급식소,영업/정상,서울특별시 은평구 구산동 152-3번지,191925.073125768,456651.211736962,126.9064421774462,37.61215847798612
737,집단급식소,영업/정상,서울특별시 은평구 구산동 8-3번지,192452.788194435,456428.738957738,126.9124212956808,37.610158558651015
738,집단급식소,영업/정상,서울특별시 은평구 대조동 212-1번지,192830.084405363,456731.760677955,126.91669137476663,37.61289176966539
739,집단급식소,영업/정상,서울특별시 은평구 응암동 272-113번지 (충암중학교 공동관리),192992.029736533,453631.658604068,126.91855549366588,37.584961647219956
740,집단급식소,영업/정상,서울특별시 은평구 갈현동 227-5번지,191878.285589609,457311.453258238,126.90590488456671,37.61810670592374
741,집단급식소,영업/정상,서울특별시 은평구 대조동 84-1번지,193394.38138013,456765.338643124,126.92308225784585,37.6131985648678
742,집단급식소,영업/정상,서울특별시 은평구 역촌동 44-28번지,192551.98978217,455278.568446081,126.9135566064132,37.599796549305495
743,집단급식소,영업/정상,서울특별시 은평구 역촌동 9-37번지 지하1층,192490.618161339,456043.531077271,126.91285372504531,37.60668822081596
744,집단급식소,영업/정상,서울특별시 은평구 구산동 191-1번지 K동7층,191702.159455982,455932.140095298,126.90392571275359,37.605677781807266
745,집단급식소,영업/정상,서울특별시 은평구 역촌동 73-29번지,191851.775331781,455773.809865691,126.90562186361785,37.60425260328293
746,집단급식소,영업/정상,서울특별시 은평구 신사동 229-12번지 1층,191772.94252209,454890.292991456,126.90473911552833,37.596291567486006
747,집단급식소,영업/정상,서울특별시 은평구 응암동 87-7번지 8층,193094.466511401,455408.434327848,126.91969834743853,37.60097088585013
748,집단급식소,영업/정상,서울특별시 성북구 길음동 1278번지,202073.752572838,456449.070674026,127.02138385320009,37.61037103572867
749,집단급식소,영업/정상,서울특별시 성북구 성북동 330-115,198545.876020342,454980.927178232,126.98143171974189,37.59714425589331
750,집단급식소,영업/정상,서울특별시 성북구 장위동 252-31번지,204126.12765886,456265.897274219,127.04462712962186,37.608713906641576
751,집단급식소,영업/정상,서울특별시 성북구 종암동 104-1 SK아파트단지내,203196.800963466,455429.846270094,127.03409864333969,37.60118486637563
752,집단급식소,영업/정상,서울특별시 성북구 정릉동 산 16-1,201027.728455347,456975.034276104,127.00953773639918,37.61511155943291
753,집단급식소,영업/정상,서울특별시 성북구 장위동 66-187 그레이스빌,204647.820129495,456491.147699271,127.05053686623002,37.61074092081009
754,집단급식소,영업/정상,서울특별시 양천구 목동 901-1,188987.616884725,448648.011860811,126.87329401819508,37.540020181721324
755,집단급식소,영업/정상,서울특별시 양천구 신월동 202-1,184888.835463494,447477.304026103,126.82694102640562,37.52941390381387
756,집단급식소,영업/정상,서울특별시 양천구 신정동 919-6 신정종합사회복지관,187167.749262042,447234.554974923,126.85272724829412,37.52726141916816
757,집단급식소,영업/정상,서울특별시 양천구 신월동 564-7 지하1층,186000.182452059,445750.355947554,126.83954702340095,37.51387184862014
758,집단급식소,영업/정상,서울특별시 성북구 정릉동 692-21번지,200338.201002241,456317.50837228,127.00172771022844,37.60918783601762
759,집단급식소,영업/정상,서울특별시 성북구 동소문동7가 10-5번지,201271.27330952,454785.900963987,127.01229258556657,37.59538756304948
760,집단급식소,영업/정상,서울특별시 성동구 용답동 223-5,204934.319835624,451032.958798449,127.05374538144711,37.56156197991166
761,집단급식소,영업/정상,서울특별시 성동구 금호동1가 127-2번지,201842.336390409,450286.525049451,127.01874798885429,37.554847838186575
762,집단급식소,영업/정상,서울특별시 용산구 원효로4가 1-0번지,195867.534112881,448010.587100818,126.951143252044,37.534333990072675
763,집단급식소,영업/정상,서울특별시 용산구 보광동 238-2,199624.32911584,447432.870599462,126.99364817146952,37.52913824040137
764,집단급식소,영업/정상,서울특별시 용산구 청파동2가 1-42번지,196769.959844944,449481.141483282,126.96134674542733,37.54758723495263
765,집단급식소,영업/정상,서울특별시 은평구 구산동 191-1,191702.159455982,455932.140095298,126.90392571275359,37.605677781807266
766,집단급식소,영업/정상,서울특별시 용산구 한강로2가 44-3번지 (지상18층),197408.590760127,447767.340468517,126.96857972348239,37.532148076744214
767,집단급식소,영업/정상,서울특별시 용산구 용산동6가 168-6 지상6층,198359.894042796,446755.881350777,126.97934484942803,37.52303713388716
768,집단급식소,영업/정상,서울특별시 은평구 불광동 279-2번지,193900.559542371,456733.402863734,126.92881549054736,37.61291436029844
769,집단급식소,영업/정상,서울특별시 은평구 갈현동 298-10번지,192429.610605266,458147.974229212,126.91214085794685,37.62564832528606
770,집단급식소,영업/정상,서울특별시 은평구 신사동 1-19번지,192181.821698322,455399.730810479,126.90936353971315,37.60088510497447
771,집단급식소,영업/정상,서울특별시 은평구 증산동 193-21번지,191983.857793528,453863.272011743,126.90713872330961,37.58704015359279
772,집단급식소,영업/정상,서울특별시 은평구 응암동 603-60,192542.250837577,453806.882406932,126.91346143446745,37.586536822654054
773,집단급식소,영업/정상,서울특별시 은평구 갈현동 275-124번지,192289.44268189,457918.630631556,126.91055549262029,37.62358081433297
774,집단급식소,영업/정상,서울특별시 은평구 응암동 577-57,192574.934507996,454366.377782428,126.91382575809705,37.59157805316906
775,집단급식소,영업/정상,서울특별시 성북구 돈암동 15-3번지,202050.842400521,455128.418145247,127.02112080016302,37.59847223547312
776,집단급식소,영업/정상,서울특별시 성북구 돈암동 632-10번지 풍림(아) 단지내,201944.151431778,454824.964844636,127.01991187899542,37.595738394511216
777,집단급식소,영업/정상,서울특별시 성북구 정릉동 966-112번지,201213.269814847,455645.233540338,127.01163714299875,37.603130081768526
778,집단급식소,영업/정상,서울특별시 양천구 신월동 608-2,186395.305287017,446634.469417252,126.8439997915936,37.521843580453755
779,집단급식소,영업/정상,서울특별시 양천구 목동 231-50번지,188426.741261858,448833.171822543,126.8669448429022,37.541681548942584
780,집단급식소,영업/정상,서울특별시 성동구 옥수동 544번지,201051.233532242,449700.086007702,127.00979416881208,37.549565262952875
781,집단급식소,영업/정상,서울특별시 용산구 한남동 685-43번지,199973.352329142,448035.743498988,126.99759668979358,37.53457018867749
782,집단급식소,영업/정상,서울특별시 용산구 후암동 247-57번지 외10필지 후암생활관 한국은행(지상2층),198050.470401263,449491.153524325,126.97583704428392,37.5476811281802
783,집단급식소,영업/정상,서울특별시 용산구 한강로3가 40-999 9층,196762.077394917,447480.039577359,126.96126654334233,37.52955742609546
784,집단급식소,영업/정상,서울특별시 은평구 역촌동 67-9번지 (지하1층),192102.392487726,455674.117373606,126.90846109126733,37.60335659459922
785,집단급식소,영업/정상,서울특별시 은평구 갈현동 415-2번지,192751.736551263,458062.983845465,126.91579070698607,37.62488519822953
786,집단급식소,영업/정상,서울특별시 은평구 불광동 산 2번지 (지상1층),194173.444518874,457934.809900624,126.9318964956237,37.62374058444786
787,집단급식소,영업/정상,서울특별시 은평구 구산동 191-1 (지상1층),191702.159455982,455932.140095298,126.90392571275359,37.605677781807266
788,집단급식소,영업/정상,서울특별시 은평구 신사동 300-88번지 (지상1층),191401.27583989,454518.42181017,126.90053497929186,37.59293764922738
789,집단급식소,영업/정상,서울특별시 은평구 갈현동 240-1번지 (지상3층),192203.175160351,457491.95841735,126.90958287801904,37.61973585417499
790,집단급식소,영업/정상,서울특별시 은평구 대조동 91-20번지,193232.914099465,456867.826553467,126.9212525261702,37.61412077605565
791,집단급식소,영업/정상,서울특별시 은평구 구산동 191-1 (지상6층),191702.159455982,455932.140095298,126.90392571275359,37.605677781807266
792,집단급식소,영업/정상,서울특별시 은평구 불광동 445-35번지 (지상1층),193176.447866585,458364.030188622,126.92059889566465,37.62760084027256
793,집단급식소,영업/정상,서울특별시 용산구 청파동2가 53-12,196831.461759469,449320.370380461,126.9620434122043,37.546138918869055
794,집단급식소,영업/정상,서울특별시 은평구 증산동 산 24-4번지,191459.422116689,453466.40803403,126.90120571784027,37.58345972012793
795,집단급식소,영업/정상,서울특별시 은평구 불광동 144-1번지 외5필지,193679.233556386,457749.807168192,126.92629989660533,37.62207044983269
796,집단급식소,영업/정상,서울특별시 은평구 불광동 346-153번지,193691.883418114,457609.906191555,126.92644440439379,37.62081005866393
797,집단급식소,영업/정상,서울특별시 은평구 신사동 194번지,191764.088030055,454458.161428638,126.90464374891538,37.59239805571658
798,집단급식소,영업/정상,서울특별시 은평구 대조동 212-35번지,192725.857567391,456676.693173211,126.91551146101887,37.612394796719826
799,집단급식소,영업/정상,서울특별시 은평구 갈현동 419-14번지,192703.98361626,458098.455200729,126.91524941673651,37.62520440655834
800,집단급식소,영업/정상,서울특별시 은평구 응암동 114-12번지,192722.864644857,455037.883643778,126.91549399663378,37.59762939988749
801,집단급식소,영업/정상,서울특별시 은평구 진관동 14-13번지,193691.32937417,460316.894164973,126.92641453225131,37.64519940923462
802,집단급식소,영업/정상,서울특별시 은평구 진관동 16번지 진관중학교,193381.279748179,460162.764479491,126.92290282046476,37.64380853553847
803,집단급식소,영업/정상,서울특별시 은평구 응암동 335-19번지,192842.233150566,454183.920939033,126.91685409896667,37.589936281987534
804,집단급식소,영업/정상,서울특별시 은평구 응암동 232-3,193192.019829273,454620.355721841,126.92081044796372,37.59387116575006
805,집단급식소,영업/정상,서울특별시 은평구 역촌동 산 31-0,191428.12937323,455780.41102268,126.90082415780073,37.60430820035867
806,집단급식소,영업/정상,서울특별시 은평구 갈현동 395-1번지,192828.601825992,457608.289925664,126.91666591532986,37.62078910987232
807,집단급식소,영업/정상,서울특별시 은평구 녹번동 281-1 구립 녹번어린이집 1층,194208.235033323,456076.62075817,126.9323054587458,37.60699888677377
808,집단급식소,영업/정상,서울특별시 은평구 응암동 93-6번지 다솜어린이집,193543.626966582,455415.321659228,126.92478463533892,37.601036231305805
809,집단급식소,영업/정상,서울특별시 은평구 응암동 348-13번지 지상,192922.916438765,454324.104104626,126.91776626521177,37.591199939078535
810,집단급식소,영업/정상,서울특별시 은평구 응암동 85-56번지,193177.257210054,455456.558893594,126.92063542700026,37.60140510292376
811,집단급식소,영업/정상,서울특별시 은평구 녹번동 산 28-6 1층,193913.321192334,455605.276250539,126.9289695074699,37.60275023372421
812,집단급식소,영업/정상,서울특별시 은평구 녹번동 153-16 1층,193150.07253567,455805.494195769,126.92032428758807,37.60454874357614
813,집단급식소,영업/정상,서울특별시 은평구 수색동 129번지,190696.572590116,453634.933241999,126.89256699061163,37.58497066224747
814,집단급식소,영업/정상,서울특별시 은평구 응암동 90-1번지,192882.837727443,455340.54056388,126.91730250270884,37.60035754806895
815,집단급식소,영업/정상,서울특별시 은평구 진관동 197-20,193683.052594735,459228.912615077,126.92633024896162,37.635396894318916
816,집단급식소,영업/정상,서울특별시 은평구 구산동 191-1번지 지하1층,191702.159455982,455932.140095298,126.90392571275359,37.605677781807266
817,집단급식소,영업/정상,서울특별시 은평구 신사동 1-53번지,192297.450525116,455295.768903101,126.9106740357151,37.59994940968133
818,집단급식소,영업/정상,서울특별시 은평구 구산동 산 41-1번지,191616.704797122,456332.36143737,126.90295333463287,37.609282919350804
819,집단급식소,영업/정상,서울특별시 은평구 구산동 산 41-1번지,191616.704797122,456332.36143737,126.90295333463287,37.609282919350804
820,집단급식소,영업/정상,서울특별시 은평구 진관동 165-32번지,192967.4902897,458966.999022211,126.91822593808567,37.63303186661409
821,집단급식소,영업/정상,서울특별시 은평구 수색동 409-1번지,190070.101132767,453674.57599517,126.8854737345972,37.58532125144849
822,집단급식소,영업/정상,서울특별시 은평구 갈현동 451-15번지,192577.788680424,457438.27686232,126.91382666251322,37.61925531995968
823,집단급식소,영업/정상,서울특별시 은평구 대조동 82-0번지,193413.315529902,456659.802879865,126.92329766472598,37.61224784516981
824,집단급식소,영업/정상,서울특별시 은평구 역촌동 82-1번지,192369.050046022,455487.983567324,126.91148280644651,37.601681830973
825,집단급식소,영업/정상,서울특별시 은평구 응암동 272-113번지,192992.029736533,453631.658604068,126.91855549366588,37.584961647219956
826,집단급식소,영업/정상,서울특별시 은평구 녹번동 174번지,193422.037656694,455761.721600632,126.92340459921667,37.604156363597475
827,집단급식소,영업/정상,서울특별시 은평구 응암동 760번지 아파트관리동,193178.165720379,454282.485459616,126.92065675306806,37.590826906227015
828,집단급식소,영업/정상,서울특별시 은평구 불광동 643-2번지,193488.534068563,457213.203329275,126.92414460461526,37.617234415081306
829,집단급식소,영업/정상,서울특별시 은평구 불광동 436-29번지,193425.759064593,457873.7343424,126.92342758396572,37.62318521302583
830,집단급식소,영업/정상,서울특별시 양천구 목동 903-1 서울영도초등학교 1~3층,188573.477095576,448175.608355388,126.86861546462526,37.53575880460938
831,집단급식소,영업/정상,서울특별시 양천구 신정동 325-7,187566.410684744,445314.902028856,126.85726991282873,37.50997096340396
832,집단급식소,영업/정상,서울특별시 양천구 목동 735 강서고등학교 1~3층,188116.996242954,448247.895331407,126.86344955676138,37.53640430499909
833,집단급식소,영업/정상,서울특별시 양천구 목동 741-11,188249.445543938,448609.027050106,126.86494232405315,37.53965977294449
834,집단급식소,영업/정상,서울특별시 은평구 녹번동 153-21번지,193205.566015544,455829.616998307,126.92095250677866,37.60476650090986
835,집단급식소,영업/정상,서울특별시 은평구 녹번동 154-27번지,193279.993779221,455736.242007494,126.92179624410905,37.60392576087011
836,집단급식소,영업/정상,서울특별시 은평구 대조동 172-23 구립 대조어린이집 1층,192991.467567416,456414.975010712,126.91852225064008,37.610038846769044
837,집단급식소,영업/정상,서울특별시 은평구 갈현동 462-52번지 8층,192640.903780482,456933.471863348,126.9145466820867,37.61470764057769
838,집단급식소,영업/정상,서울특별시 은평구 불광동 산 24번지 지하1층,193630.877812244,458428.104970608,126.92574618899889,37.62818143201322
839,집단급식소,영업/정상,서울특별시 성북구 길음동 1284-2번지,201381.807630547,456090.724821981,127.01354654457013,37.607143654774134
840,집단급식소,영업/정상,서울특별시 성북구 석관동 10번지,205996.717928956,456704.522324447,127.06581568578198,37.61265567777322
841,집단급식소,영업/정상,서울특별시 성북구 장위동 218-27번지,203879.798950143,457393.803169639,127.04184326141973,37.61887717889727
842,집단급식소,영업/정상,서울특별시 성북구 삼선동5가 411번지,201416.773357127,454126.789904809,127.01393890814568,37.58944887222701
843,집단급식소,영업/정상,서울특별시 은평구 진관동 203-1,194707.053267064,459933.301534039,126.93792634800312,37.64174981422911
844,집단급식소,영업/정상,서울특별시 은평구 녹번동 40-3번지,194137.428872837,455498.69007046,126.93150825450513,37.601791381562094
845,집단급식소,영업/정상,서울특별시 은평구 불광동 272-2번지,193834.541800601,456719.236926179,126.92806789833645,37.612786283252504
846,집단급식소,영업/정상,서울특별시 은평구 진관동 108번지,193674.157336616,458947.151502225,126.9262319343114,37.63285822860062
847,집단급식소,영업/정상,서울특별시 은평구 신사동 98-32번지,192183.938177421,454494.414470083,126.90939724732415,37.59272837899261
848,집단급식소,영업/정상,서울특별시 은평구 증산동 212-0번지,191494.183129866,453352.138713529,126.90160059957925,37.58243049517543
849,집단급식소,영업/정상,서울특별시 은평구 불광동 173-0번지,193896.712716051,457866.506026062,126.9287623699804,37.62312336648799
850,집단급식소,영업/정상,서울특별시 은평구 신사동 230-11번지,191562.918928027,455018.682170799,126.90235944203589,37.5974464159558
851,집단급식소,영업/정상,"서울특별시 은평구 불광동 400-4번지 ,435-16",193316.896273493,457888.126650128,126.92219430862394,37.623314092404186
852,집단급식소,영업/정상,서울특별시 은평구 불광동 73-1번지,193607.825779886,458220.486716884,126.92548688271472,37.626310674737276
853,집단급식소,영업/정상,서울특별시 은평구 녹번동 177-15 서울서부경찰서,192981.976661413,455527.945030163,126.91842334253934,37.60204679732144
854,집단급식소,영업/정상,서울특별시 은평구 녹번동 86번지 지하1층,193670.304074665,455703.069551018,126.92621663142926,37.603629677598995
855,집단급식소,영업/정상,서울특별시 은평구 불광동 331-27번지,193516.847449897,457277.178014806,126.92446472623473,37.61781101611905
856,집단급식소,영업/정상,서울특별시 은평구 대조동 208-11번지 1층,193042.366129636,456793.837327584,126.91909506733685,37.61345271292594
857,집단급식소,영업/정상,서울특별시 은평구 응암동 419-220번지,192879.911244648,454564.629921932,126.91727697398395,37.593366702766794
858,집단급식소,영업/정상,서울특별시 은평구 갈현동 산 53-1번지,191828.415359561,457798.334550761,126.90533453739951,37.622492959127655
859,집단급식소,영업/정상,서울특별시 은평구 갈현동 240-1번지,192203.175160351,457491.95841735,126.90958287801904,37.61973585417499
860,집단급식소,영업/정상,서울특별시 은평구 녹번동 27-6번지,194047.377531025,455977.868865806,126.9304845525948,37.60610811250008
861,집단급식소,영업/정상,서울특별시 은평구 진관동 9999-1번지 한국고전번역원,193635.579026858,458731.24904773,126.92579678042955,37.63091272660357
862,집단급식소,영업/정상,서울특별시 양천구 목동 625-19번지,188002.500467606,449394.906116227,126.86213527650065,37.5467372649803
863,집단급식소,영업/정상,서울특별시 양천구 신월동 43-3 광영여자고등학교 5층,184383.822944091,448400.817278971,126.82120798197946,37.53772621542186
864,집단급식소,영업/정상,서울특별시 양천구 신정동 329,188467.215363052,446003.941216623,126.8674474580336,37.51619091985487
865,집단급식소,영업/정상,서울특별시 양천구 신정동 312 목동아파트9단지내2층,187766.276177683,446265.890841351,126.85951455751923,37.518541997704475
866,집단급식소,영업/정상,서울특별시 성북구 정릉동 266-11번지,200910.152114845,456828.623184685,127.00820586480611,37.61379253867007
867,집단급식소,영업/정상,서울특별시 양천구 신정동 276 양천아파트단지내,188012.804745161,445428.447103333,126.86231692168477,37.510999932041045
868,집단급식소,영업/정상,서울특별시 성북구 동선동3가 249-1번지,201804.476671074,454438.257071786,127.01832937550944,37.5922544929254
869,집단급식소,영업/정상,서울특별시 성북구 돈암동 173-1 성신여자대학교,201875.186140306,454403.293978173,127.01912991926328,37.59193934452056
870,집단급식소,영업/정상,서울특별시 성북구 동선동3가 249-1번지,201804.476671074,454438.257071786,127.01832937550944,37.5922544929254
871,집단급식소,영업/정상,서울특별시 성북구 안암동5가 1-2번지 애기능생활관,202789.692329185,454049.551940162,127.02948334277072,37.588749930201324
872,집단급식소,영업/정상,서울특별시 은평구 응암동 226-13번지,193332.452701085,454915.93683898,126.92239785976368,37.59653533986169
873,집단급식소,영업/정상,서울특별시 서초구 반포동 20-15 1층,200902.163395858,444783.564798579,127.00810163437947,37.505267822988046
874,집단급식소,영업/정상,서울특별시 양천구 신정동 314,188231.065840178,446607.610784468,126.86476658913051,37.521626945937065
875,집단급식소,영업/정상,서울특별시 양천구 신정동 1286-1번지,185770.805168906,445592.487737257,126.83695562376865,37.51244594447106
876,집단급식소,영업/정상,서울특별시 양천구 신정동 326 목동12단지아파트내,187652.903985452,445655.04439912,126.85824244208412,37.51303679314974
877,집단급식소,영업/정상,서울특별시 양천구 신월동 66-2,185270.830605296,448553.112481435,126.83124097566791,37.53911302902404
878,집단급식소,영업/정상,서울특별시 영등포구 당산동 121-22 영동초등학교,191736.595184162,447150.714471596,126.9044153824464,37.526558560320986
879,집단급식소,영업/정상,서울특별시 영등포구 당산동5가 5번지 당산서중학교,190968.730874208,447761.537630533,126.89572108077593,37.532054784420886
880,집단급식소,영업/정상,서울특별시 용산구 원효로2가 8-4번지,196738.665813308,448369.520783972,126.96099765435319,37.537571508944986
881,집단급식소,영업/정상,서울특별시 양천구 신월동 16-14,184712.163887145,448666.184206243,126.82491745326118,37.540122663735154
882,집단급식소,영업/정상,서울특별시 성북구 정릉동 640-3번지 북악중학교,200101.936584242,456036.674163577,126.9990519113951,37.60665760979122
883,집단급식소,영업/정상,서울특별시 성북구 정릉동 660,200082.297001586,456382.580178831,126.99882950151428,37.609774161720985
